[{"id":"hejfish-16026","name":"Froschgrundsee","lat":50.349472,"lng":11.029889,"water_type":null,"platform":"hejfish","fish_count":0},{"id":"hejfish-15670","name":"Altbach","lat":49.098818,"lng":10.43702,"water_type":null,"platform":"hejfish","fish_count":0},{"id":"hejfish-15597","name":"Talsperre Heichelheim","lat":51.050649,"lng":11.324854,"water_type":null,"platform":"hejfish","fish_count":0},{"id":"hejfish-15528","name":"Kanukarten Waldschlut (Gemarkung Vogtsburg)","lat":48.095337,"lng":7.582502,"water_type":null,"platform":"hejfish","fish_count":0},{"id":"hejfish-15527","name":"Kanukarten Waldschlut (Gemarkung Breisach)","lat":48.002951,"lng":7.618928,"water_type":null,"platform":"merged","fish_count":0},{"id":"hejfish-15510","name":"Kyll bei Auw","lat":49.905076,"lng":6.615062,"water_type":null,"platform":"hejfish","fish_count":0},{"id":"hejfish-15499","name":"Dreiecksweiher in Unterlaus","lat":47.942014,"lng":11.860935,"water_type":null,"platform":"merged","fish_count":0},{"id":"hejfish-15497","name":"Glenne","lat":51.676192661441,"lng":8.2936388533269,"water_type":null,"platform":"hejfish","fish_count":0},{"id":"hejfish-15463","name":"Angelteich Hausen","lat":50.844616625883,"lng":9.4534229139348,"water_type":null,"platform":"hejfish","fish_count":0},{"id":"hejfish-15462","name":"Olberöder See","lat":50.852710450477,"lng":9.4241193527532,"water_type":null,"platform":"hejfish","fish_count":0},{"id":"hejfish-15121","name":"Mittelradde und Teich an der Radde","lat":52.823617,"lng":7.69842,"water_type":null,"platform":"hejfish","fish_count":0},{"id":"hejfish-15068","name":"Sulz Beilngries","lat":49.02775,"lng":11.481454,"water_type":null,"platform":"hejfish","fish_count":0},{"id":"hejfish-15067","name":"Altmühl Beilngries","lat":49.022212,"lng":11.494706,"water_type":null,"platform":"hejfish","fish_count":0},{"id":"hejfish-14947","name":"Haupthafen Düsseldorf (Kombischein für 6 Gewässer)","lat":51.217567,"lng":6.755089,"water_type":null,"platform":"merged","fish_count":0},{"id":"hejfish-14946","name":"Kaiserteich und Schwanenspiegel (Kombischein für 6 Gewässer)","lat":51.217987,"lng":6.774049,"water_type":"See","platform":"merged","fish_count":0},{"id":"hejfish-14945","name":"Volksgartenweiher (Kombischein für 6 Gewässer)","lat":51.20753,"lng":6.796532,"water_type":null,"platform":"merged","fish_count":0},{"id":"hejfish-14944","name":"Xantener Nord - und Südsee (Kombischein für 6 Gewässer)","lat":51.705605,"lng":6.417766,"water_type":null,"platform":"merged","fish_count":6},{"id":"hejfish-14943","name":"Tenderingssee (Kombischein für 6 Gewässer)","lat":51.594461,"lng":6.728743,"water_type":null,"platform":"merged","fish_count":0},{"id":"hejfish-14942","name":"Rhein in NRW (Kombischein für 6 Gewässer)","lat":50.623466,"lng":7.213792,"water_type":null,"platform":"merged","fish_count":1},{"id":"hejfish-14899","name":"Oder (am Harz)","lat":51.627636,"lng":10.271828,"water_type":null,"platform":"hejfish","fish_count":0},{"id":"hejfish-14465","name":"Örtze","lat":52.867909,"lng":10.115471,"water_type":null,"platform":"hejfish","fish_count":0},{"id":"hejfish-14410","name":"T51 - Haderbacher Teich - Mischgewässer","lat":51.781392507208,"lng":10.306869671249,"water_type":null,"platform":"merged","fish_count":0},{"id":"hejfish-14380","name":"T6 - Alter Wasserläufer Teich - Mischgewässer","lat":51.794098,"lng":10.345398,"water_type":null,"platform":"merged","fish_count":0},{"id":"hejfish-14340","name":"Nymphenburger / Biedersteiner Kanal","lat":48.160623,"lng":11.511733,"water_type":null,"platform":"hejfish","fish_count":0},{"id":"hejfish-14203","name":"Silbersee bei Waldmünchen (Staatliches Fischereigewässer)","lat":49.408182,"lng":12.607261,"water_type":null,"platform":"hejfish","fish_count":0},{"id":"hejfish-14202","name":"Perlsee bei Waldmünchen","lat":49.390126,"lng":12.697941,"water_type":null,"platform":"hejfish","fish_count":0},{"id":"hejfish-13362","name":"Unterschleißheimer See","lat":48.2873603,"lng":11.5534131,"water_type":"See","platform":"merged","fish_count":0},{"id":"hejfish-13340","name":"Rauhwiesensee Sinsheim","lat":49.233741,"lng":8.883878,"water_type":null,"platform":"hejfish","fish_count":0},{"id":"hejfish-13151","name":"Wellenbruchsee","lat":52.336111,"lng":10.339861,"water_type":null,"platform":"hejfish","fish_count":0},{"id":"hejfish-13146","name":"Moorhüttensee","lat":52.29025,"lng":10.585611,"water_type":null,"platform":"hejfish","fish_count":0},{"id":"hejfish-13089","name":"Oestertalsperre","lat":51.16592,"lng":7.81963,"water_type":"Stausee","platform":"merged","fish_count":0},{"id":"hejfish-12834","name":"Ramsach / Rechtach","lat":47.658959,"lng":11.201516,"water_type":null,"platform":"hejfish","fish_count":0},{"id":"hejfish-12833","name":"Obere Ramsach","lat":47.637239,"lng":11.161909,"water_type":null,"platform":"hejfish","fish_count":0},{"id":"hejfish-12745","name":"Hegbachsee","lat":49.9484046,"lng":8.4739034,"water_type":null,"platform":"hejfish","fish_count":0},{"id":"hejfish-12653","name":"Kiessee 1 (Northeim)","lat":51.719744,"lng":9.963823,"water_type":null,"platform":"hejfish","fish_count":0},{"id":"hejfish-12652","name":"Leine (Northeim)","lat":51.705184,"lng":9.966362,"water_type":null,"platform":"hejfish","fish_count":0},{"id":"hejfish-12651","name":"Rhume (Northeim)","lat":51.714852,"lng":9.983084,"water_type":null,"platform":"hejfish","fish_count":0},{"id":"hejfish-12612","name":"Niedersonthofener See","lat":47.6374,"lng":10.28057,"water_type":null,"platform":"hejfish","fish_count":0},{"id":"hejfish-12607","name":"Mittelberganlage","lat":50.116352,"lng":11.887683,"water_type":null,"platform":"hejfish","fish_count":0},{"id":"hejfish-12320","name":"Langer See Garzin","lat":52.542196,"lng":13.970393,"water_type":null,"platform":"hejfish","fish_count":0},{"id":"hejfish-12179","name":"Teiche Pferdebachtal, Günterode und Siemerode (Mischgewässer)","lat":51.348867,"lng":10.1638,"water_type":null,"platform":"hejfish","fish_count":0},{"id":"hejfish-12178","name":"Leine, Geislede, Beber, Walse, Lutter, Asbach","lat":51.394652,"lng":10.221836,"water_type":null,"platform":"hejfish","fish_count":0},{"id":"hejfish-12095","name":"Mönchsteich","lat":51.598532,"lng":11.186321,"water_type":null,"platform":"hejfish","fish_count":0},{"id":"hejfish-12094","name":"Gondelteich","lat":51.606833,"lng":11.124674,"water_type":null,"platform":"hejfish","fish_count":0},{"id":"hejfish-12046","name":"Kiesgrube Schwarzer Hecht","lat":50.790017,"lng":10.30405,"water_type":null,"platform":"hejfish","fish_count":0},{"id":"hejfish-16130","name":"Höllteich","lat":51.582914016745,"lng":10.606927081492,"water_type":"Teich","platform":"merged","fish_count":0},{"id":"hejfish-16128","name":"Priorteich","lat":51.591213072718,"lng":10.596018836323,"water_type":"Teich","platform":"merged","fish_count":0},{"id":"hejfish-16131","name":"Röseteich","lat":51.582559544101,"lng":10.609139340771,"water_type":null,"platform":"hejfish","fish_count":0},{"id":"hejfish-16129","name":"Andreasteich","lat":51.585058084737,"lng":10.606801859301,"water_type":null,"platform":"hejfish","fish_count":0},{"id":"hejfish-16126","name":"Blumweiler See","lat":49.400743786252,"lng":10.098809327626,"water_type":"Baggersee","platform":"merged","fish_count":0},{"id":"hejfish-16125","name":"In den Steinen","lat":49.345781724097,"lng":6.7086972006938,"water_type":null,"platform":"hejfish","fish_count":0},{"id":"hejfish-16124","name":"In der Engt","lat":49.346153812055,"lng":6.7003597123439,"water_type":null,"platform":"hejfish","fish_count":0},{"id":"hejfish-16122","name":"Fulda bei Niederaula","lat":50.771637,"lng":9.592548,"water_type":null,"platform":"hejfish","fish_count":0},{"id":"hejfish-16120","name":"Lahn bei Dutenhofen","lat":50.569655170292,"lng":8.6106108455405,"water_type":null,"platform":"hejfish","fish_count":0},{"id":"hejfish-16119","name":"Zechteich Marienweiher e.V.","lat":50.157972,"lng":11.641222,"water_type":null,"platform":"hejfish","fish_count":0},{"id":"hejfish-16116","name":"Weiher Helchenbach","lat":48.801361,"lng":11.984056,"water_type":null,"platform":"hejfish","fish_count":0},{"id":"hejfish-16115","name":"Große Laaber","lat":48.722472,"lng":12.019889,"water_type":null,"platform":"hejfish","fish_count":0},{"id":"hejfish-16110","name":"Zusam","lat":48.260556,"lng":10.515833,"water_type":null,"platform":"hejfish","fish_count":0},{"id":"hejfish-16109","name":"Brinkenweiher Montabaur","lat":50.4552197006,"lng":7.8229853413507,"water_type":null,"platform":"hejfish","fish_count":0},{"id":"hejfish-16108","name":"Hauserbachsee Miehlen","lat":50.237127749584,"lng":7.8386446654622,"water_type":null,"platform":"hejfish","fish_count":0},{"id":"hejfish-16127","name":"Hirseteich","lat":51.592443412996,"lng":10.599233992821,"water_type":"Teich","platform":"merged","fish_count":0},{"id":"hejfish-16105","name":"Ach","lat":47.784076,"lng":11.107718,"water_type":null,"platform":"hejfish","fish_count":0},{"id":"hejfish-16104","name":"Aschwardener Flutgraben","lat":53.308786287686,"lng":8.5156729284692,"water_type":null,"platform":"hejfish","fish_count":0},{"id":"hejfish-16100","name":"Indiekkanal","lat":53.31879,"lng":8.557247,"water_type":null,"platform":"hejfish","fish_count":0},{"id":"hejfish-16097","name":"Ilz","lat":48.607612,"lng":13.445429,"water_type":"Fluss","platform":"merged","fish_count":0},{"id":"hejfish-16096","name":"Ilz","lat":48.590254,"lng":13.460899,"water_type":null,"platform":"merged","fish_count":0},{"id":"hejfish-16094","name":"Ilz","lat":48.584051,"lng":13.468364,"water_type":null,"platform":"hejfish","fish_count":0},{"id":"hejfish-16093","name":"Große Hüttener Au","lat":54.49138,"lng":9.70751,"water_type":null,"platform":"hejfish","fish_count":0},{"id":"hejfish-16086","name":"Ems und schiffbare Ems Wesuwe","lat":52.782047,"lng":7.254616,"water_type":null,"platform":"hejfish","fish_count":0},{"id":"hejfish-16084","name":"Wispersee","lat":50.151950639663,"lng":7.9679944801515,"water_type":null,"platform":"hejfish","fish_count":0},{"id":"hejfish-16081","name":"Windebyer Noor","lat":54.477372250282,"lng":9.8082844613678,"water_type":null,"platform":"hejfish","fish_count":0},{"id":"hejfish-16080","name":"Wyler Meer","lat":51.82079718413,"lng":5.9513196415843,"water_type":null,"platform":"hejfish","fish_count":0},{"id":"hejfish-16107","name":"Prüm bei Minden","lat":49.82282307954,"lng":6.4710720623689,"water_type":null,"platform":"hejfish","fish_count":0},{"id":"hejfish-16078","name":"Manteler Baggerweiher","lat":49.655125,"lng":12.026634,"water_type":null,"platform":"hejfish","fish_count":0},{"id":"hejfish-16076","name":"Großer Moorsee","lat":49.773701911155,"lng":8.595167501848,"water_type":null,"platform":"hejfish","fish_count":0},{"id":"hejfish-16073","name":"Schönmünz bei Zwickgabel","lat":48.588482,"lng":8.3190121,"water_type":null,"platform":"hejfish","fish_count":0},{"id":"hejfish-16072","name":"Fehmbacher Weiher","lat":48.824861,"lng":12.856056,"water_type":null,"platform":"hejfish","fish_count":0},{"id":"hejfish-16071","name":"Altenufer Weiher","lat":48.761806,"lng":13.039778,"water_type":null,"platform":"hejfish","fish_count":0},{"id":"hejfish-16070","name":"Baggersee Seebach","lat":48.788944,"lng":13.01375,"water_type":null,"platform":"hejfish","fish_count":0},{"id":"hejfish-16069","name":"Eixendorfer Stausee","lat":49.357055,"lng":12.447703,"water_type":null,"platform":"hejfish","fish_count":0},{"id":"hejfish-16068","name":"Ascha","lat":49.404007,"lng":12.395632,"water_type":null,"platform":"hejfish","fish_count":0},{"id":"hejfish-16067","name":"Schwarzach","lat":49.367288,"lng":12.35002,"water_type":null,"platform":"hejfish","fish_count":0},{"id":"hejfish-16066","name":"Schwarzach","lat":49.355443,"lng":12.373249,"water_type":null,"platform":"merged","fish_count":0},{"id":"hejfish-16064","name":"Schwarzach","lat":49.362501,"lng":12.437209,"water_type":null,"platform":"hejfish","fish_count":0},{"id":"hejfish-16063","name":"Schwarzach","lat":49.364597,"lng":12.398393,"water_type":null,"platform":"hejfish","fish_count":0},{"id":"hejfish-16062","name":"Schwarzach","lat":49.351133,"lng":12.389036,"water_type":null,"platform":"merged","fish_count":0},{"id":"hejfish-16061","name":"Schöhsee","lat":54.165382838708,"lng":10.439387131324,"water_type":null,"platform":"hejfish","fish_count":0},{"id":"hejfish-16060","name":"Schluensee","lat":54.188723666883,"lng":10.467229947116,"water_type":"See","platform":"merged","fish_count":0},{"id":"hejfish-16059","name":"Trammer See","lat":54.170806936973,"lng":10.410663658733,"water_type":"See","platform":"merged","fish_count":0},{"id":"hejfish-16052","name":"Sieg bei Bergheim mit Mühlengraben","lat":50.799421702767,"lng":7.1569256925383,"water_type":null,"platform":"hejfish","fish_count":0},{"id":"hejfish-16048","name":"Kleine Kieskuhle Tellingstedt","lat":54.227439,"lng":9.265278,"water_type":null,"platform":"hejfish","fish_count":0},{"id":"hejfish-16047","name":"Tränkwiesweiher","lat":49.382608,"lng":6.922307,"water_type":null,"platform":"hejfish","fish_count":0},{"id":"hejfish-16046","name":"Großes Moor Tellingstedt","lat":54.242738,"lng":9.331976,"water_type":null,"platform":"hejfish","fish_count":0},{"id":"hejfish-16042","name":"Stever Ermen","lat":51.747953,"lng":7.460554,"water_type":null,"platform":"hejfish","fish_count":0},{"id":"hejfish-16041","name":"Stever am Ternscher See","lat":51.719969,"lng":7.43182,"water_type":null,"platform":"hejfish","fish_count":0},{"id":"hejfish-16039","name":"RhFV Kombi-Karte für Rhein NRW; Xantener Nord- und Südsee; Haupthafen Düsseldorf; Hafen Bad Honnef; Wendebecken Gellep; Tenderingsee (nur DAFV Verbandsmitglieder)","lat":50.743635177508,"lng":7.1077451324354,"water_type":null,"platform":"hejfish","fish_count":0},{"id":"hejfish-16037","name":"Oste (AV HH Mitglieder)","lat":53.80891612639,"lng":9.0433227182091,"water_type":null,"platform":"hejfish","fish_count":0},{"id":"hejfish-16038","name":"Rheder Ems-Altarm","lat":53.061429197601,"lng":7.273647948456,"water_type":null,"platform":"hejfish","fish_count":0},{"id":"hejfish-16029","name":"Teupitzer See","lat":52.139979284023,"lng":13.602435082661,"water_type":"See","platform":"merged","fish_count":0},{"id":"hejfish-16021","name":"Tauber, bei Tauberbischofsheim","lat":49.660341587544,"lng":9.6442290257933,"water_type":null,"platform":"hejfish","fish_count":0},{"id":"hejfish-16018","name":"Kleickmannsee - Nord","lat":51.724317,"lng":8.267607,"water_type":null,"platform":"hejfish","fish_count":0},{"id":"hejfish-16015","name":"Süderau","lat":54.903839,"lng":8.910101,"water_type":null,"platform":"hejfish","fish_count":0},{"id":"hejfish-16014","name":"Dreihardergotteskoogstrom","lat":54.897153,"lng":8.849086,"water_type":null,"platform":"hejfish","fish_count":0},{"id":"hejfish-16012","name":"Elbe-Seitenkanal","lat":52.408711,"lng":10.620267,"water_type":null,"platform":"hejfish","fish_count":0},{"id":"hejfish-16011","name":"Schaalsee","lat":53.6256678998,"lng":10.90043994129,"water_type":null,"platform":"hejfish","fish_count":0},{"id":"hejfish-16010","name":"Altmühl Windsfeld bis Gundelsheim","lat":49.077398,"lng":10.800821,"water_type":null,"platform":"hejfish","fish_count":0},{"id":"hejfish-15999","name":"Sendelbach","lat":50.002743998212,"lng":10.793245271034,"water_type":null,"platform":"hejfish","fish_count":0},{"id":"hejfish-15998","name":"Regenrückhaltebecken in Melle-Gerden","lat":52.1968,"lng":8.3661,"water_type":null,"platform":"hejfish","fish_count":0},{"id":"hejfish-15997","name":"Sonnensee","lat":52.2365,"lng":8.1753,"water_type":null,"platform":"hejfish","fish_count":0},{"id":"hejfish-15996","name":"Else","lat":52.2054,"lng":8.338,"water_type":null,"platform":"hejfish","fish_count":0},{"id":"hejfish-15995","name":"Rhein-Main-Donaukanal","lat":49.089069,"lng":11.446568,"water_type":null,"platform":"hejfish","fish_count":0},{"id":"hejfish-15991","name":"Laber","lat":49.134907,"lng":11.522341,"water_type":null,"platform":"hejfish","fish_count":0},{"id":"hejfish-15988","name":"Sulz","lat":49.158738,"lng":11.452642,"water_type":null,"platform":"hejfish","fish_count":0},{"id":"hejfish-15987","name":"Stichkanal Osnabrück km 0,68 - 12,60 (Tages- und Wochenkarten/Gasterlaubnis)","lat":52.386039,"lng":7.955144,"water_type":null,"platform":"hejfish","fish_count":0},{"id":"hejfish-15986","name":"Mittellandkanal Osnabrück km 8,00 - 68,54 (Tages- und Wochenkarten/Gasterlaubnis)","lat":52.397920563125,"lng":7.9889115423292,"water_type":null,"platform":"hejfish","fish_count":0},{"id":"hejfish-15975","name":"Ludwig-Donau-Main-Kanal","lat":49.125724,"lng":11.444811,"water_type":null,"platform":"hejfish","fish_count":0},{"id":"hejfish-15974","name":"Stausee Postfelden","lat":49.075811,"lng":12.437222,"water_type":"Stausee","platform":"merged","fish_count":0},{"id":"hejfish-15973","name":"Neuweiher (Wiesenfelden)","lat":49.048492,"lng":12.540964,"water_type":null,"platform":"hejfish","fish_count":0},{"id":"hejfish-15972","name":"Sieg bei Bergheim","lat":50.768581712671,"lng":7.0775017046625,"water_type":null,"platform":"hejfish","fish_count":0},{"id":"hejfish-15970","name":"3. Wehle","lat":54.807,"lng":8.748379,"water_type":null,"platform":"hejfish","fish_count":0},{"id":"hejfish-15969","name":"Angelwehle","lat":54.784929,"lng":8.813784,"water_type":"Teich","platform":"merged","fish_count":0},{"id":"hejfish-15968","name":"Legerade","lat":54.775991,"lng":8.836715,"water_type":"Teich","platform":"merged","fish_count":0},{"id":"hejfish-15966","name":"Wupper Talsperre","lat":51.187172103052,"lng":7.3074810176433,"water_type":null,"platform":"hejfish","fish_count":0},{"id":"hejfish-15965","name":"Bever-Talsperre","lat":51.144471964597,"lng":7.3709196681447,"water_type":null,"platform":"hejfish","fish_count":0},{"id":"hejfish-15964","name":"Stausee Üdersdorf","lat":50.144554891947,"lng":6.7956217863207,"water_type":"Stausee","platform":"merged","fish_count":0},{"id":"hejfish-15963","name":"Saale","lat":50.110755,"lng":9.913698,"water_type":null,"platform":"hejfish","fish_count":0},{"id":"hejfish-15962","name":"Fliegenstrecke Ferndorf (Siegen)","lat":50.92778315836,"lng":8.0111144496953,"water_type":null,"platform":"hejfish","fish_count":0},{"id":"hejfish-15961","name":"Bornbruchsee","lat":49.970099718267,"lng":8.5963318776297,"water_type":null,"platform":"hejfish","fish_count":0},{"id":"hejfish-15959","name":"Main","lat":50.068,"lng":8.9919,"water_type":null,"platform":"hejfish","fish_count":0},{"id":"hejfish-15958","name":"Überlauf Polder","lat":53.178341664933,"lng":7.6962222954887,"water_type":null,"platform":"hejfish","fish_count":0},{"id":"hejfish-15956","name":"Altarm Dullert am Jümmesee","lat":53.212568395431,"lng":7.6384142428807,"water_type":null,"platform":"merged","fish_count":0},{"id":"hejfish-15954","name":"Altarm Scharpness","lat":53.206194379536,"lng":7.6445725947886,"water_type":"Altarm","platform":"merged","fish_count":0},{"id":"hejfish-15953","name":"Barger Kolk 2","lat":53.190060377311,"lng":7.6724461452521,"water_type":null,"platform":"hejfish","fish_count":0},{"id":"hejfish-15952","name":"Barger Kolk 1","lat":53.18960058109,"lng":7.6683927304378,"water_type":"Teich","platform":"merged","fish_count":0},{"id":"hejfish-15951","name":"Altarm Terwisch","lat":53.22051905158,"lng":7.5865571258982,"water_type":null,"platform":"hejfish","fish_count":0},{"id":"hejfish-15950","name":"Ruhr - Ruhrtal bei Schwerte","lat":51.416139,"lng":7.52013,"water_type":null,"platform":"hejfish","fish_count":0},{"id":"hejfish-15949","name":"Altarm Detern","lat":53.20595728122,"lng":7.6816286501694,"water_type":"Altarm","platform":"merged","fish_count":0},{"id":"hejfish-15948","name":"Altarm Ubbehausen","lat":53.179743731251,"lng":7.6575297181405,"water_type":null,"platform":"hejfish","fish_count":0},{"id":"hejfish-15947","name":"Südgeorgsfehnkanal","lat":53.257361544014,"lng":7.7693499945336,"water_type":null,"platform":"hejfish","fish_count":0},{"id":"hejfish-15946","name":"Nordgeorgsfehnkanal fließend","lat":53.345927557687,"lng":7.763183019841,"water_type":null,"platform":"hejfish","fish_count":0},{"id":"hejfish-15945","name":"Altarm Schilfshörn","lat":53.204237305866,"lng":7.6766691250634,"water_type":null,"platform":"hejfish","fish_count":0},{"id":"hejfish-15944","name":"Barger Sandkuhle","lat":53.187532901009,"lng":7.6697362130394,"water_type":null,"platform":"hejfish","fish_count":0},{"id":"hejfish-15943","name":"Hauptfehnkanal","lat":53.150116221725,"lng":7.5931668841356,"water_type":null,"platform":"merged","fish_count":0},{"id":"hejfish-15942","name":"Aper Tief","lat":53.210470478876,"lng":7.7334845967847,"water_type":null,"platform":"hejfish","fish_count":0},{"id":"hejfish-15941","name":"Barßeler und das Nordloher Tief","lat":53.177146256536,"lng":7.7255334032082,"water_type":null,"platform":"hejfish","fish_count":0},{"id":"hejfish-15940","name":"Sagter Ems","lat":53.173282289438,"lng":7.6740101035524,"water_type":null,"platform":"hejfish","fish_count":0},{"id":"hejfish-15939","name":"Dreyschloot","lat":53.177794289073,"lng":7.6682960506325,"water_type":null,"platform":"hejfish","fish_count":0},{"id":"hejfish-15938","name":"Leda","lat":53.213502439802,"lng":7.4454402506992,"water_type":null,"platform":"hejfish","fish_count":0},{"id":"hejfish-15936","name":"Kolk im Hilgenland","lat":53.180790324312,"lng":7.6689080884767,"water_type":null,"platform":"hejfish","fish_count":0},{"id":"hejfish-15933","name":"Rauberweiher","lat":49.34735,"lng":12.19242,"water_type":null,"platform":"hejfish","fish_count":0},{"id":"hejfish-15934","name":"Jümme","lat":53.223013132629,"lng":7.6294558493236,"water_type":null,"platform":"hejfish","fish_count":0},{"id":"hejfish-15932","name":"Edelmannsee","lat":49.356668,"lng":12.200199,"water_type":null,"platform":"hejfish","fish_count":0},{"id":"hejfish-15930","name":"Untere Sieg (Siegen)","lat":50.846345278528,"lng":7.985414819843,"water_type":null,"platform":"hejfish","fish_count":0},{"id":"hejfish-15929","name":"Obere Sieg (Siegen)","lat":50.865375617856,"lng":8.0060426134487,"water_type":null,"platform":"hejfish","fish_count":0},{"id":"hejfish-15927","name":"Wolfweiher","lat":48.875532,"lng":12.790614,"water_type":"Weiher","platform":"merged","fish_count":0},{"id":"hejfish-15926","name":"Kieflweiher","lat":48.87589,"lng":12.79342,"water_type":null,"platform":"hejfish","fish_count":0},{"id":"hejfish-15925","name":"Hofbauerweiher","lat":48.875768,"lng":12.795323,"water_type":null,"platform":"hejfish","fish_count":0},{"id":"hejfish-15924","name":"Vereinsweiher","lat":48.870338,"lng":12.803429,"water_type":null,"platform":"hejfish","fish_count":0},{"id":"hejfish-15923","name":"Nidda bei Frankfurt Bonames/Heddernheim","lat":50.177371,"lng":8.667314,"water_type":null,"platform":"merged","fish_count":0},{"id":"hejfish-15920","name":"Baggersee \"Alt\"","lat":51.498171144489,"lng":8.93309781754,"water_type":null,"platform":"hejfish","fish_count":0},{"id":"hejfish-15918","name":"Entlastungspolder Holter Hammrich","lat":53.1926329561912,"lng":7.575484288354661,"water_type":null,"platform":"hejfish","fish_count":0},{"id":"hejfish-15917","name":"Bernhards Ruh","lat":53.1904822212818,"lng":7.604666153418645,"water_type":null,"platform":"hejfish","fish_count":0},{"id":"hejfish-15916","name":"Jonnys Kuhle","lat":53.164559735258,"lng":7.5238068122011,"water_type":null,"platform":"hejfish","fish_count":0},{"id":"hejfish-15915","name":"Burlage-Langholter Tief","lat":53.150648025686024,"lng":7.599602425875682,"water_type":null,"platform":"hejfish","fish_count":0},{"id":"hejfish-15913","name":"Leda / Sagter-Ems","lat":53.0961630903632,"lng":7.701764569872975,"water_type":null,"platform":"hejfish","fish_count":0},{"id":"hejfish-15914","name":"Jümme","lat":53.20714170117553,"lng":7.641520856738255,"water_type":"See","platform":"merged","fish_count":0},{"id":"hejfish-15912","name":"Leda-Altarm Ubbehausen","lat":53.1848412763826,"lng":7.65042376192322,"water_type":null,"platform":"hejfish","fish_count":0},{"id":"hejfish-15910","name":"Holter Siel- und Schöpfwerkstief","lat":53.19219886431173,"lng":7.561261645469832,"water_type":null,"platform":"hejfish","fish_count":0},{"id":"hejfish-15909","name":"Raakesee","lat":53.10872366429779,"lng":7.653562917926869,"water_type":null,"platform":"hejfish","fish_count":0},{"id":"hejfish-15908","name":"Idasee","lat":53.151403697674,"lng":7.6434918994442,"water_type":"Baggersee","platform":"merged","fish_count":0},{"id":"hejfish-15905","name":"Gastkarte für den Hahnentanger See & alle Gastgewässer des FV Rhauderfehn","lat":53.107529508537,"lng":7.5596904417733,"water_type":null,"platform":"hejfish","fish_count":0},{"id":"hejfish-15904","name":"Langholter Meer","lat":53.137928099063,"lng":7.5922459471371,"water_type":null,"platform":"hejfish","fish_count":0},{"id":"hejfish-15903","name":"MAIN – Fischwasserstrecke Veitshöchheim bis Harrbach  Fluß-km 245,5 bis Fluß-km 217,8","lat":49.824054550912,"lng":9.8708225845599,"water_type":null,"platform":"hejfish","fish_count":0},{"id":"hejfish-15901","name":"Vienenburger See","lat":51.958368431666,"lng":10.559363311192,"water_type":"See","platform":"merged","fish_count":0},{"id":"hejfish-15900","name":"Baggersee Sulzfeld am Main","lat":49.703081,"lng":10.129782,"water_type":null,"platform":"hejfish","fish_count":0},{"id":"hejfish-15899","name":"Meitzer See","lat":52.56774,"lng":9.793247,"water_type":null,"platform":"hejfish","fish_count":0},{"id":"hejfish-15898","name":"Breitenwiesen Weiher (Jugendweiher)","lat":49.64716,"lng":10.91001,"water_type":null,"platform":"hejfish","fish_count":0},{"id":"hejfish-15897","name":"Mühlweiher in Weisendorf","lat":49.62439,"lng":10.83472,"water_type":null,"platform":"hejfish","fish_count":0},{"id":"hejfish-15896","name":"Heller 2","lat":49.5721,"lng":10.92093,"water_type":null,"platform":"hejfish","fish_count":0},{"id":"hejfish-15895","name":"Heller 1","lat":49.57309,"lng":10.92063,"water_type":null,"platform":"hejfish","fish_count":0},{"id":"hejfish-15894","name":"Baggersee in Unterharnsbach","lat":49.82302,"lng":10.80207,"water_type":null,"platform":"hejfish","fish_count":0},{"id":"hejfish-15893","name":"Dorfweiher in Untermembach","lat":49.61432,"lng":10.90791,"water_type":"Weiher","platform":"merged","fish_count":0},{"id":"hejfish-15891","name":"Stausee Trittscheid","lat":50.152329704868,"lng":6.8318597464508,"water_type":null,"platform":"hejfish","fish_count":0},{"id":"hejfish-15890","name":"Großer Herrnweiher in Hammerbach","lat":49.60032,"lng":10.85418,"water_type":"See","platform":"merged","fish_count":0},{"id":"hejfish-15889","name":"Mittlere Aurach Erlangen","lat":49.56252,"lng":10.90411,"water_type":null,"platform":"hejfish","fish_count":0},{"id":"hejfish-15888","name":"Regnitz","lat":49.557427,"lng":10.978189,"water_type":null,"platform":"hejfish","fish_count":0},{"id":"hejfish-15885","name":"Main (km 2,89 bis 30,8) & Nidda (Mündung in Main bis alte Nieder Straßenbrücke)","lat":50.000081666697,"lng":8.3341808233883,"water_type":null,"platform":"merged","fish_count":0},{"id":"hejfish-15882","name":"Bocholter Aasee","lat":51.83024101697,"lng":6.6351704080675,"water_type":null,"platform":"hejfish","fish_count":0},{"id":"hejfish-15881","name":"kaufen für Bocholter Aa","lat":51.827824,"lng":6.656867,"water_type":null,"platform":"merged","fish_count":0},{"id":"hejfish-15880","name":"Baggersee Mosse","lat":51.824783674615,"lng":6.5863023913727,"water_type":null,"platform":"hejfish","fish_count":0},{"id":"hejfish-15879","name":"Stegweiher","lat":49.52416582961,"lng":6.3649859776048,"water_type":null,"platform":"hejfish","fish_count":0},{"id":"hejfish-15878","name":"Moselweiher","lat":49.525461187119,"lng":6.3608446471987,"water_type":null,"platform":"hejfish","fish_count":0},{"id":"hejfish-15877","name":"L-Weiher","lat":49.525983499013,"lng":6.3642135019986,"water_type":null,"platform":"hejfish","fish_count":0},{"id":"hejfish-15876","name":"Forellenweiher","lat":49.524601084111,"lng":6.3674294188008,"water_type":null,"platform":"hejfish","fish_count":0},{"id":"hejfish-15874","name":"Kocher bei Untermünkheim","lat":49.14926,"lng":9.73348,"water_type":null,"platform":"hejfish","fish_count":0},{"id":"hejfish-15865","name":"Eder bei Dodenau","lat":51.030086599805,"lng":8.5791177240741,"water_type":null,"platform":"hejfish","fish_count":0},{"id":"hejfish-15868","name":"Schwentinemündung","lat":54.328072092126,"lng":10.18351045354,"water_type":null,"platform":"hejfish","fish_count":0},{"id":"hejfish-15864","name":"Mahlbusen (Oberlangen)","lat":52.834880627528,"lng":7.2519779753457,"water_type":null,"platform":"hejfish","fish_count":0},{"id":"hejfish-15863","name":"Ems-Altarm Sustrum","lat":52.907460466831,"lng":7.3016487601154,"water_type":null,"platform":"hejfish","fish_count":0},{"id":"hejfish-15862","name":"Ems-Altarm Hilter (Gelber Fluss)","lat":52.833715542223,"lng":7.2574748294538,"water_type":null,"platform":"hejfish","fish_count":0},{"id":"hejfish-15861","name":"Ems-Altarm Fresenburg","lat":52.872393800756,"lng":7.3013460830812,"water_type":null,"platform":"hejfish","fish_count":0},{"id":"hejfish-15860","name":"Ems - Strecke Lathen","lat":52.920903528187,"lng":7.3012926853329,"water_type":null,"platform":"hejfish","fish_count":0},{"id":"hejfish-15859","name":"Dortmund-Ems-Kanal - Strecke Hilter","lat":52.833135802973,"lng":7.2776754910772,"water_type":null,"platform":"hejfish","fish_count":0},{"id":"hejfish-15858","name":"Dortmund-Ems-Kanal - Strecke Fresenburg","lat":52.901440370224,"lng":7.3112327024048,"water_type":null,"platform":"hejfish","fish_count":0},{"id":"hejfish-15857","name":"Dortmund-Ems-Kanal - Strecke Düthe","lat":52.914757039317,"lng":7.3010142049935,"water_type":null,"platform":"hejfish","fish_count":0},{"id":"hejfish-15856","name":"Elbe bei Boizenburg (5013)","lat":53.342576846593,"lng":10.738235208012,"water_type":null,"platform":"hejfish","fish_count":0},{"id":"hejfish-15855","name":"Lahn bei Limburg a.d. Lahn","lat":50.386310590466,"lng":8.0203571130272,"water_type":null,"platform":"hejfish","fish_count":0},{"id":"hejfish-15844","name":"Weser bei Stahle","lat":51.8186721546,"lng":9.4316246516862,"water_type":null,"platform":"merged","fish_count":0},{"id":"hejfish-15843","name":"Kiesseen Bense, Krüger, Koke, Loges","lat":51.822979787022,"lng":9.4324799459324,"water_type":null,"platform":"hejfish","fish_count":0},{"id":"hejfish-15842","name":"Mangfall","lat":47.76536,"lng":11.75883,"water_type":null,"platform":"hejfish","fish_count":0},{"id":"hejfish-15841","name":"Söllbach","lat":47.652403,"lng":11.646925,"water_type":null,"platform":"hejfish","fish_count":0},{"id":"hejfish-15836","name":"Baggersee Okriftel","lat":50.051123348332,"lng":8.4876599318896,"water_type":"See","platform":"merged","fish_count":0},{"id":"hejfish-15834","name":"Wiehl im Oberbergischen Kreis","lat":50.959503,"lng":7.508796,"water_type":null,"platform":"hejfish","fish_count":0},{"id":"hejfish-15832","name":"Toeppersee","lat":51.402575214994,"lng":6.6737055168556,"water_type":null,"platform":"hejfish","fish_count":0},{"id":"hejfish-15817","name":"Meiereiwehl","lat":54.162449346082,"lng":8.8752971878171,"water_type":null,"platform":"hejfish","fish_count":0},{"id":"hejfish-15816","name":"Hamdiekswehl","lat":54.149432959903,"lng":8.8600237098391,"water_type":null,"platform":"hejfish","fish_count":0},{"id":"hejfish-15815","name":"Kükdörp","lat":54.162536,"lng":8.883644,"water_type":null,"platform":"hejfish","fish_count":0},{"id":"hejfish-15814","name":"Warweroter Kanal","lat":54.153670126358,"lng":8.9196072374314,"water_type":null,"platform":"hejfish","fish_count":0},{"id":"hejfish-15813","name":"Mühlenweiher","lat":49.283814,"lng":6.805378,"water_type":null,"platform":"merged","fish_count":0},{"id":"hejfish-15811","name":"Alz und Brunnbach (Fly only)","lat":48.202,"lng":12.78097,"water_type":null,"platform":"hejfish","fish_count":0},{"id":"hejfish-15804","name":"Murg","lat":48.510526,"lng":8.372566,"water_type":null,"platform":"hejfish","fish_count":0},{"id":"hejfish-15803","name":"Schwalm bei Schlierbach","lat":50.98346,"lng":9.20531,"water_type":null,"platform":"hejfish","fish_count":0},{"id":"hejfish-15801","name":"Wiesent - Pretzfeld-Kirchehrenbach","lat":49.752088,"lng":11.159666,"water_type":null,"platform":"hejfish","fish_count":0},{"id":"hejfish-15800","name":"Ottacher Weiher","lat":48.698726,"lng":13.089891,"water_type":null,"platform":"hejfish","fish_count":0},{"id":"hejfish-15799","name":"Kaiserweiher","lat":48.141787,"lng":10.488239,"water_type":null,"platform":"hejfish","fish_count":0},{"id":"hejfish-15797","name":"Bernsteinsee","lat":52.698826197656,"lng":13.223488885163,"water_type":null,"platform":"hejfish","fish_count":0},{"id":"hejfish-15794","name":"Leine bei Freden","lat":51.908994,"lng":9.917785,"water_type":null,"platform":"hejfish","fish_count":0},{"id":"hejfish-15795","name":"Boddensee","lat":52.695987379635,"lng":13.282671092775,"water_type":null,"platform":"hejfish","fish_count":0},{"id":"hejfish-15793","name":"Diemel bei Diemelstadt","lat":51.508625807401,"lng":8.9795737974228,"water_type":null,"platform":"hejfish","fish_count":0},{"id":"hejfish-15791","name":"Kyll","lat":50.156938209003,"lng":6.6144594255841,"water_type":null,"platform":"hejfish","fish_count":0},{"id":"hejfish-15790","name":"Argen","lat":47.635572976932,"lng":9.6890635786263,"water_type":null,"platform":"hejfish","fish_count":0},{"id":"hejfish-15788","name":"Rossweiher in Baiersbronn","lat":48.510657945852,"lng":8.3571842603522,"water_type":null,"platform":"hejfish","fish_count":0},{"id":"hejfish-15784","name":"Walchensee","lat":47.591345,"lng":11.348317,"water_type":"See","platform":"merged","fish_count":0},{"id":"hejfish-15783","name":"Kiesweiher Perschen","lat":49.47746,"lng":12.18028,"water_type":null,"platform":"hejfish","fish_count":0},{"id":"hejfish-15782","name":"Naab","lat":49.5205,"lng":12.16845,"water_type":null,"platform":"hejfish","fish_count":0},{"id":"hejfish-15778","name":"Blies bei Neunkirchen","lat":49.32317883571,"lng":7.2676530219763,"water_type":null,"platform":"hejfish","fish_count":0},{"id":"hejfish-15776","name":"Plinketeich","lat":52.3407,"lng":9.7504,"water_type":null,"platform":"hejfish","fish_count":0},{"id":"hejfish-15775","name":"Silbersee Langenhagen","lat":52.4314,"lng":9.7596,"water_type":null,"platform":"hejfish","fish_count":0},{"id":"hejfish-15769","name":"Heidesee bei Faßberg OT Oberohe auf dem Ferienpark Heidesee","lat":52.878824903523,"lng":10.22721200218,"water_type":null,"platform":"hejfish","fish_count":0},{"id":"hejfish-15767","name":"Schwarzach","lat":49.356885,"lng":12.629481,"water_type":null,"platform":"hejfish","fish_count":0},{"id":"hejfish-15766","name":"Oste bei Zeven","lat":53.326464158438,"lng":9.2245841689499,"water_type":null,"platform":"hejfish","fish_count":0},{"id":"hejfish-15765","name":"Gieselaukanal","lat":54.184432407645,"lng":9.4411290185023,"water_type":"Kanal","platform":"merged","fish_count":0},{"id":"hejfish-15762","name":"Mittellandkanal Ost km 192,60-247,80 (Tages- und Wochenkarten/Gasterlaubnis)","lat":52.353220196258,"lng":10.547829897688,"water_type":null,"platform":"hejfish","fish_count":0},{"id":"hejfish-15761","name":"Mittellandkanal West km 128,29-192,00 (Tages- und Wochenkarten/Gasterlaubnis)","lat":52.408960161964,"lng":9.7362857958611,"water_type":null,"platform":"hejfish","fish_count":0},{"id":"hejfish-15760","name":"Stichkanal nach Linden (Tages- und Wochenkarten/Gasterlaubnis)","lat":52.38838618736,"lng":9.6703536073708,"water_type":null,"platform":"hejfish","fish_count":0},{"id":"hejfish-15759","name":"Stichkanal Hildesheim (Tages- und Wochenkarten/Gasterlaubnis)","lat":52.281070920365,"lng":9.9600827111529,"water_type":null,"platform":"hejfish","fish_count":0},{"id":"hejfish-15758","name":"Stichkanal Salzgitter (Tages- und Wochenkarten/Gasterlaubnis)","lat":52.273220504139,"lng":10.400201793827,"water_type":null,"platform":"hejfish","fish_count":0},{"id":"hejfish-15757","name":"Mittellandkanal AVN Gesamtstrecke km 8,0 - 68,548 & 128,29-247,80 / Stichkanäle (nur für AVN Mitglieder)","lat":52.31466,"lng":9.92557,"water_type":null,"platform":"hejfish","fish_count":0},{"id":"hejfish-15756","name":"Winzerer Letten und Ohe + Säckerbach (Peter Grassinger)","lat":48.723896,"lng":13.065681,"water_type":null,"platform":"merged","fish_count":0},{"id":"hejfish-15754","name":"Prüm","lat":49.84297314038,"lng":6.4550312881056,"water_type":"Fluss","platform":"merged","fish_count":1},{"id":"hejfish-15755","name":"Weiher Beuren (Hochwald)","lat":49.726448815243,"lng":6.9005358626982,"water_type":null,"platform":"hejfish","fish_count":0},{"id":"hejfish-15739","name":"Stöckleweiher Ettringen","lat":48.096601,"lng":10.671088,"water_type":null,"platform":"hejfish","fish_count":0},{"id":"hejfish-15738","name":"Mühlbach","lat":48.121529,"lng":10.660616,"water_type":null,"platform":"hejfish","fish_count":0},{"id":"hejfish-15733","name":"Haienbach bei Memmingen-Memmingerberg","lat":47.980944,"lng":10.204639,"water_type":null,"platform":"hejfish","fish_count":0},{"id":"hejfish-15732","name":"Östliche Günz bei Engetried","lat":47.91725,"lng":10.403361,"water_type":null,"platform":"hejfish","fish_count":0},{"id":"hejfish-15731","name":"Helle See Wildeck Obersuhl","lat":50.943346257605,"lng":10.021486606157,"water_type":null,"platform":"hejfish","fish_count":0},{"id":"hejfish-15730","name":"Weiher Röttenbach","lat":49.673139,"lng":10.937972,"water_type":null,"platform":"hejfish","fish_count":0},{"id":"hejfish-15728","name":"Dreiburgensee","lat":48.744106,"lng":13.352433,"water_type":"See","platform":"merged","fish_count":0},{"id":"hejfish-15727","name":"Regnitz","lat":49.54438,"lng":10.975,"water_type":null,"platform":"hejfish","fish_count":0},{"id":"hejfish-15722","name":"Schwarzach","lat":49.35021,"lng":11.43271,"water_type":null,"platform":"hejfish","fish_count":0},{"id":"hejfish-15721","name":"Haidenaab","lat":49.62336,"lng":12.09735,"water_type":null,"platform":"hejfish","fish_count":0},{"id":"hejfish-15720","name":"Haidenaab","lat":49.75506,"lng":11.93987,"water_type":null,"platform":"hejfish","fish_count":0},{"id":"hejfish-15719","name":"Vils","lat":49.40805,"lng":11.89883,"water_type":null,"platform":"hejfish","fish_count":0},{"id":"hejfish-15718","name":"Schwarze Laber","lat":49.07047,"lng":11.86769,"water_type":null,"platform":"hejfish","fish_count":0},{"id":"hejfish-15717","name":"Haidenaab","lat":49.77159,"lng":11.92974,"water_type":null,"platform":"hejfish","fish_count":0},{"id":"hejfish-15716","name":"Sulzach","lat":49.100186,"lng":10.436421,"water_type":null,"platform":"hejfish","fish_count":0},{"id":"hejfish-15715","name":"Wörnitz","lat":49.058796,"lng":10.482658,"water_type":null,"platform":"hejfish","fish_count":0},{"id":"hejfish-15714","name":"Altmühl","lat":49.327444,"lng":10.377167,"water_type":null,"platform":"hejfish","fish_count":0},{"id":"hejfish-15713","name":"Farrnbach 2","lat":49.484766,"lng":10.899731,"water_type":null,"platform":"hejfish","fish_count":0},{"id":"hejfish-15712","name":"Farrnbach 1","lat":49.487653,"lng":10.934205,"water_type":null,"platform":"hejfish","fish_count":0},{"id":"hejfish-15711","name":"Zenn 2","lat":49.51073,"lng":10.95644,"water_type":null,"platform":"hejfish","fish_count":0},{"id":"hejfish-15710","name":"Zenn 1","lat":49.50819,"lng":10.93786,"water_type":null,"platform":"hejfish","fish_count":0},{"id":"hejfish-15709","name":"Wertach","lat":48.025118,"lng":10.653654,"water_type":null,"platform":"hejfish","fish_count":0},{"id":"hejfish-15708","name":"Vechte bei Schöppingen","lat":52.264328936253,"lng":7.2917708039251,"water_type":null,"platform":"hejfish","fish_count":0},{"id":"hejfish-15706","name":"Rurstrecke 3 bei Monschau","lat":50.556253624262,"lng":6.2767623480659,"water_type":null,"platform":"merged","fish_count":0},{"id":"hejfish-15705","name":"Rurstrecke 1 bei Monschau","lat":50.526874056797,"lng":6.2016837376727,"water_type":null,"platform":"hejfish","fish_count":0},{"id":"hejfish-15704","name":"Doktorsee 1 & 2","lat":52.187747861067,"lng":9.0449782963126,"water_type":null,"platform":"hejfish","fish_count":0},{"id":"hejfish-15703","name":"Lamperteich im Rhäden","lat":50.942709538642,"lng":10.018911504302,"water_type":null,"platform":"hejfish","fish_count":0},{"id":"hejfish-15702","name":"Baggersee Wildeck Obersuhl","lat":50.944165048568,"lng":10.045857019716,"water_type":null,"platform":"hejfish","fish_count":0},{"id":"hejfish-15701","name":"Surfsee","lat":48.335366,"lng":11.655899,"water_type":"See","platform":"merged","fish_count":0},{"id":"hejfish-15700","name":"Galgenbachweiher","lat":48.32518,"lng":11.672381,"water_type":null,"platform":"hejfish","fish_count":0},{"id":"hejfish-15699","name":"Mühlsee","lat":48.332257,"lng":11.6554,"water_type":null,"platform":"hejfish","fish_count":0},{"id":"hejfish-15694","name":"Hasselteich Droysßig (11-480-18)","lat":51.041306,"lng":12.00543,"water_type":"Teich","platform":"merged","fish_count":0},{"id":"hejfish-15693","name":"Elstermühlgraben Rossner Wehr/Obermühle (11-480- 17)","lat":51.050699,"lng":12.122262,"water_type":null,"platform":"hejfish","fish_count":0},{"id":"hejfish-15692","name":"Elstermühlgraben Zeitz (11-480-15)","lat":51.046099,"lng":12.116277,"water_type":null,"platform":"hejfish","fish_count":0},{"id":"hejfish-15691","name":"Elstermühlgraben Elsteraue (11-480-14)","lat":51.18122,"lng":12.266947,"water_type":null,"platform":"hejfish","fish_count":0},{"id":"hejfish-15689","name":"Alter Elsterarm Profen (11-480-12)","lat":51.125842,"lng":12.232929,"water_type":null,"platform":"hejfish","fish_count":0},{"id":"hejfish-15688","name":"Neue Sorge Luckenau (11-480-11)","lat":51.078912,"lng":12.091457,"water_type":null,"platform":"hejfish","fish_count":0},{"id":"hejfish-15687","name":"Inselteich Thierbach (11-480-10)","lat":51.05843,"lng":11.984714,"water_type":"Teich","platform":"merged","fish_count":0},{"id":"hejfish-15686","name":"Restloch Staschwitz (Phönix Nord) (11-480-09)","lat":51.080835,"lng":12.260863,"water_type":null,"platform":"hejfish","fish_count":0},{"id":"hejfish-15685","name":"Parkteich Hollsteitz (11-480-08)","lat":51.078115,"lng":12.038715,"water_type":null,"platform":"hejfish","fish_count":0},{"id":"hejfish-15684","name":"Weickelsdorfer Teich (11-480-07)","lat":51.048919,"lng":11.958188,"water_type":null,"platform":"hejfish","fish_count":0},{"id":"hejfish-15683","name":"Kaynaer Teiche (11-480-06)","lat":50.997228,"lng":12.240039,"water_type":null,"platform":"hejfish","fish_count":0},{"id":"hejfish-15682","name":"Kretschauer See (11-480-05)","lat":51.064777,"lng":12.074579,"water_type":"Baggersee","platform":"merged","fish_count":0},{"id":"hejfish-15681","name":"Weiße Elster (11-480-04)","lat":50.992868,"lng":11.994185,"water_type":null,"platform":"hejfish","fish_count":0},{"id":"hejfish-15680","name":"Neuerteich Meineweh (11-480-03)","lat":51.072323,"lng":11.992932,"water_type":null,"platform":"hejfish","fish_count":0},{"id":"hejfish-15679","name":"Mittelteich Romsdorf (11-480-01)","lat":51.042221,"lng":11.98653,"water_type":"Teich","platform":"merged","fish_count":0},{"id":"hejfish-15672","name":"Main","lat":49.772007,"lng":9.357331,"water_type":null,"platform":"merged","fish_count":0},{"id":"hejfish-15671","name":"Hofweiher bei Kreben","lat":49.446801,"lng":10.720703,"water_type":"Weiher","platform":"merged","fish_count":0},{"id":"hejfish-15669","name":"Stierwiese","lat":49.619099,"lng":12.10388,"water_type":null,"platform":"hejfish","fish_count":0},{"id":"hejfish-15668","name":"mit hejfish","lat":49.618632,"lng":12.102412,"water_type":null,"platform":"hejfish","fish_count":0},{"id":"hejfish-15667","name":"Rastsee","lat":49.615505,"lng":12.112985,"water_type":null,"platform":"hejfish","fish_count":0},{"id":"hejfish-15666","name":"Wiesensee","lat":49.62026,"lng":12.099427,"water_type":null,"platform":"hejfish","fish_count":0},{"id":"hejfish-15665","name":"mit hejfish","lat":49.446564,"lng":10.716626,"water_type":null,"platform":"hejfish","fish_count":0},{"id":"hejfish-15664","name":"Beckenweiher bei Hammerbach","lat":49.599851,"lng":10.852483,"water_type":null,"platform":"hejfish","fish_count":0},{"id":"hejfish-15663","name":"mit hejfish","lat":49.474348,"lng":10.759201,"water_type":"Weiher","platform":"merged","fish_count":0},{"id":"hejfish-15662","name":"Eulensee","lat":49.236608,"lng":11.226206,"water_type":"See","platform":"merged","fish_count":0},{"id":"hejfish-15661","name":"Waldsee bei Dießfurt","lat":49.732921,"lng":11.965213,"water_type":null,"platform":"hejfish","fish_count":0},{"id":"hejfish-15660","name":"Rodlersee","lat":49.73157,"lng":11.965477,"water_type":null,"platform":"hejfish","fish_count":0},{"id":"hejfish-15659","name":"Eichensee","lat":49.473814,"lng":10.761162,"water_type":null,"platform":"hejfish","fish_count":0},{"id":"hejfish-15658","name":"Pegnitz","lat":49.472881,"lng":11.002698,"water_type":null,"platform":"hejfish","fish_count":0},{"id":"hejfish-15657","name":"Fuchsenweiher","lat":49.474502,"lng":10.756622,"water_type":null,"platform":"hejfish","fish_count":0},{"id":"hejfish-15655","name":"mit hejfish","lat":49.475109,"lng":10.979643,"water_type":"Weiher","platform":"merged","fish_count":0},{"id":"hejfish-15654","name":"Weser bei Rinteln","lat":52.189409,"lng":9.105491,"water_type":null,"platform":"hejfish","fish_count":0},{"id":"hejfish-15653","name":"Lahn bei Miellen","lat":50.327415845984,"lng":7.6656030668688,"water_type":null,"platform":"merged","fish_count":0},{"id":"hejfish-15650","name":"O-Weiher Walpershofen","lat":49.323910414266,"lng":6.9103213602771,"water_type":null,"platform":"hejfish","fish_count":0},{"id":"hejfish-15649","name":"mit hejfish","lat":50.9800085,"lng":7.375888,"water_type":null,"platform":"hejfish","fish_count":0},{"id":"hejfish-15648","name":"Gamensee (Gersdorf)","lat":52.772544,"lng":13.912863,"water_type":null,"platform":"hejfish","fish_count":0},{"id":"hejfish-15647","name":"Tongrube Rohrborn","lat":51.142669,"lng":11.145379,"water_type":"See","platform":"merged","fish_count":0},{"id":"hejfish-15646","name":"Tongrube Buttstädt","lat":51.117486,"lng":11.410407,"water_type":null,"platform":"hejfish","fish_count":0},{"id":"hejfish-15645","name":"mit hejfish","lat":51.146562,"lng":11.163832,"water_type":null,"platform":"hejfish","fish_count":0},{"id":"hejfish-15644","name":"Ebersee Alperstedt","lat":51.068817,"lng":11.047016,"water_type":null,"platform":"hejfish","fish_count":0},{"id":"hejfish-15643","name":"mit hejfish","lat":51.072117,"lng":11.046926,"water_type":null,"platform":"hejfish","fish_count":0},{"id":"hejfish-15642","name":"Talsperre Großbrembach","lat":51.102156,"lng":11.316277,"water_type":null,"platform":"hejfish","fish_count":0},{"id":"hejfish-15641","name":"mit hejfish","lat":51.143125,"lng":11.2198,"water_type":null,"platform":"hejfish","fish_count":0},{"id":"hejfish-15639","name":"mit hejfish","lat":50.270191653843,"lng":6.6472790200677,"water_type":null,"platform":"hejfish","fish_count":0},{"id":"hejfish-15638","name":"mit hejfish","lat":49.23386,"lng":12.28233,"water_type":null,"platform":"hejfish","fish_count":0},{"id":"hejfish-15636","name":"Speldroper See","lat":51.78032,"lng":6.380181,"water_type":"See","platform":"merged","fish_count":0},{"id":"hejfish-15635","name":"Grietherorter Altrhein","lat":51.79141,"lng":6.331366,"water_type":null,"platform":"hejfish","fish_count":0},{"id":"hejfish-15633","name":"Main","lat":49.769845,"lng":9.32358,"water_type":null,"platform":"hejfish","fish_count":0},{"id":"hejfish-15630","name":"Isenhagener See","lat":52.730029,"lng":10.620477,"water_type":null,"platform":"hejfish","fish_count":0},{"id":"hejfish-15628","name":"mit hejfish","lat":52.050557878293,"lng":11.706068670142,"water_type":null,"platform":"hejfish","fish_count":0},{"id":"hejfish-15627","name":"AWG Seen 1, 2 & 3 Gommern-Plötzky","lat":52.070512223828,"lng":11.784907239123,"water_type":null,"platform":"hejfish","fish_count":0},{"id":"hejfish-15626","name":"mit hejfish","lat":51.873520216193675,"lng":11.695831414142436,"water_type":null,"platform":"hejfish","fish_count":0},{"id":"hejfish-15625","name":"Röthe bei Schönebeck","lat":52.01867212730734,"lng":11.765235156277887,"water_type":null,"platform":"hejfish","fish_count":0},{"id":"hejfish-15624","name":"Parkteich bei Brumby","lat":51.8989457260013,"lng":11.680955839271773,"water_type":null,"platform":"hejfish","fish_count":0},{"id":"hejfish-15612","name":"mit hejfish","lat":50.204968311898,"lng":6.8332951811091,"water_type":null,"platform":"hejfish","fish_count":0},{"id":"hejfish-15611","name":"Teichanlage \"Winkelbach\"","lat":50.167952898886,"lng":6.8342890566658,"water_type":null,"platform":"hejfish","fish_count":0},{"id":"hejfish-15610","name":"Jeetzel","lat":52.919262394405,"lng":11.123891361891,"water_type":null,"platform":"hejfish","fish_count":0},{"id":"hejfish-15607","name":"mit hejfish","lat":52.391465,"lng":7.951203,"water_type":null,"platform":"hejfish","fish_count":0},{"id":"hejfish-15606","name":"Ems in Einen","lat":51.972441,"lng":7.898436,"water_type":null,"platform":"hejfish","fish_count":0},{"id":"hejfish-15604","name":"Vosskortsee Ladbergen","lat":52.151132351371,"lng":7.6728351840098,"water_type":null,"platform":"hejfish","fish_count":0},{"id":"hejfish-15602","name":"mit hejfish","lat":52.212851546706,"lng":7.8114747151571,"water_type":null,"platform":"hejfish","fish_count":0},{"id":"hejfish-15601","name":"Klostersee Dargun","lat":53.897305740106,"lng":12.847232370828,"water_type":null,"platform":"hejfish","fish_count":0},{"id":"hejfish-15600","name":"Jamelsee","lat":53.346559416561,"lng":12.91834211561,"water_type":"See","platform":"merged","fish_count":0},{"id":"hejfish-15599","name":"Roter See ( Kakeldütt )","lat":53.341931197226,"lng":12.922641049906,"water_type":null,"platform":"hejfish","fish_count":0},{"id":"hejfish-15598","name":"Talsperre Vippachedelhausen","lat":51.072075,"lng":11.222125,"water_type":null,"platform":"hejfish","fish_count":0},{"id":"hejfish-15596","name":"Waddenhauser See","lat":52.006417147608,"lng":8.7689096912864,"water_type":"Baggersee","platform":"merged","fish_count":0},{"id":"hejfish-15595","name":"mit hejfish","lat":51.955140445895,"lng":8.8213929686163,"water_type":"Baggersee","platform":"merged","fish_count":0},{"id":"hejfish-15594","name":"Heidesee","lat":51.959554715172,"lng":8.7940109562062,"water_type":"Sonstiges","platform":"merged","fish_count":0},{"id":"hejfish-15593","name":"mit hejfish","lat":48.252764,"lng":10.469316,"water_type":null,"platform":"hejfish","fish_count":0},{"id":"hejfish-15592","name":"Neufnach","lat":48.279169,"lng":10.611071,"water_type":null,"platform":"hejfish","fish_count":0},{"id":"hejfish-15591","name":"mit hejfish","lat":48.230689,"lng":10.451573,"water_type":null,"platform":"hejfish","fish_count":0},{"id":"hejfish-15590","name":"Eider bei Kiel","lat":54.288264970223,"lng":10.057941083233,"water_type":null,"platform":"hejfish","fish_count":0},{"id":"hejfish-15586","name":"Obereider","lat":54.308952019824,"lng":9.6628042636449,"water_type":null,"platform":"hejfish","fish_count":0},{"id":"hejfish-15585","name":"Elbe - Strecke Langendorf 2 Laase (Seite Niedersachsen)","lat":53.061392940566,"lng":11.325192451095,"water_type":null,"platform":"hejfish","fish_count":0},{"id":"hejfish-15584","name":"Elbe - Strecke Langendorf 1 (Seite Niedersachsen)","lat":53.085946634335,"lng":11.28610428334,"water_type":null,"platform":"hejfish","fish_count":0},{"id":"hejfish-15583","name":"Eschbachweiher","lat":49.400125581639,"lng":6.5616000542167,"water_type":null,"platform":"hejfish","fish_count":0},{"id":"hejfish-15570","name":"Angelinsel Lippe","lat":54.335925781687,"lng":10.643509368667,"water_type":null,"platform":"hejfish","fish_count":0},{"id":"hejfish-15569","name":"Großer Schmausweiher","lat":49.541944,"lng":11.302031,"water_type":null,"platform":"hejfish","fish_count":0},{"id":"hejfish-15568","name":"Ziegelweiher / Weiher Abenberg","lat":49.238665,"lng":10.973117,"water_type":null,"platform":"hejfish","fish_count":0},{"id":"hejfish-15567","name":"Tauber in Archshofen","lat":49.453250405944,"lng":10.070539949556,"water_type":"Fluss","platform":"merged","fish_count":0},{"id":"hejfish-15562","name":"Sprotte","lat":50.887898,"lng":12.318604,"water_type":null,"platform":"hejfish","fish_count":0},{"id":"hejfish-15565","name":"mit hejfish","lat":49.376904,"lng":12.121733,"water_type":null,"platform":"hejfish","fish_count":0},{"id":"hejfish-15561","name":"Speicher Schloßig","lat":50.891323,"lng":12.331226,"water_type":null,"platform":"hejfish","fish_count":0},{"id":"hejfish-15559","name":"Langenneufnacher Baggersee Burg (86470) am Kieswerk","lat":48.261188,"lng":10.469577,"water_type":null,"platform":"hejfish","fish_count":0},{"id":"hejfish-15552","name":"NUR SUP / SCHLAUCHBOOT - Neversdorfer See","lat":53.868926,"lng":10.278628,"water_type":"See","platform":"merged","fish_count":0},{"id":"hejfish-15551","name":"Drepte","lat":53.335181118477,"lng":8.6534379305045,"water_type":null,"platform":"hejfish","fish_count":0},{"id":"hejfish-15550","name":"mit hejfish","lat":53.372241630644,"lng":8.5127687362699,"water_type":null,"platform":"hejfish","fish_count":0},{"id":"hejfish-15549","name":"Luberweiher","lat":48.784461,"lng":13.010952,"water_type":"Baggersee","platform":"merged","fish_count":0},{"id":"hejfish-15548","name":"Stever","lat":51.722006898672,"lng":7.3543579614412,"water_type":null,"platform":"hejfish","fish_count":0},{"id":"hejfish-15547","name":"Große Hase","lat":52.718360498815,"lng":7.9090081693093,"water_type":null,"platform":"hejfish","fish_count":0},{"id":"hejfish-15546","name":"Essener Kanal Strecke 2","lat":52.696769955548,"lng":7.9605020846547,"water_type":null,"platform":"hejfish","fish_count":0},{"id":"hejfish-15545","name":"Essener Kanal Strecke 1","lat":52.697095992077,"lng":7.9695823386187,"water_type":null,"platform":"hejfish","fish_count":0},{"id":"hejfish-15544","name":"Lager Hase","lat":52.703601979923,"lng":8.0256263386187,"water_type":null,"platform":"hejfish","fish_count":0},{"id":"hejfish-15543","name":"Blocksmühlenbach","lat":52.725090008759,"lng":7.996437,"water_type":null,"platform":"hejfish","fish_count":0},{"id":"hejfish-15542","name":"Calhorner Mühlenbach","lat":52.708746246943,"lng":8.0110625073121,"water_type":null,"platform":"hejfish","fish_count":0},{"id":"hejfish-15541","name":"Fladderkanal","lat":52.708321022863,"lng":8.031532872524,"water_type":null,"platform":"hejfish","fish_count":0},{"id":"hejfish-15539","name":"Kellenbach / Simmerbach","lat":49.815376488814,"lng":7.5045958277489,"water_type":null,"platform":"hejfish","fish_count":0},{"id":"hejfish-15538","name":"Exbergsee","lat":51.240042489682,"lng":9.7818937342621,"water_type":null,"platform":"hejfish","fish_count":0},{"id":"hejfish-15537","name":"Ostseefjord Schlei Gemeinde Maasholm","lat":54.684022455444,"lng":9.9914083324925,"water_type":null,"platform":"hejfish","fish_count":0},{"id":"hejfish-15536","name":"Haselbach","lat":49.286046028711,"lng":12.932982092908,"water_type":null,"platform":"hejfish","fish_count":1},{"id":"hejfish-15535","name":"Sulzach bei Feuchtwangen","lat":49.16334,"lng":10.32942,"water_type":null,"platform":"hejfish","fish_count":0},{"id":"hejfish-15532","name":"Altharlinger Sieltief","lat":53.69927,"lng":7.70321,"water_type":null,"platform":"merged","fish_count":0},{"id":"hejfish-15533","name":"Schaalsee - NUR FÜR MITGLIEDER","lat":53.638203,"lng":10.882605,"water_type":null,"platform":"hejfish","fish_count":0},{"id":"hejfish-15525","name":"Ruhr bei Syburg","lat":51.415293824034,"lng":7.4924002584144,"water_type":null,"platform":"hejfish","fish_count":0},{"id":"hejfish-15524","name":"mit hejfish","lat":51.311661597607,"lng":7.6529558601791,"water_type":null,"platform":"hejfish","fish_count":0},{"id":"hejfish-15521","name":"Saalealtarm Tippelskirchen","lat":51.886080434497,"lng":11.781276559128,"water_type":null,"platform":"hejfish","fish_count":0},{"id":"hejfish-15519","name":"Grüner Teich bei Tornitz","lat":51.942996787734,"lng":11.798677405872,"water_type":null,"platform":"hejfish","fish_count":0},{"id":"hejfish-15518","name":"Kiesgrube 1 & 2 bei Schönebeck","lat":52.014315556499,"lng":11.775834103871,"water_type":null,"platform":"hejfish","fish_count":0},{"id":"hejfish-15517","name":"Elbe - Strecke Schönebeck","lat":52.026683574503,"lng":11.734070683806,"water_type":null,"platform":"hejfish","fish_count":0},{"id":"hejfish-15516","name":"Elbumflut - Strecke Schönebeck","lat":52.056763691621,"lng":11.793282175559,"water_type":null,"platform":"hejfish","fish_count":0},{"id":"hejfish-15515","name":"Saale - Strecke Altkreis Schönebeck","lat":51.90695222204,"lng":11.825173144905,"water_type":null,"platform":"hejfish","fish_count":0},{"id":"hejfish-15514","name":"Mühlenbach Uchte","lat":52.458504953766,"lng":8.8287178402269,"water_type":null,"platform":"hejfish","fish_count":0},{"id":"hejfish-15513","name":"Landschaftsseen Uchte","lat":52.489677148508,"lng":8.9201354576763,"water_type":null,"platform":"hejfish","fish_count":0},{"id":"hejfish-15512","name":"Gieselau - Kanal (Hademarscher Seite)","lat":54.183444372227,"lng":9.4408495636223,"water_type":null,"platform":"hejfish","fish_count":0},{"id":"hejfish-15511","name":"Lahn Gemarkung Dausenau","lat":50.3147,"lng":7.770736,"water_type":null,"platform":"hejfish","fish_count":0},{"id":"hejfish-15508","name":"Alte Donau bei Arbing","lat":48.71215,"lng":13.08857,"water_type":null,"platform":"hejfish","fish_count":0},{"id":"hejfish-15506","name":"Tirschenreuther Waldnaab bei Hohenthan","lat":49.808518,"lng":12.363826,"water_type":null,"platform":"hejfish","fish_count":0},{"id":"hejfish-15495","name":"Poelvensee","lat":51.357955846697,"lng":6.255621744265,"water_type":null,"platform":"hejfish","fish_count":0},{"id":"hejfish-15494","name":"Nette","lat":51.331029944540965,"lng":6.241452508660937,"water_type":null,"platform":"hejfish","fish_count":0},{"id":"hejfish-15492","name":"Kammlach & Mühlbach","lat":48.085876,"lng":10.423658,"water_type":null,"platform":"hejfish","fish_count":0},{"id":"hejfish-15493","name":"Großer und kleiner Der Wittsee","lat":51.325774028504,"lng":6.2420533235648,"water_type":null,"platform":"hejfish","fish_count":0},{"id":"hejfish-15483","name":"Treene- Grachten Friedrichstadt","lat":54.376145680813,"lng":9.0913175482637,"water_type":null,"platform":"hejfish","fish_count":0},{"id":"hejfish-15482","name":"Treene Friedrichstadt","lat":54.380924149351,"lng":9.084972948631,"water_type":null,"platform":"hejfish","fish_count":0},{"id":"hejfish-15479","name":"Harkortsee, Hengsteysee und Neue Ruhr","lat":51.394128403181334,"lng":7.432648796866832,"water_type":null,"platform":"hejfish","fish_count":0},{"id":"hejfish-15478","name":"Stausee Losheim","lat":49.517611217333,"lng":6.7318691177531,"water_type":null,"platform":"hejfish","fish_count":0},{"id":"hejfish-15471","name":"Rursee mit Obersee","lat":50.629219110488,"lng":6.4068996816922,"water_type":null,"platform":"hejfish","fish_count":0},{"id":"hejfish-15470","name":"Revierparksee","lat":51.52204197983,"lng":7.4049488584438,"water_type":null,"platform":"hejfish","fish_count":0},{"id":"hejfish-15469","name":"Gänsbach bei Oberschleißheim","lat":48.25164,"lng":11.54243,"water_type":null,"platform":"hejfish","fish_count":0},{"id":"hejfish-15466","name":"Schwarza bei Sitzendorf","lat":50.659925758935,"lng":11.215099863713,"water_type":null,"platform":"hejfish","fish_count":0},{"id":"hejfish-15465","name":"Lahn bei Altendiez KM 87- KM 90","lat":50.351373,"lng":7.964124,"water_type":null,"platform":"hejfish","fish_count":0},{"id":"hejfish-15461","name":"Dortmund-Ems Kanal","lat":52.622344979595,"lng":7.3071200846547,"water_type":null,"platform":"merged","fish_count":0},{"id":"hejfish-15460","name":"Ems (Gemeindegrenze Biene – Gemeindegrenze Varloh)","lat":52.631601911267,"lng":7.2580099387207,"water_type":null,"platform":"hejfish","fish_count":0},{"id":"hejfish-15459","name":"Gewässer des Gewässerfonds Thüringen e.V.","lat":51.0112685021667,"lng":10.83960629680107,"water_type":null,"platform":"hejfish","fish_count":0},{"id":"hejfish-15458","name":"Werkkanal (Wielandkanal)","lat":48.246617,"lng":10.071567,"water_type":null,"platform":"hejfish","fish_count":0},{"id":"hejfish-15457","name":"Altenstadter Kanal (Mühlbach)","lat":48.262617,"lng":10.080367,"water_type":null,"platform":"hejfish","fish_count":0},{"id":"hejfish-15456","name":"Iller","lat":48.2903,"lng":10.055833,"water_type":null,"platform":"hejfish","fish_count":0},{"id":"hejfish-15455","name":"Kiesweiher der Illerstrasse (Grüne Lunge)","lat":48.272317,"lng":10.06665,"water_type":null,"platform":"hejfish","fish_count":0},{"id":"hejfish-15454","name":"Waldbaggersee Süd","lat":48.309633,"lng":10.04375,"water_type":null,"platform":"hejfish","fish_count":0},{"id":"hejfish-15453","name":"Vöhringer See (Kellerbau)","lat":48.294917,"lng":10.0664,"water_type":"See","platform":"merged","fish_count":0},{"id":"hejfish-15452","name":"Weißer Main","lat":50.08006,"lng":11.53882,"water_type":null,"platform":"hejfish","fish_count":0},{"id":"hejfish-15451","name":"Neuhaus-Bülkau-Kanal Abschnitt Wingst","lat":53.721087,"lng":9.014107,"water_type":null,"platform":"hejfish","fish_count":0},{"id":"hejfish-15450","name":"Brunner Ach","lat":47.591824,"lng":10.742825,"water_type":null,"platform":"hejfish","fish_count":0},{"id":"hejfish-15449","name":"mit hejfish","lat":47.566928,"lng":10.710495,"water_type":null,"platform":"hejfish","fish_count":0},{"id":"hejfish-15448","name":"Weissensee bei Füssen","lat":47.57013,"lng":10.63889,"water_type":null,"platform":"hejfish","fish_count":0},{"id":"hejfish-15447","name":"Neutraublinger See","lat":48.991194,"lng":12.193833,"water_type":null,"platform":"hejfish","fish_count":0},{"id":"hejfish-15445","name":"Faulenbacher Seen","lat":47.5618,"lng":10.67803,"water_type":"Weiher","platform":"merged","fish_count":0},{"id":"hejfish-15444","name":"Alatsee","lat":47.56103,"lng":10.63891,"water_type":null,"platform":"hejfish","fish_count":0},{"id":"hejfish-15443","name":"Forggensee (inkl. Illasbergsee)","lat":47.64425,"lng":10.73011,"water_type":null,"platform":"hejfish","fish_count":0},{"id":"hejfish-15442","name":"Ostseefjord Schlei Stadt Kappeln","lat":54.657985169753,"lng":9.9376502980523,"water_type":null,"platform":"hejfish","fish_count":0},{"id":"hejfish-15441","name":"Bindower Dahme","lat":52.2966,"lng":13.6509,"water_type":null,"platform":"merged","fish_count":0},{"id":"hejfish-15434","name":"mit hejfish","lat":50.14372,"lng":11.82194,"water_type":"See","platform":"merged","fish_count":0},{"id":"hejfish-15433","name":"mit hejfish","lat":50.25074,"lng":11.72442,"water_type":null,"platform":"hejfish","fish_count":0},{"id":"hejfish-15432","name":"mit hejfish","lat":50.16088,"lng":11.69036,"water_type":null,"platform":"hejfish","fish_count":0},{"id":"hejfish-15431","name":"Bergheimer Baggersee","lat":48.323518,"lng":10.831151,"water_type":null,"platform":"hejfish","fish_count":0},{"id":"hejfish-15430","name":"Verlorener Bach Pestenacker","lat":48.13796,"lng":10.94061,"water_type":null,"platform":"hejfish","fish_count":0},{"id":"hejfish-15429","name":"kaufen für Bocholter Aa","lat":51.856804,"lng":6.856992,"water_type":null,"platform":"hejfish","fish_count":0},{"id":"hejfish-15427","name":"Kratzmühlsee","lat":49.001167,"lng":11.447647,"water_type":"See","platform":"merged","fish_count":0},{"id":"hejfish-15425","name":"Moosalb Fischweier stromaufwärts","lat":48.877069065498,"lng":8.4150843897076,"water_type":null,"platform":"hejfish","fish_count":0},{"id":"hejfish-15424","name":"mit hejfish","lat":47.605429,"lng":12.858082,"water_type":null,"platform":"merged","fish_count":0},{"id":"hejfish-15422","name":"mit hejfish","lat":47.622831,"lng":12.999411,"water_type":null,"platform":"hejfish","fish_count":0},{"id":"hejfish-15419","name":"Ruhr - Strecke Duisburg (Mündungsbereich)","lat":51.44587430894,"lng":6.729989929411,"water_type":null,"platform":"hejfish","fish_count":0},{"id":"hejfish-15417","name":"Krebsbach Chieming","lat":47.889301602288,"lng":12.550677816941,"water_type":null,"platform":"hejfish","fish_count":0},{"id":"hejfish-15416","name":"Unterer Hörbachweiher","lat":49.636708,"lng":10.985278,"water_type":"Weiher","platform":"merged","fish_count":0},{"id":"hejfish-15413","name":"Kirmersee","lat":48.411045,"lng":13.271108,"water_type":null,"platform":"hejfish","fish_count":0},{"id":"hejfish-15412","name":"Vereinsweiher","lat":48.499398,"lng":13.415783,"water_type":null,"platform":"hejfish","fish_count":0},{"id":"hejfish-15411","name":"Angelsee Heuchelheim","lat":50.568209668605,"lng":8.620810047197,"water_type":null,"platform":"hejfish","fish_count":0},{"id":"hejfish-15410","name":"Uhlsee","lat":48.0020874,"lng":7.6208931,"water_type":null,"platform":"hejfish","fish_count":0},{"id":"hejfish-15409","name":"Lahn zwischen Roth und Bellnhausen","lat":50.728628069817,"lng":8.7325026869656,"water_type":null,"platform":"hejfish","fish_count":0},{"id":"hejfish-15408","name":"Anton-Meierlohr-Weiher","lat":48.621973180063,"lng":12.352986267046,"water_type":null,"platform":"hejfish","fish_count":0},{"id":"hejfish-15403","name":"Vörder See","lat":53.492071969839,"lng":9.1576352927367,"water_type":"See","platform":"merged","fish_count":0},{"id":"hejfish-15402","name":"Bever","lat":53.470192938192,"lng":9.1424822123886,"water_type":null,"platform":"hejfish","fish_count":0},{"id":"hejfish-15401","name":"Untere Oste","lat":53.487009613098,"lng":9.1580231684152,"water_type":null,"platform":"hejfish","fish_count":0},{"id":"hejfish-15400","name":"Obere Oste","lat":53.478862639456,"lng":9.150676798072,"water_type":null,"platform":"hejfish","fish_count":0},{"id":"hejfish-15399","name":"Dießfurter See B","lat":49.710954,"lng":11.970229,"water_type":null,"platform":"hejfish","fish_count":0},{"id":"hejfish-15392","name":"Dießfurter See A","lat":49.708377,"lng":11.968841,"water_type":null,"platform":"hejfish","fish_count":0},{"id":"hejfish-15390","name":"Schwarzweiher bei Jarzt","lat":48.361182,"lng":11.568885,"water_type":null,"platform":"hejfish","fish_count":0},{"id":"hejfish-15388","name":"Isen bei Lengdorf","lat":48.253297,"lng":12.042638,"water_type":null,"platform":"hejfish","fish_count":0},{"id":"hejfish-15387","name":"Prüßsee","lat":53.534027,"lng":10.685797,"water_type":null,"platform":"hejfish","fish_count":0},{"id":"hejfish-15386","name":"Klostersee Burlo","lat":51.898572818862,"lng":6.7772695844312,"water_type":null,"platform":"hejfish","fish_count":0},{"id":"hejfish-15385","name":"Teich unter den Eichen","lat":51.86549,"lng":6.873558,"water_type":null,"platform":"hejfish","fish_count":0},{"id":"hejfish-15384","name":"Sportplatzteiche","lat":51.864394623502,"lng":6.8712363466383,"water_type":null,"platform":"hejfish","fish_count":0},{"id":"hejfish-15383","name":"Schloßgräfte Gemen","lat":51.862586,"lng":6.866045,"water_type":null,"platform":"hejfish","fish_count":0},{"id":"hejfish-15382","name":"kaufen für Bocholter Aa","lat":51.877418081728,"lng":6.9025184003119,"water_type":null,"platform":"hejfish","fish_count":0},{"id":"hejfish-15381","name":"Hütten Teich an der Möggenborg","lat":51.869123535455,"lng":6.8837688599262,"water_type":null,"platform":"hejfish","fish_count":0},{"id":"hejfish-15380","name":"Lövelt’sche Teiche","lat":51.857358,"lng":6.84302,"water_type":null,"platform":"hejfish","fish_count":0},{"id":"hejfish-15379","name":"Untere See der Teichanlage Friedrichstal","lat":48.477819328798,"lng":8.3783186237175,"water_type":null,"platform":"hejfish","fish_count":0},{"id":"hejfish-15374","name":"St. Veiter Weiher 2","lat":49.109319,"lng":10.935661,"water_type":null,"platform":"hejfish","fish_count":0},{"id":"hejfish-15373","name":"St. Veiter Weiher 1","lat":49.10967,"lng":10.932313,"water_type":null,"platform":"hejfish","fish_count":0},{"id":"hejfish-15372","name":"Schwäbische Rezat 1","lat":49.053626,"lng":10.965601,"water_type":null,"platform":"hejfish","fish_count":0},{"id":"hejfish-15371","name":"Wörnitz bei Oettingen","lat":48.972173,"lng":10.617881,"water_type":null,"platform":"hejfish","fish_count":0},{"id":"hejfish-15370","name":"Altmühlzuleiter bei Mörsach","lat":49.150097,"lng":10.678116,"water_type":null,"platform":"hejfish","fish_count":0},{"id":"hejfish-15369","name":"Walder Altmühl / Hauptvorfluter Süd","lat":49.133214,"lng":10.706866,"water_type":null,"platform":"hejfish","fish_count":0},{"id":"hejfish-15368","name":"Stadtwasser Altmühl bei Gunzenhausen","lat":49.12267,"lng":10.737601,"water_type":null,"platform":"hejfish","fish_count":0},{"id":"hejfish-15366","name":"Weißenbach (Tauerngraben)","lat":47.76775,"lng":12.257944,"water_type":null,"platform":"hejfish","fish_count":0},{"id":"hejfish-15365","name":"Altmühl Kipfenberg","lat":48.949276,"lng":11.387564,"water_type":null,"platform":"hejfish","fish_count":0},{"id":"hejfish-15363","name":"Tongrube Röttgen - Nur Verbandsmitglieder","lat":50.674065,"lng":7.074933,"water_type":null,"platform":"hejfish","fish_count":0},{"id":"hejfish-15359","name":"Regnitz Erlangen Jahreskarte Mitglieder","lat":49.609,"lng":10.790889,"water_type":null,"platform":"hejfish","fish_count":0},{"id":"hejfish-15343","name":"Unterbacher See","lat":51.195333,"lng":6.889375,"water_type":"Baggersee","platform":"merged","fish_count":0},{"id":"hejfish-15338","name":"mit hejfish","lat":51.127624,"lng":9.221044,"water_type":null,"platform":"hejfish","fish_count":0},{"id":"hejfish-15337","name":"Freihung Weiher (Klarner Weiher)","lat":49.609633,"lng":11.911739,"water_type":null,"platform":"hejfish","fish_count":0},{"id":"hejfish-15336","name":"mit hejfish","lat":50.400281,"lng":8.8377,"water_type":null,"platform":"hejfish","fish_count":0},{"id":"hejfish-15334","name":"Untere Alz","lat":47.967489,"lng":12.486508,"water_type":null,"platform":"hejfish","fish_count":0},{"id":"hejfish-15335","name":"mit hejfish","lat":47.940496,"lng":12.505839,"water_type":null,"platform":"hejfish","fish_count":0},{"id":"hejfish-15330","name":"mit hejfish","lat":50.185202,"lng":11.845717,"water_type":null,"platform":"hejfish","fish_count":0},{"id":"hejfish-15329","name":"mit hejfish","lat":50.18841,"lng":11.852257,"water_type":null,"platform":"hejfish","fish_count":0},{"id":"hejfish-15328","name":"mit hejfish","lat":50.20605,"lng":11.832545,"water_type":null,"platform":"hejfish","fish_count":0},{"id":"hejfish-15327","name":"mit hejfish","lat":50.20934,"lng":11.837689,"water_type":null,"platform":"hejfish","fish_count":0},{"id":"hejfish-15324","name":"See Wedigenstein","lat":52.24028,"lng":8.88473,"water_type":null,"platform":"hejfish","fish_count":0},{"id":"hejfish-15323","name":"mit hejfish","lat":53.804216,"lng":9.029972,"water_type":null,"platform":"merged","fish_count":0},{"id":"hejfish-15321","name":"Ostesee","lat":53.822316,"lng":9.02997,"water_type":null,"platform":"hejfish","fish_count":0},{"id":"hejfish-15320","name":"mit hejfish","lat":50.960943,"lng":9.782913,"water_type":null,"platform":"hejfish","fish_count":0},{"id":"hejfish-15319","name":"mit hejfish","lat":50.928772,"lng":9.772204,"water_type":null,"platform":"hejfish","fish_count":0},{"id":"hejfish-15318","name":"mit hejfish","lat":49.128331011064,"lng":12.864352339452,"water_type":null,"platform":"hejfish","fish_count":0},{"id":"hejfish-15310","name":"mit hejfish","lat":49.287025,"lng":11.330697,"water_type":null,"platform":"hejfish","fish_count":0},{"id":"hejfish-15308","name":"Lindenallee (Brassenloch)","lat":51.8452,"lng":9.45114,"water_type":null,"platform":"hejfish","fish_count":0},{"id":"hejfish-15307","name":"Kirchhoff","lat":51.809513,"lng":9.432515,"water_type":null,"platform":"hejfish","fish_count":1},{"id":"hejfish-15306","name":"mit hejfish","lat":51.875998,"lng":9.457279,"water_type":null,"platform":"hejfish","fish_count":0},{"id":"hejfish-15305","name":"mit hejfish","lat":51.813698,"lng":9.431502,"water_type":null,"platform":"hejfish","fish_count":0},{"id":"hejfish-15304","name":"mit hejfish","lat":48.68953,"lng":13.08643,"water_type":null,"platform":"merged","fish_count":0},{"id":"hejfish-15303","name":"mit hejfish","lat":49.491158,"lng":6.580884,"water_type":null,"platform":"hejfish","fish_count":0},{"id":"hejfish-15299","name":"mit hejfish","lat":48.843435,"lng":12.76178,"water_type":null,"platform":"hejfish","fish_count":0},{"id":"hejfish-15298","name":"mit hejfish","lat":48.442246,"lng":13.364319,"water_type":null,"platform":"merged","fish_count":0},{"id":"hejfish-15296","name":"Baggersee Hartkirchen","lat":48.413575,"lng":13.392745,"water_type":"Baggersee","platform":"merged","fish_count":0},{"id":"hejfish-15295","name":"Ems bei Gütersloh","lat":51.957625,"lng":8.179738,"water_type":null,"platform":"hejfish","fish_count":0},{"id":"hejfish-15294","name":"Fehlesee","lat":51.970599,"lng":8.184417,"water_type":"Baggersee","platform":"merged","fish_count":0},{"id":"hejfish-15293","name":"mit hejfish","lat":50.609364,"lng":11.141901,"water_type":null,"platform":"hejfish","fish_count":0},{"id":"hejfish-15292","name":"Wieling Weiher  - Nur Vereinsmitglieder -","lat":47.95756,"lng":11.26365,"water_type":null,"platform":"hejfish","fish_count":0},{"id":"hejfish-15291","name":"Waldsee bei Geisenfeld - Nur Vereinsmitglieder -","lat":48.72872,"lng":11.59915,"water_type":null,"platform":"hejfish","fish_count":0},{"id":"hejfish-15290","name":"Große Vils","lat":48.32263,"lng":12.1243,"water_type":null,"platform":"hejfish","fish_count":0},{"id":"hejfish-15289","name":"Goldach I / Nasenbach - Nur Vereinsmitglieder -","lat":48.36545,"lng":11.76618,"water_type":null,"platform":"hejfish","fish_count":0},{"id":"hejfish-15288","name":"Ilm und Altgewässer - Nur Vereinsmitglieder -","lat":48.65058,"lng":11.58697,"water_type":null,"platform":"hejfish","fish_count":0},{"id":"hejfish-15286","name":"mit hejfish","lat":49.352863,"lng":12.377314,"water_type":null,"platform":"hejfish","fish_count":0},{"id":"hejfish-15284","name":"Frauenweiher bei Stetten","lat":49.323711,"lng":12.418937,"water_type":"Weiher","platform":"merged","fish_count":0},{"id":"hejfish-15283","name":"Bollingerweiher","lat":49.380047,"lng":12.362401,"water_type":null,"platform":"hejfish","fish_count":0},{"id":"hejfish-15280","name":"Lenne bei Saalhausen","lat":51.117031,"lng":8.1657,"water_type":null,"platform":"hejfish","fish_count":0},{"id":"hejfish-15279","name":"Ruhr bei Witten und Kemnader See","lat":51.431141,"lng":7.276425,"water_type":null,"platform":"hejfish","fish_count":0},{"id":"hejfish-15278","name":"Bierder See","lat":52.779943,"lng":9.504788,"water_type":null,"platform":"hejfish","fish_count":0},{"id":"hejfish-15277","name":"Mantelweiher bei Tremmersdorf","lat":49.78227,"lng":11.793599,"water_type":null,"platform":"hejfish","fish_count":0},{"id":"hejfish-15276","name":"Küstengewässer (Tiefs & Bäken)","lat":53.461009,"lng":7.975129,"water_type":null,"platform":"hejfish","fish_count":0},{"id":"hejfish-15275","name":"Jagst Heinzenmühle","lat":49.178561,"lng":10.022008,"water_type":null,"platform":"hejfish","fish_count":0},{"id":"hejfish-15273","name":"Altarm Meyers Pott (oberhalb)","lat":52.843192,"lng":8.478712,"water_type":null,"platform":"hejfish","fish_count":0},{"id":"hejfish-15272","name":"Altarm Brinkmann (oberhalb)","lat":52.872007,"lng":8.471668,"water_type":null,"platform":"hejfish","fish_count":0},{"id":"hejfish-15271","name":"Altarm Thees (oberhalb)","lat":52.874096,"lng":8.469926,"water_type":"Altarm","platform":"merged","fish_count":0},{"id":"hejfish-15270","name":"Altarm Moormarsch (oberhalb)","lat":52.881599,"lng":8.463601,"water_type":null,"platform":"hejfish","fish_count":0},{"id":"hejfish-15269","name":"Altarm Bühren (oberhalb)","lat":52.839867,"lng":8.47577,"water_type":"Altarm","platform":"merged","fish_count":0},{"id":"hejfish-15268","name":"Altarme Rosengarten (oberhalb)","lat":52.878153,"lng":8.466954,"water_type":null,"platform":"hejfish","fish_count":0},{"id":"hejfish-15267","name":"Altarm Bahndamm (unterhalb)","lat":52.904777,"lng":8.436044,"water_type":null,"platform":"hejfish","fish_count":0},{"id":"hejfish-15266","name":"Altarm Autobahn (unterhalb)","lat":52.916667,"lng":8.413623,"water_type":null,"platform":"hejfish","fish_count":0},{"id":"hejfish-15265","name":"Altarm Aschenbeck (unterhalb)","lat":52.919349,"lng":8.407603,"water_type":null,"platform":"hejfish","fish_count":0},{"id":"hejfish-15264","name":"Altarm Schlengenhaus (unterhalb)","lat":52.913437,"lng":8.417166,"water_type":null,"platform":"hejfish","fish_count":0},{"id":"hejfish-15263","name":"Altarm Schaftrift (unterhalb)","lat":52.917484,"lng":8.40227,"water_type":null,"platform":"hejfish","fish_count":0},{"id":"hejfish-15262","name":"Altarm Strangmann (unterhalb)","lat":52.922562,"lng":8.395564,"water_type":null,"platform":"hejfish","fish_count":0},{"id":"hejfish-15261","name":"Altarm Märchenwald (unterhalb)","lat":52.910091,"lng":8.427816,"water_type":null,"platform":"hejfish","fish_count":0},{"id":"hejfish-15260","name":"Buschteich","lat":52.912812,"lng":8.422701,"water_type":null,"platform":"hejfish","fish_count":0},{"id":"hejfish-15259","name":"Teich Altona","lat":52.910903,"lng":8.43999,"water_type":null,"platform":"hejfish","fish_count":0},{"id":"hejfish-15258","name":"See Altona (Annasee)","lat":52.912133,"lng":8.439202,"water_type":null,"platform":"hejfish","fish_count":0},{"id":"hejfish-15257","name":"Hunte oberhalb","lat":52.883607,"lng":8.456131,"water_type":null,"platform":"merged","fish_count":0},{"id":"hejfish-15255","name":"Weiher Uttenkofen","lat":48.819501,"lng":12.84942,"water_type":"See","platform":"merged","fish_count":0},{"id":"hejfish-15254","name":"Seeweiher","lat":50.548983,"lng":8.148568,"water_type":"See","platform":"merged","fish_count":0},{"id":"hejfish-15253","name":"Lahn","lat":50.546303,"lng":8.331975,"water_type":null,"platform":"hejfish","fish_count":1},{"id":"hejfish-15251","name":"Alte Emscher bei Duisburg - Nur Verbandsmitglieder!","lat":51.482931,"lng":6.789652,"water_type":null,"platform":"hejfish","fish_count":0},{"id":"hejfish-15246","name":"Pucher Meer I","lat":48.190503,"lng":11.233383,"water_type":null,"platform":"hejfish","fish_count":0},{"id":"hejfish-15245","name":"Hessischer Rhein","lat":50.066727,"lng":7.776782,"water_type":null,"platform":"hejfish","fish_count":0},{"id":"hejfish-15242","name":"Längenmühlbach","lat":48.586029,"lng":12.2166,"water_type":null,"platform":"hejfish","fish_count":0},{"id":"hejfish-15236","name":"Linzenicher Baggerseen","lat":50.910741,"lng":6.349964,"water_type":null,"platform":"hejfish","fish_count":0},{"id":"hejfish-15235","name":"Werra bei Witzenhausen","lat":51.317108,"lng":9.89085,"water_type":null,"platform":"merged","fish_count":0},{"id":"hejfish-15233","name":"Werra bei Bad Sooden-Allendorf","lat":51.234477,"lng":9.988639,"water_type":null,"platform":"hejfish","fish_count":0},{"id":"hejfish-15232","name":"Werra bei Eschwege","lat":51.187983,"lng":10.128938,"water_type":null,"platform":"hejfish","fish_count":0},{"id":"hejfish-15231","name":"Werra bei Altenburschla/Wanfried","lat":51.135943,"lng":10.176558,"water_type":null,"platform":"hejfish","fish_count":0},{"id":"hejfish-15230","name":"Werra bei Falken-Treffurt","lat":51.110981,"lng":10.295393,"water_type":null,"platform":"hejfish","fish_count":0},{"id":"hejfish-15227","name":"Görsee","lat":51.83932,"lng":6.410177,"water_type":null,"platform":"hejfish","fish_count":0},{"id":"hejfish-15226","name":"Issel (Pachtstrecke ASV Anholt)","lat":51.820084,"lng":6.49838,"water_type":null,"platform":"hejfish","fish_count":0},{"id":"hejfish-15225","name":"Bocholter Aa (Pachtstrecke ASV Anholt)","lat":51.851983,"lng":6.479807,"water_type":null,"platform":"hejfish","fish_count":0},{"id":"hejfish-15222","name":"Waldsee Baerler Busch","lat":51.486675,"lng":6.651323,"water_type":null,"platform":"hejfish","fish_count":0},{"id":"hejfish-15220","name":"Altwasser Bad Reichenhall","lat":47.700107,"lng":12.850714,"water_type":null,"platform":"hejfish","fish_count":0},{"id":"hejfish-15219","name":"Saalachsee","lat":47.697085,"lng":12.845076,"water_type":null,"platform":"hejfish","fish_count":0},{"id":"hejfish-15218","name":"Thumsee","lat":47.717135,"lng":12.819417,"water_type":null,"platform":"hejfish","fish_count":0},{"id":"hejfish-15217","name":"Saalach Unterlauf","lat":47.732271,"lng":12.870484,"water_type":null,"platform":"hejfish","fish_count":0},{"id":"hejfish-15214","name":"Steinsee Neuwied","lat":50.421695,"lng":7.490581,"water_type":null,"platform":"hejfish","fish_count":0},{"id":"hejfish-15216","name":"Saalach Oberlauf","lat":47.688196,"lng":12.802897,"water_type":null,"platform":"hejfish","fish_count":0},{"id":"hejfish-15212","name":"Wohra","lat":50.879021,"lng":8.934407,"water_type":null,"platform":"hejfish","fish_count":0},{"id":"hejfish-15210","name":"Kinzig","lat":50.303271,"lng":9.402836,"water_type":null,"platform":"hejfish","fish_count":1},{"id":"hejfish-15209","name":"Schwarzweiher","lat":49.876089,"lng":11.610273,"water_type":null,"platform":"hejfish","fish_count":0},{"id":"hejfish-15206","name":"Petersweiher","lat":50.021548,"lng":11.935615,"water_type":null,"platform":"hejfish","fish_count":0},{"id":"hejfish-15202","name":"Trabitzer Teiche","lat":49.804243,"lng":11.894326,"water_type":null,"platform":"hejfish","fish_count":0},{"id":"hejfish-15185","name":"Roter Main","lat":49.94575,"lng":11.5976,"water_type":null,"platform":"hejfish","fish_count":0},{"id":"hejfish-15183","name":"Weiher des Angelsportverein Diefflen e.V.","lat":49.365586,"lng":6.765707,"water_type":null,"platform":"hejfish","fish_count":0},{"id":"hejfish-15182","name":"Kyll - Wehr Ittel-Kyll bis Kreisgrenze Landkreis Trier Saarburg","lat":49.878141,"lng":6.605251,"water_type":null,"platform":"hejfish","fish_count":0},{"id":"hejfish-15181","name":"Kyll - Lohrbachmündung bis Trier Ehrang","lat":49.822337,"lng":6.658281,"water_type":null,"platform":"merged","fish_count":0},{"id":"hejfish-15180","name":"Mittellandkanal km 307 bis 318","lat":52.229115,"lng":11.646498,"water_type":null,"platform":"hejfish","fish_count":0},{"id":"hejfish-15179","name":"Hammerweiher","lat":50.837136,"lng":8.338361,"water_type":null,"platform":"hejfish","fish_count":0},{"id":"hejfish-15178","name":"Flürener Altrhein","lat":51.668509,"lng":6.559611,"water_type":null,"platform":"hejfish","fish_count":0},{"id":"hejfish-15177","name":"Barrierefreie Angelplätze Eider","lat":54.30667,"lng":9.6573,"water_type":null,"platform":"merged","fish_count":0},{"id":"hejfish-15176","name":"Amper bei Fürstenfeldbruck","lat":48.155075,"lng":11.228612,"water_type":null,"platform":"hejfish","fish_count":0},{"id":"hejfish-15175","name":"Zerbener Altarm","lat":52.341707,"lng":11.960576,"water_type":null,"platform":"hejfish","fish_count":0},{"id":"hejfish-15174","name":"Wulsch Kieslöcher","lat":52.446002,"lng":11.997137,"water_type":null,"platform":"hejfish","fish_count":0},{"id":"hejfish-15172","name":"Waldmühlenlanke","lat":52.368428,"lng":11.961085,"water_type":null,"platform":"hejfish","fish_count":0},{"id":"hejfish-15171","name":"Pareyer Verbindungskanal","lat":52.407921,"lng":11.971385,"water_type":null,"platform":"hejfish","fish_count":0},{"id":"hejfish-15169","name":"Mühlenlanke Herrenseegraben","lat":52.376301,"lng":11.964748,"water_type":"Graben","platform":"merged","fish_count":0},{"id":"hejfish-15168","name":"Lemmerweide","lat":52.424635,"lng":11.990565,"water_type":null,"platform":"hejfish","fish_count":0},{"id":"hejfish-15167","name":"Kühns Loch","lat":52.389064,"lng":11.981562,"water_type":null,"platform":"hejfish","fish_count":0},{"id":"hejfish-15166","name":"Kiesschacht Wenzlau","lat":52.417354,"lng":11.984416,"water_type":null,"platform":"hejfish","fish_count":0},{"id":"hejfish-15165","name":"Kieslöcher Derben","lat":52.40652,"lng":11.980141,"water_type":null,"platform":"hejfish","fish_count":0},{"id":"hejfish-15164","name":"Kiesloch Born","lat":52.406952,"lng":11.990758,"water_type":"Baggersee","platform":"merged","fish_count":0},{"id":"hejfish-15163","name":"Kiesgrube Netzband","lat":52.407492,"lng":11.982924,"water_type":"Baggersee","platform":"merged","fish_count":0},{"id":"hejfish-15162","name":"Kiesgrube an der MTS","lat":52.374554,"lng":11.967029,"water_type":null,"platform":"hejfish","fish_count":0},{"id":"hejfish-15161","name":"Herrensee","lat":52.362682,"lng":11.939798,"water_type":null,"platform":"hejfish","fish_count":0},{"id":"hejfish-15160","name":"Hemslake","lat":52.399476,"lng":11.964716,"water_type":null,"platform":"hejfish","fish_count":0},{"id":"hejfish-15159","name":"Feuerlöschteich","lat":52.429744,"lng":12.002266,"water_type":"Teich","platform":"merged","fish_count":0},{"id":"hejfish-15157","name":"Elbe-Havel-Kanal (EHK)","lat":52.355771,"lng":11.976769,"water_type":null,"platform":"hejfish","fish_count":0},{"id":"hejfish-15156","name":"Elbe","lat":52.411829,"lng":11.971683,"water_type":null,"platform":"hejfish","fish_count":1},{"id":"hejfish-15153","name":"Oker","lat":52.445316,"lng":10.367592,"water_type":null,"platform":"hejfish","fish_count":0},{"id":"hejfish-15155","name":"Baggerelbe Derben","lat":52.422322,"lng":11.992362,"water_type":null,"platform":"hejfish","fish_count":0},{"id":"hejfish-15152","name":"Badeteich","lat":52.347387,"lng":11.97157,"water_type":null,"platform":"hejfish","fish_count":0},{"id":"hejfish-15151","name":"Alte und neue Kieslöcher Derben","lat":52.418408,"lng":11.987048,"water_type":null,"platform":"hejfish","fish_count":0},{"id":"hejfish-15150","name":"Alte Elbe mit Tunnel und Königsdamm","lat":52.375316,"lng":11.950532,"water_type":null,"platform":"hejfish","fish_count":0},{"id":"hejfish-15149","name":"Vollert bei Trebnitz (Gew. - Nr. 11-240-3)","lat":51.109944,"lng":12.052572,"water_type":null,"platform":"hejfish","fish_count":0},{"id":"hejfish-15144","name":"Maximilian und Edithteich Klitten","lat":51.354891,"lng":14.596233,"water_type":null,"platform":"hejfish","fish_count":0},{"id":"hejfish-15148","name":"Restloch Tornau (Gew. - Nr. 11-240-4)","lat":51.190625,"lng":12.147904,"water_type":"Baggersee","platform":"merged","fish_count":0},{"id":"hejfish-15143","name":"Edebergsee","lat":54.151235,"lng":10.451009,"water_type":"See","platform":"merged","fish_count":0},{"id":"hejfish-15142","name":"Ulmener Maar","lat":50.209972,"lng":6.982698,"water_type":null,"platform":"hejfish","fish_count":0},{"id":"hejfish-15139","name":"Stausee Obermaubach","lat":50.713478,"lng":6.443271,"water_type":null,"platform":"hejfish","fish_count":0},{"id":"hejfish-15138","name":"Weiher \"In der Nauwies\"","lat":49.413588299307,"lng":6.9790808971043,"water_type":null,"platform":"hejfish","fish_count":0},{"id":"hejfish-15137","name":"Ferkensbruch","lat":51.31099,"lng":6.255423,"water_type":null,"platform":"hejfish","fish_count":0},{"id":"hejfish-15131","name":"Hartensbergsee","lat":52.791406,"lng":8.446169,"water_type":null,"platform":"hejfish","fish_count":0},{"id":"hejfish-15130","name":"mit hejfish","lat":52.822742,"lng":8.472908,"water_type":null,"platform":"hejfish","fish_count":0},{"id":"hejfish-15129","name":"mit hejfish","lat":54.884517690589554,"lng":8.31536108745186,"water_type":null,"platform":"hejfish","fish_count":0},{"id":"hejfish-15128","name":"mit hejfish","lat":54.851981,"lng":8.414386,"water_type":null,"platform":"hejfish","fish_count":0},{"id":"hejfish-15127","name":"Tagebau","lat":52.267817167107,"lng":10.203608996725,"water_type":null,"platform":"hejfish","fish_count":0},{"id":"hejfish-15126","name":"Wehnser See","lat":52.431490163316,"lng":10.274596340514,"water_type":null,"platform":"hejfish","fish_count":0},{"id":"hejfish-15125","name":"mit hejfish","lat":52.329079109451,"lng":10.152196414328,"water_type":null,"platform":"hejfish","fish_count":0},{"id":"hejfish-15124","name":"Eixer See","lat":52.3476947,"lng":10.1994621,"water_type":null,"platform":"hejfish","fish_count":0},{"id":"hejfish-15123","name":"Rosenthal","lat":52.299328082198,"lng":10.184651143408,"water_type":null,"platform":"hejfish","fish_count":0},{"id":"hejfish-15122","name":"Dungelbeck","lat":52.2998724,"lng":10.2598757,"water_type":null,"platform":"hejfish","fish_count":0},{"id":"hejfish-15120","name":"Breitenbachtalsperre","lat":50.636817,"lng":8.086652,"water_type":"Stausee","platform":"merged","fish_count":0},{"id":"hejfish-15117","name":"Werratalsee","lat":51.192558,"lng":10.075334,"water_type":"Baggersee","platform":"merged","fish_count":0},{"id":"hejfish-15115","name":"Rödicher Teich (Schnepfenthal)","lat":50.882933,"lng":10.590248,"water_type":"Teich","platform":"merged","fish_count":0},{"id":"hejfish-15114","name":"Komstkochteich (Waltershausen)","lat":50.879067,"lng":10.558432,"water_type":null,"platform":"hejfish","fish_count":0},{"id":"hejfish-15112","name":"Tonloch Elbeu (3-470-07)","lat":52.234,"lng":11.611667,"water_type":null,"platform":"hejfish","fish_count":0},{"id":"hejfish-15111","name":"Steinbruch Wellen (3-470-22)","lat":52.133278,"lng":11.423083,"water_type":null,"platform":"hejfish","fish_count":0},{"id":"hejfish-15110","name":"Steinbruch Dahlenwarsleben (3-470-21)","lat":52.191333,"lng":11.564722,"water_type":"Weiher","platform":"merged","fish_count":0},{"id":"hejfish-15109","name":"See Technologiepark Ostfalen Barleben (Steinbruch) (3-470-23)","lat":52.19765,"lng":11.59148,"water_type":"Teich","platform":"merged","fish_count":0},{"id":"hejfish-15108","name":"Regenrückhaltebecken Meitzendorf (3-470-28)","lat":52.208778,"lng":11.550444,"water_type":null,"platform":"hejfish","fish_count":0},{"id":"hejfish-15107","name":"Ohre von Vahldorfer Brücke bis Ortsgrenze Wolmirstedt-West (3-470-17)","lat":52.2715,"lng":11.489472,"water_type":"Bach","platform":"merged","fish_count":0},{"id":"hejfish-15106","name":"Ohre bei Wolmirstedt","lat":52.246861,"lng":11.663806,"water_type":null,"platform":"hejfish","fish_count":0},{"id":"hejfish-15105","name":"Mittellandkanal von km 320,1 bis 321,1 (3-470-27)","lat":52.229083,"lng":11.672306,"water_type":null,"platform":"hejfish","fish_count":0},{"id":"hejfish-15104","name":"Kläne / Steinkolk bei Glindenberg (3-470-19 & 3-470-13)","lat":52.260972,"lng":11.693611,"water_type":null,"platform":"hejfish","fish_count":0},{"id":"hejfish-15103","name":"Kiesloch Heinrichsberg / Mittelheger (3-470-10)","lat":52.289778,"lng":11.724917,"water_type":null,"platform":"hejfish","fish_count":0},{"id":"hejfish-15102","name":"Jersleber See (3-470-05)","lat":52.236472,"lng":11.580889,"water_type":"Baggersee","platform":"merged","fish_count":0},{"id":"hejfish-15101","name":"Großer Kiesbagger Wolmirstedt (3-470-11)","lat":52.251528,"lng":11.662333,"water_type":null,"platform":"hejfish","fish_count":0},{"id":"hejfish-15100","name":"Ententeich Barleben (3-470-01)","lat":52.199333,"lng":11.625917,"water_type":null,"platform":"hejfish","fish_count":0},{"id":"hejfish-15099","name":"Elbe von km 338 bis 350","lat":52.221194,"lng":11.702861,"water_type":null,"platform":"hejfish","fish_count":0},{"id":"hejfish-15098","name":"Daukuhle Samswegen (3-470-20)","lat":52.255667,"lng":11.581889,"water_type":null,"platform":"hejfish","fish_count":0},{"id":"hejfish-15097","name":"Braunschweiger Loch / Heinrichsberg (3-470-18)","lat":52.261472,"lng":11.729083,"water_type":null,"platform":"hejfish","fish_count":0},{"id":"hejfish-15096","name":"Baggerloch Meseberg (3-470-15)","lat":52.282778,"lng":11.530194,"water_type":null,"platform":"hejfish","fish_count":0},{"id":"hejfish-15095","name":"Alte Kiesgrube (Rabe) bei Groß Ammensleben (3-470-03)","lat":52.244556,"lng":11.544778,"water_type":null,"platform":"hejfish","fish_count":0},{"id":"hejfish-15094","name":"Schwalm bei Niederkrüchten","lat":51.235944,"lng":6.133154,"water_type":null,"platform":"hejfish","fish_count":0},{"id":"hejfish-15093","name":"Niers bei Grefrath","lat":51.346036,"lng":6.356475,"water_type":null,"platform":"hejfish","fish_count":0},{"id":"hejfish-15092","name":"Zweedorfer Baggersee","lat":53.426056,"lng":10.642611,"water_type":null,"platform":"hejfish","fish_count":0},{"id":"hejfish-15087","name":"Speichersee","lat":48.22248,"lng":11.75725,"water_type":null,"platform":"hejfish","fish_count":0},{"id":"hejfish-15085","name":"Heidesee Müden/Ö.","lat":52.880158,"lng":10.121129,"water_type":null,"platform":"hejfish","fish_count":0},{"id":"hejfish-15084","name":"Üttelsheimer See","lat":51.469992607656,"lng":6.6707287052419,"water_type":null,"platform":"hejfish","fish_count":0},{"id":"hejfish-15083","name":"Scheyern","lat":48.50189,"lng":11.4432,"water_type":null,"platform":"hejfish","fish_count":0},{"id":"hejfish-15082","name":"Hollerner See - Fischwaid München e.V.","lat":48.28339,"lng":11.6018,"water_type":"See","platform":"merged","fish_count":0},{"id":"hejfish-15081","name":"Feringasee","lat":48.19507,"lng":11.67061,"water_type":null,"platform":"hejfish","fish_count":0},{"id":"hejfish-15080","name":"Boll - Steinbergen","lat":51.652028,"lng":6.251472,"water_type":null,"platform":"hejfish","fish_count":0},{"id":"hejfish-15079","name":"Gewässer Kalbeck I & II","lat":51.646861,"lng":6.206944,"water_type":"Baggersee","platform":"merged","fish_count":0},{"id":"hejfish-15078","name":"Vereinssee Höst","lat":51.660139,"lng":6.1955,"water_type":"Baggersee","platform":"merged","fish_count":0},{"id":"hejfish-15077","name":"Fließende Niers bei Weeze","lat":51.678188,"lng":6.194819,"water_type":null,"platform":"merged","fish_count":0},{"id":"hejfish-15074","name":"Riebel-Weiher 4 bei Kaufering","lat":48.089248,"lng":10.834999,"water_type":null,"platform":"hejfish","fish_count":0},{"id":"hejfish-15073","name":"Riebel-Weiher 1 bei Kaufering","lat":48.086079,"lng":10.833092,"water_type":null,"platform":"hejfish","fish_count":0},{"id":"hejfish-15072","name":"Taubensee / Vitzthum Weiher / Kecht Weiher","lat":47.737628,"lng":12.668267,"water_type":null,"platform":"hejfish","fish_count":0},{"id":"hejfish-15069","name":"Sorge bei Rendsburg (Salmonidenstrecke)","lat":54.347227,"lng":9.505839,"water_type":null,"platform":"hejfish","fish_count":0},{"id":"hejfish-15065","name":"Großer Sperber","lat":50.845104,"lng":7.466232,"water_type":null,"platform":"hejfish","fish_count":0},{"id":"hejfish-15066","name":"Rhein-Main-Donau-Kanal (KM 126 - 132)","lat":49.03631,"lng":11.520391,"water_type":null,"platform":"hejfish","fish_count":0},{"id":"hejfish-15064","name":"Schäfereich Stedten (9-150-14)","lat":51.442858,"lng":11.684249,"water_type":null,"platform":"hejfish","fish_count":0},{"id":"hejfish-15063","name":"Großes Tonloch Wansleben (9-150-21)","lat":51.460862,"lng":11.766876,"water_type":null,"platform":"hejfish","fish_count":0},{"id":"hejfish-15062","name":"Helmsdorfer Teiche (9-150-19)","lat":51.605434,"lng":11.626073,"water_type":null,"platform":"hejfish","fish_count":0},{"id":"hejfish-15061","name":"Tonloch Lauraberg Röblingen (9-150-18)","lat":51.457412,"lng":11.660455,"water_type":"Teich","platform":"merged","fish_count":0},{"id":"hejfish-15060","name":"Ringkanal ab Pumpwerk Wansleben (9-150-17)","lat":51.479098,"lng":11.744072,"water_type":null,"platform":"hejfish","fish_count":0},{"id":"hejfish-15059","name":"Mittelgraben bis Schöpfwerk Wansleben (9-150-15)","lat":51.47467,"lng":11.722542,"water_type":null,"platform":"hejfish","fish_count":0},{"id":"hejfish-15058","name":"Hofteich Stedten (9-150-13)","lat":51.443836,"lng":11.687222,"water_type":null,"platform":"hejfish","fish_count":0},{"id":"hejfish-15057","name":"Kleinwasserspeicher Ziegelrode (9-150-12)","lat":51.55345,"lng":11.443627,"water_type":null,"platform":"hejfish","fish_count":0},{"id":"hejfish-15056","name":"Grube Bornstedt Neuglück (9-150-9)","lat":51.486664,"lng":11.470646,"water_type":"Teich","platform":"merged","fish_count":0},{"id":"hejfish-15055","name":"Altrhein (Restrhein) bei Breisach Süd","lat":47.96489,"lng":7.619,"water_type":null,"platform":"hejfish","fish_count":0},{"id":"hejfish-15054","name":"Tonloch östlich der alten Schule Wansleben (9-150-8)","lat":51.464655,"lng":11.7656,"water_type":null,"platform":"hejfish","fish_count":0},{"id":"hejfish-15053","name":"Marthateich bei Wansleben (9-150-6)","lat":51.460494,"lng":11.77171,"water_type":"Baggersee","platform":"merged","fish_count":0},{"id":"hejfish-15052","name":"Ottilie Röblingen (9-150-5)","lat":51.466832,"lng":11.681607,"water_type":null,"platform":"hejfish","fish_count":0},{"id":"hejfish-15051","name":"Parkbad Anna Helbra (9-150-4)","lat":51.561964,"lng":11.482702,"water_type":"Teich","platform":"merged","fish_count":0},{"id":"hejfish-15050","name":"mit hejfish","lat":51.560641,"lng":11.487891,"water_type":null,"platform":"hejfish","fish_count":0},{"id":"hejfish-15049","name":"mit hejfish","lat":51.492678,"lng":11.52467,"water_type":null,"platform":"hejfish","fish_count":0},{"id":"hejfish-15048","name":"mit hejfish","lat":51.498034,"lng":11.444688,"water_type":null,"platform":"hejfish","fish_count":0},{"id":"hejfish-15045","name":"Waldschlut (Breisach am Rhein)","lat":48.050417,"lng":7.576511,"water_type":null,"platform":"merged","fish_count":0},{"id":"hejfish-15044","name":"mit hejfish","lat":48.00017,"lng":7.6179,"water_type":null,"platform":"hejfish","fish_count":0},{"id":"hejfish-15042","name":"Rhein bei Breisach Nord","lat":48.0223,"lng":7.58351,"water_type":null,"platform":"hejfish","fish_count":0},{"id":"hejfish-15041","name":"mit hejfish","lat":51.398829365989,"lng":6.3446468143977,"water_type":null,"platform":"hejfish","fish_count":0},{"id":"hejfish-15040","name":"Niers, Los 24","lat":51.439672814407,"lng":6.3080794444038,"water_type":null,"platform":"hejfish","fish_count":0},{"id":"hejfish-15039","name":"mit hejfish","lat":51.316189,"lng":6.780373,"water_type":"Baggersee","platform":"merged","fish_count":0},{"id":"hejfish-15038","name":"Bärenloch - Nur für Mitglieder -","lat":51.142939,"lng":6.940649,"water_type":null,"platform":"hejfish","fish_count":0},{"id":"hejfish-15031","name":"Traumsee","lat":49.465283,"lng":10.78768,"water_type":"See","platform":"merged","fish_count":0},{"id":"hejfish-15030","name":"Main-Donau-Kanal Mittelfranken","lat":49.195068,"lng":11.221808,"water_type":null,"platform":"hejfish","fish_count":0},{"id":"hejfish-15029","name":"Wöhrder See","lat":49.458829,"lng":11.11695,"water_type":null,"platform":"hejfish","fish_count":0},{"id":"hejfish-15027","name":"mit hejfish","lat":51.30288,"lng":11.194339,"water_type":"Baggersee","platform":"merged","fish_count":0},{"id":"hejfish-15026","name":"Kiesgrube Fischweide","lat":51.305934,"lng":11.193839,"water_type":null,"platform":"hejfish","fish_count":0},{"id":"hejfish-15025","name":"Badeteich Heldrungen","lat":51.30535202836,"lng":11.197117567062,"water_type":"Baggersee","platform":"merged","fish_count":0},{"id":"hejfish-15024","name":"Nidder bei Ortenberg","lat":50.352598,"lng":9.048124,"water_type":null,"platform":"hejfish","fish_count":0},{"id":"hejfish-15023","name":"Naturstrandbad bei Obhausen, Gewässernummer: 10-352-01","lat":51.376476,"lng":11.642858,"water_type":null,"platform":"hejfish","fish_count":0},{"id":"hejfish-15022","name":"Dieksee","lat":52.532609442785,"lng":7.3651704801007,"water_type":null,"platform":"hejfish","fish_count":0},{"id":"hejfish-15020","name":"Riebelweiher II","lat":48.067861,"lng":10.947944,"water_type":null,"platform":"merged","fish_count":0},{"id":"hejfish-15018","name":"Hofweiher","lat":47.914639,"lng":10.796778,"water_type":null,"platform":"merged","fish_count":0},{"id":"hejfish-15016","name":"Neuweiher","lat":47.917583,"lng":10.79625,"water_type":null,"platform":"hejfish","fish_count":0},{"id":"hejfish-15015","name":"mit hejfish","lat":47.924583,"lng":10.7945,"water_type":null,"platform":"hejfish","fish_count":0},{"id":"hejfish-15014","name":"Lechstaustufe 14","lat":47.97735593174,"lng":10.879364637342,"water_type":null,"platform":"hejfish","fish_count":0},{"id":"hejfish-15010","name":"Olmes Altarm","lat":51.053315464459,"lng":9.275420460802,"water_type":null,"platform":"hejfish","fish_count":0},