{"id":12885,"slug":"obinger-see","url":"https://www.hejfish.com/d/12885-obinger-see","name":"Obinger See","seo_name":"Obinger See","description":"<p>Parkplätze sind auf unseren Grundstück (Seestraße 4, 83119 Obing). Am Minigolfparkplatz und gegebenenfalls in der Nebenstraße am Obinger Seebach entlang (süd-westliches Ufer). Am Seeauslauf (süd-östliches Ufer).<br></p> <p>Der Obinger See ist 33 ha gross und 14 Meter tief, Gewässerklasse 2 – euthroph. Er liegt ca. 70 km östlich von München an der B304. </p> <p>Die Plattformen und Stege auf der Seite der alten B304 (Altenmarkter Strasse) und die Stege und Plattformen neben unserem Grundstück Seestraße 4 sind die Hauptangelplätze. </p> <p>WCs und ein Getränkeautomat sind in unserem Vereinsheim verfügbar.</p> <p>Mehr auf unserer Homepage www.fischerverein-obing.de </p> <p>Boote sind beim Gasthof Oberwirt für 12 € / Tag mietbar.<br>Es sind keine eigenen Gastboote, Bellyboote oder das Verwenden von Motoren erlaubt.<br></p> <p>Hauptfischarten sind Hecht, Karpfen, Brachse, Rotauge und Barsch. </p>","intro":"","details":"","borders":"<p>Es darf nur im See geangelt werden, nicht im Zufluss oder Ablauf, eine Fischruhezone ist im Ostufer mit Schildern im Wasser gekennzeichnet. <br>Am Steg des Bootshauses und auf Steganlagen in Privatbesitz, ist der Nutzung durch die Eigentümer bzw. Badegäste Vorrang einzuräumen.<br>Die Wiese um das Bootshaus ist Privatgrund. Die Durchquerungs des Grundstückes direkt am Bootshaus entlang zu den Angelplätzen ist aber erlaubt.</p>","image":"https://file.hejfish.com/image/cc1200x900/31/c9/31c93eb534e27feb5bf032313230d104c253c84c.jpeg","water_size_ha":null,"fish":["Hecht","Karpfen","Flussbarsch","Brasse","Rotauge","Schleie","Aal","Wels","Bachforelle","Regenbogenforelle","Zander"],"techniques":["Ansitzangeln","Spinnangeln","Naturköderangeln","Raubfischangeln","Friedfischangeln"],"properties":[],"water_type":"See","rules_text":"<h4><b>Die genauen Bestimmungen entnehmen Sie bitte der PDF-Datei im Anhang.</b></h4><h4><b>Diese sind vor dem Kauf genau durchzulesen und dann am Wasser zu befolgen!</b><br></h4>","rules_files":[{"id":1125326,"name":"obinger-see-bestimmungen","description":null,"file":"https://api.hejfish.com/files/download/b0fac8149a0af969cc50aba36b27e370f4473a43/obinger-see-bestimmungen.pdf"}],"tickets":[{"name":"Tageskarte - Normalpreis inkl. Servicegebühr","price":"27,00 EUR","ticket_type_id":2632,"price_id":94750}],"ticket_types":[{"id":2632,"name":"Tageskarte","category":"TIME","duration":20,"prices":[{"id":94750,"name":"Normalpreis inkl. Servicegebühr","value":"27,00 EUR","cents":2700,"type":"DEFAULT","valid_from":"2026-04-02","valid_to":"2026-10-31","available_from":"2026-04-02","age":0,"eligible":true}],"licenses":{"required":["Fischereischein / Jugendfischereischein Deutschland"],"optional":[]},"rules_text":"<h4><b>Die genauen Bestimmungen entnehmen Sie bitte der PDF-Datei im Anhang.</b></h4><h4><b>Diese sind vor dem Kauf genau durchzulesen und dann am Wasser zu befolgen!</b><br></h4>","rules_files":[{"id":1125326,"name":"obinger-see-bestimmungen","description":null,"file":"https://api.hejfish.com/files/download/b0fac8149a0af969cc50aba36b27e370f4473a43/obinger-see-bestimmungen.pdf"}],"additional_areas":[],"catch_report_required":true}],"manager":{"id":1686,"name":"Fischerverein Obing e. V.","street":"Seestraße 4","postal_code":"83119","city":"Obing","telephone":"","email":"info@fischerverein-obing.de","website":"http://www.fischerverein-obing.de/","logo":"https://file.hejfish.com/image/r200x200/14/8d/148d6ef868cdbb9694f9bf7111c215cb7c2bb301.jpeg","slug":"fischerverein-obing-e-v"},"season_begin":"0001-04-02","season_end":"0001-10-31","features":{"accessible":false,"public_transport":true,"boat":true,"belly_boat":false,"digital_ticket":false,"night_fishing":false,"ice_fishing":false,"depth_map":true,"has_gauges":false},"location":{"city":{"id":31675,"name":"Obing"},"district":{"id":400,"name":"Kreis Traunstein"},"state":{"id":10,"name":"Bayern","slug":"bayern"},"country":{"id":2,"name":"Deutschland","code":"de","slug":"deutschland"}},"products":[{"id":752,"name":"Statistikdaten in Rohformat (Excel) – Obinger See","caption":"","description":"<p>Mithilfe dieser Statistikdaten wollen wir dir zu deinem Fang verhelfen. In diesem Excel-Download findest du die anonymisierten Rohdaten zum jeweiligen Gewässer aus unserer Fangdatenbank.</p>","image":"https://file.hejfish.com/image/cc800x600/bd/85/bd8572e8d4e2c38eba0a2ce880a00196ceda2fd0.jpg","category":{"id":10,"name":"Fangstatistiken (Rohdaten)"},"price":null,"guest_ticket":null,"show_in_shop":false,"show_on_area_detail_page":true,"show_in_basket":false}],"points_of_interest":[],"catch_reports":[{"photo":{"thumb":"https://file.hejfish.com/image/cc800x600/ec/40/ec409f3289de13adb9e0a3021f7503194b4fbae1.jpg","large":"https://file.hejfish.com/image/r1400x1400/ec/40/ec409f3289de13adb9e0a3021f7503194b4fbae1.jpg"},"catch_date":"2020-08-26","catch_time":"12:19","type":"catch","fish":"Hecht","length":60,"weight":1.79,"fisher":"Konstantin Schweitzer","comment":""}],"news":[{"id":6971,"text":"<p><b>Leider sind die Vermieterboote aktuell bis voraussichtlich 8. Mai 2026 nicht verleihbar.</b><br></p>","valid_from":null,"valid_till":null}],"hejfish_fee":[{"min":137,"max":297,"percent":8.9,"fisher_type":"guest"}],"lat":48.005699,"lng":12.412559,"geocode_source":"hejfish_api_map","map_data":{"id":12885,"geojson":[],"locations":[{"lat":48.005699,"lng":12.412559},{"lat":48.005078227812,"lng":12.412641950123},{"lat":48.005054845136,"lng":12.413450343539},{"lat":48.005152662699,"lng":12.413848125968},{"lat":48.001306049725,"lng":12.419059079685},{"lat":48.001544750045,"lng":12.417917632036},{"lat":48.001800048431,"lng":12.41494716013},{"lat":48.00193165483,"lng":12.412417254377},{"lat":48.004020476882,"lng":12.409929456511},{"lat":48.004249148952,"lng":12.410509141205},{"lat":48.004437463422,"lng":12.410912679413}],"stations":[{"name":"Obing Wasserburger Str.","lat":48.001828,"lng":12.402904,"lines":null,"url":null},{"name":"Obing","lat":47.998781,"lng":12.403156,"lines":null,"url":null},{"name":"Obing Gasthof zur Post","lat":48.000692,"lng":12.406713,"lines":null,"url":null},{"name":"Obing Schule","lat":47.999737,"lng":12.409121,"lines":null,"url":null},{"name":"Obing Seeoner Straße","lat":47.998005,"lng":12.411672,"lines":null,"url":null},{"name":"Abzw Pittenhart","lat":47.991519,"lng":12.418876,"lines":null,"url":null},{"name":"Abzw Ornach","lat":48.001498,"lng":12.424221,"lines":null,"url":null}],"gauges":[],"depth_map":null},"extractor_schema_version":2,"last_updated":"2026-05-07T11:41:44.165Z","error":false,"source_platform":"merged","global_id":"hejfish-12885","external_ids":{"hejfish":12885,"alleangeln":"obinger-see"}}