{"id":"hejfish-14177","source_platform":"merged","source_ids":{"hejfish":14177,"alleangeln":"wallensteingraben-wismar"},"name":"Wallensteingraben bei Wismar (5005e)","water_type":"Altarm","country":"DE","center":{"lat":53.880244,"lng":11.47946,"source":"hejfish_api_map_geojson","confidence":"high"},"geometry":{"points":[{"lat":53.880122,"lng":11.479917},{"lat":53.879526,"lng":11.478874},{"lat":53.8802,"lng":11.48}],"lines":[[{"lat":53.879342,"lng":11.47826},{"lat":53.879347,"lng":11.478268},{"lat":53.879414,"lng":11.478354},{"lat":53.879637,"lng":11.478897},{"lat":53.879691,"lng":11.479039},{"lat":53.87972,"lng":11.479131},{"lat":53.87982,"lng":11.479296},{"lat":53.879953,"lng":11.479438},{"lat":53.880015,"lng":11.479626},{"lat":53.880101,"lng":11.47991},{"lat":53.880193,"lng":11.480116},{"lat":53.880239,"lng":11.480153},{"lat":53.880285,"lng":11.480166},{"lat":53.880393,"lng":11.480185},{"lat":53.880565,"lng":11.480193},{"lat":53.880649,"lng":11.480225},{"lat":53.880692,"lng":11.480325},{"lat":53.880813,"lng":11.480416},{"lat":53.880963,"lng":11.48053},{"lat":53.881145,"lng":11.480643},{"lat":53.881141,"lng":11.48066}]],"polygons":[],"source":"hejfish_api_map_geojson","confidence":"high"},"links":{"source":"https://www.hejfish.com/d/14177-wallensteingraben-bei-wismar-5005e","hejfish":"https://www.hejfish.com/d/14177-wallensteingraben-bei-wismar-5005e","alleangeln":"https://www.alleangeln.de/gewaesser/wallensteingraben-wismar","website":"http://www.lav-mv.de/gewaesservz/waters/view/13364","image":null},"fish":["Bachforelle","Hecht","Regenbogenforelle","Flussbarsch","Brasse","Rotauge","Aal","Quappe","Meerforelle","Aland","Brachse","5 weitere Fischarten"],"metadata":{"merged_fields":{"center":"hejfish","fish":["hejfish","alleangeln"],"description":"alleangeln","geometry":"hejfish","water_type":"hejfish"},"sources":{"hejfish":{"platform":"hejfish","geocode_source":"hejfish_api_map_geojson","slug":"wallensteingraben-bei-wismar-5005e","seo_name":"Wallensteingraben bei Wismar (5005e)","techniques":["Spinnangeln","Fliegenfischen","Ansitzangeln","Feedern","Stippangeln","Posenangeln","Oberflächenangeln","Raubfischangeln","Friedfischangeln","Karpfenangeln"],"rules_files":[{"id":293161,"name":"satellitenbild","description":null,"file":"https://api.hejfish.com/files/download/bd87e83fc2687ccdbafff4b2656eb24614a11861/satellitenbild.pdf"},{"id":884564,"name":"Gewaesserordnung 01.01.2023","description":null,"file":"https://api.hejfish.com/files/download/d4cbab17110d09a2062535e73af3194f406fe45b/Gewaesserordnung%2001.01.2023.pdf"}],"tickets":[{"name":"Tageskarte - Erwachsene","price":"16,00 EUR","ticket_type_id":6738,"price_id":101105},{"name":"Tageskarte - Jugend","price":"4,00 EUR","ticket_type_id":6738,"price_id":101106},{"name":"2-Tageskarte - Erwachsene","price":"32,00 EUR","ticket_type_id":6739,"price_id":101107},{"name":"2-Tageskarte - Jugend","price":"8,00 EUR","ticket_type_id":6739,"price_id":101108},{"name":"Wochenkarte - Erwachsene","price":"92,00 EUR","ticket_type_id":6740,"price_id":101109},{"name":"Wochenkarte - Jugend","price":"20,00 EUR","ticket_type_id":6740,"price_id":101110},{"name":"Monatskarte - Erwachsene","price":"172,00 EUR","ticket_type_id":6741,"price_id":101111}],"manager":{"id":1834,"name":"Landesanglerverband Mecklenburg-Vorpommern e.V.","street":"OT Görslow, Siedlung 18a","postal_code":"19067","city":"Leezen","telephone":"","email":"","website":"https://www.lav-mv.de/","logo":"https://file.hejfish.com/image/r200x200/37/cb/37cb2792d40e6c06eadde2bd767e4c1c68624403.png","slug":"landesanglerverband-mecklenburg-vorpommern-e-v"},"season_begin":"0001-01-01","season_end":"0001-12-31","features":{"accessible":false,"public_transport":false,"boat":true,"belly_boat":true,"digital_ticket":true,"night_fishing":true,"ice_fishing":false,"depth_map":false,"has_gauges":false},"location":{"city":{"id":9335,"name":"Wismar"},"district":{"id":153,"name":"Kreis Nordwestmecklenburg"},"state":{"id":20,"name":"Mecklenburg-Vorpommern","slug":"mecklenburg-vorpommern"},"country":{"id":2,"name":"Deutschland","code":"de","slug":"deutschland"}},"source_last_updated":"2026-05-07T11:44:03.667Z","error":false},"alleangeln":{"platform":"alleangeln","geocode_source":"alleangeln_json_ld","slug":"wallensteingraben-wismar","description":"Wallensteingraben (Wismar) ist ein Bach in Mecklenburg-Vorpommern in der Nähe von Wismar. Das Gewässer wird von unseren Mitgliedern sehr stark befischt und als Top Gewässer bewertet.","followers":588,"catches_count":154,"images_count":10,"website":"http://www.lav-mv.de/gewaesservz/waters/view/13364","best_method":"Posenfischen","scraper_version":2,"source_last_updated":"2026-05-11T20:02:28.447Z","error":false}}},"last_updated":"2026-05-11T20:02:28.447Z"}