{"id":"hejfish-15387","source_platform":"merged","source_ids":{"hejfish":15387,"alleangeln":"prüßsee"},"name":"Prüßsee","water_type":"Baggersee","country":"DE","center":{"lat":53.529812,"lng":10.685317,"source":"hejfish_api_map_geojson","confidence":"high"},"geometry":{"points":[{"lat":53.534027,"lng":10.685797}],"lines":[[{"lat":53.5373,"lng":10.685823},{"lat":53.537541,"lng":10.685647},{"lat":53.537813,"lng":10.685175},{"lat":53.537877,"lng":10.684878},{"lat":53.537805,"lng":10.684447},{"lat":53.537877,"lng":10.68361},{"lat":53.537733,"lng":10.682909},{"lat":53.537605,"lng":10.682194},{"lat":53.537565,"lng":10.681951},{"lat":53.537485,"lng":10.681749},{"lat":53.537204,"lng":10.681722},{"lat":53.5371,"lng":10.681762}],[{"lat":53.53665,"lng":10.684393},{"lat":53.536211,"lng":10.68351},{"lat":53.5361,"lng":10.683273},{"lat":53.535883,"lng":10.682806},{"lat":53.535727,"lng":10.682458},{"lat":53.536297,"lng":10.682152},{"lat":53.536615,"lng":10.681999}],[{"lat":53.535945,"lng":10.684645},{"lat":53.535818,"lng":10.684345},{"lat":53.535646,"lng":10.684334},{"lat":53.53562,"lng":10.684206},{"lat":53.53569,"lng":10.683938},{"lat":53.535538,"lng":10.683821},{"lat":53.53536,"lng":10.683275},{"lat":53.535175,"lng":10.68289},{"lat":53.534876,"lng":10.682761},{"lat":53.534724,"lng":10.682772},{"lat":53.533986,"lng":10.683146},{"lat":53.533324,"lng":10.683489}],[{"lat":53.532415,"lng":10.688912},{"lat":53.532357,"lng":10.688548},{"lat":53.532268,"lng":10.688409},{"lat":53.532166,"lng":10.688324},{"lat":53.53209,"lng":10.688185},{"lat":53.532033,"lng":10.688099},{"lat":53.531912,"lng":10.688013},{"lat":53.531766,"lng":10.687874},{"lat":53.53167,"lng":10.687714},{"lat":53.531556,"lng":10.68751},{"lat":53.531511,"lng":10.687382}],[{"lat":53.524097,"lng":10.687183},{"lat":53.523787,"lng":10.686701},{"lat":53.523369,"lng":10.68626},{"lat":53.523107,"lng":10.685878},{"lat":53.522784,"lng":10.685718},{"lat":53.522629,"lng":10.685377},{"lat":53.522283,"lng":10.684995},{"lat":53.521746,"lng":10.684353}]],"polygons":[],"source":"hejfish_api_map_geojson","confidence":"high"},"links":{"source":"https://www.hejfish.com/d/15387-pruesssee","hejfish":"https://www.hejfish.com/d/15387-pruesssee","alleangeln":"https://www.alleangeln.de/gewaesser/prüßsee","website":"http://angelgewaesser.lsfv-sh.de/","image":"https://file.hejfish.com/image/cc1200x900/d0/49/d0490cb6d35da407cfa0a77862aff5948283a4fb.jpg"},"fish":["Aal","Zander","Karpfen","Rotauge","Hecht","Flussbarsch","Brasse","Güster","Quappe","Aland","Schleie","Döbel","Wels","Schwarzmund-Grundel","Rapfen","Brachse","7 weitere Fischarten"],"metadata":{"merged_fields":{"center":"hejfish","fish":["hejfish","alleangeln"],"description":"hejfish","geometry":"hejfish","water_type":"hejfish"},"sources":{"hejfish":{"platform":"hejfish","geocode_source":"hejfish_api_map_geojson","slug":"pruesssee","seo_name":"Prüßsee","description":"<p>Im landschaftlich sehr reizvollen Naturpark Lauenburgische Seen zwischen Mölln und Lauenburg liegt der Prüßsee. Nach der Anpachtung eines Großteils seiner Gewässerflächen kann der Landesangelverband Schleswig-Holstein e.V. jetzt auch im Südosten des Bundeslandes einen See zum Angeln anbieten. An vielen Ufern des Sees reichen die Grundstücke der Anwohner bis ans Wasser. Es finden sich aber auch problemlos abgelegene Angelstellen an denen man nur die Natur um sich hat.</p> <p>Ab sofort sind auch Mietboote verfügbar, mit denen die Seenlandschaft erkundet werden kann und die weitergehende Möglichkeiten zum Angeln bieten. Die Boote liegen an einem Schwimmsteg - um die Böschung zum Steg zu überwinden sind 39 eher steile Treppenstufen nötig. Mittels dem bei der Bootsbuchung bekommenen Zahlencode lässt sich das entsprechende Fach der Ruderbox zur Entnahme der Ruder öffnen.<br></p> <p>Das Wasser ist von hoher Qualität. Der Komplex aus mehreren miteinander verbundenen Baggerseen wird zu einem großen Anteil aus eigenen Quellen gespeist. Die Wassertiefe ist sehr variabel, es finden sich ausgedehnte Flachwasserbereiche aber auch Stellen die bis zu etwa 8 Meter tief sind.</p> <p>Durch die Verbindung zum Elbe-Lübeck-Kanal bietet der See einen guten Fischbestand und eine große Artenvielfalt. Bekannt ist der Prüßsee vor allem für seine Hechte und Karpfen, die zum Teil beachtliche Größen erreichen. Aber auch beispielsweise sehr ansehnliche Schleien können beobachtet und gefangen werden. Bereits seit einigen Jahren steigt der Welsbestand im See deutlich an. Mittlerweile sind nicht nur viele sondern auch recht große Exemplare vorhanden. Insbesondere zur kälteren Jahreszeit wandern viele Fische aus dem Elbe-Lübeck-Kanal in den Prüßsee. Dann können beispielsweise auch sehr gute Barschfänge gemacht werden.</p> <p>Da in den letzten Jahren wenig von den jetzt ausgewiesenen Uferangelstrecken aus geangelt wurde, sind diese nur teilweise gut zugänglich. In allen ausgewiesenen Uferangelstrecken finden sich aber Plätze von denen aus es sich gut angeln lässt.</p>","borders":"<h4><b>Bitte beachten Sie die Karte im Anhang!</b></h4>\n\n<h4><b><br></b></h4>\n\n<p>Erlaubte Angelzonen siehe Karte!</p>\n\n<p>Angeln vom Ufer außerhalb der erlaubten Uferangelstrecken nur für Anlieger!</p>\n\n<p>Bootsangeln nur vom LAV-Mietboot! <br></p>\n\n\n\n<h3><b>Urlauberfischereischeine werden nicht anerkannt!</b><br></h3>","techniques":["Posenangeln","Spinnangeln","Ansitzangeln"],"rules_text":"<p><b>Es gilt die Erlaubnis für den Fischfang auf der in der Angelkarte dargestellten Fläche des Prüßsees (ca. 77 ha Fischereirecht).</b></p><p><b><br></b><br><b>Besondere Bedingungen:</b></p><p><br>1.&nbsp; &nbsp; Es darf vom Ufer und vom genehmigten Ruderboot aus geangelt werden. Motoren sind nicht erlaubt. Als Angelboote sind nur die Mietboote des Landesangelverbandes-Schleswig-Holstein und weitere durch diesen Verband genehmigte Boote zugelassen. Weitere Boote, ausgenommen Futterboote, sind im Zusammenhang mit dem Angeln generell verboten. Mit den Angelbooten darf zum Schutz der Böschungen und der Vegetation nicht am Ufer angelandet werden.<br>2.&nbsp; &nbsp; Dem Erlaubnisschein liegt eine Karte bei, in der die zum Angeln freigegebenen Gebiete gekennzeichnet sind. In einem nordöstlichen Teilbereich ist nur das Angeln vom Ufer erlaubt. Ansonsten ist bis auf die in der Karte gekennzeichneten Uferangelzonen nur das Angeln vom Boot aus erlaubt. Teilweise muss dabei ein Abstand zum Ufer eingehalten werden. Bei bebauten Grundstücken ist generell ein Uferabstand von 10 m einzuhalten. Das Angeln von den Inseln im See aus und deren Betreten ist generell verboten. Um Konflikten z. B. mit Anwohnern vorzubeugen, müssen die Grenzen genau eingehalten werden. Bei Zweifeln zur genauen Lage der Gebietsgrenzen muss ein Sicherheitsabstand eingehalten werden. Beim Bootsangeln soll die App \"Angeln-In\" zur Anzeige der Gebietsgrenzen in Echtzeit genutzt werden. In gesperrte Flächen dürfen die Köder weder geworfen noch mit ferngesteuerten Booten gebracht werden.&nbsp;&nbsp;<br>3.&nbsp; &nbsp; Prüßsee-Mietern des Verpächters (Freizeitwelt Güster GmbH &amp; Co. KG) ist das Angeln vom gepachteten Seeufer aus mit diesem Erlaubnisschein erlaubt, ebenso Anliegern vom eigenen Grundstück aus, sofern sie die aus der Karte ersichtliche Fläche nutzen.<br>4.&nbsp; &nbsp; Es darf mit maximal drei Handangeln mit jeweils höchstens zwei Anbissstellen ganztägig geangelt werden (Köderfischsysteme und Kunstköder gelten als eine Anbissstelle). Beim Nachtangeln ist besondere Rücksicht auf Anwohner zu nehmen und Lärm zu vermeiden. Der Einsatz einer Köderfischsenke mit höchstens 1 x 1 m Fläche für den eigenen Köderfischbedarf ist erlaubt und zählt nicht zu den drei Angeln.<br>5.&nbsp; &nbsp; Die Verwendung und das Mitführen von Echoloten/Echolotgebern mit Live-Sonar Technologie, die geeignet sind Bewegungen der Fische in Echtzeit darzustellen, ist verboten.<br>6.&nbsp; &nbsp; Die Bootsnutzung, das Angeln und der gesamte Aufenthalt am Gewässer geschehen auf eigene Gefahr. Ausgelegte Angeln sind stets selbst zu beaufsichtigen. Eine Übertragung der Aufsicht ist nicht gestattet. Der Fischfang erfolgt nur für den Eigenbedarf, ein Verkauf ist verboten.<br>7.&nbsp; &nbsp; Das Mindestmaß beträgt für den Hecht und den Zander 50 cm. Die Schonzeit für Zander geht vom 01.02. bis zum 31.05. des Jahres, die Schonzeit für Hecht vom 01.02. bis zum 30.04. Ansonsten gelten die Bestimmungen der BiFVO. Täglich dürfen bis zu zwei Hechte, zwei Zander und zwei Karpfen je Erlaubnisschein entnommen werden. Alle anderen Arten dürfen, sofern ihr Fang erlaubt ist, in unbegrenzter Menge entnommen werden.<br>8.&nbsp; &nbsp; Der Erlaubnisschein berechtigt nicht zum Befahren der „nur für Anlieger“ freigegebenen Wege.<br>9.&nbsp; &nbsp; Müll, Abfälle und Reststoffe sind vollständig mit nach Hause zu nehmen und dort ordnungsgemäß zu entsorgen.<br>10.&nbsp; &nbsp; Den Anordnungen der Fischereiaufseher ist Folge zu leisten. Verstöße gegen das Fischereigesetz und die BiFVO sowie diese Erlaubnisscheinbedingungen werden verfolgt, der Erlaubnisschein wird ohne Vergütung eingezogen.<br>11.&nbsp; &nbsp; Über den Fang sind Fanglisten zu führen. Die Fangmeldung ist spätestens nach dem Fangsaisonende beim Fischereirechtsinhaber, einer Ausgabestelle oder über das Internet abzugeben. Ist die Nicht-Abgabe der Fangmeldung bekannt, erfolgt keine Ausgabe eines neuen Erlaubnisscheines!<br>12.&nbsp; &nbsp; Die Fischereierlaubnis umfasst zusätzlich Kinder und Jugendliche unter 14 Jahren, die eines der erlaubten Fanggeräte unter der jederzeitigen Aufsicht des volljährigen Scheininhabers benutzen dürfen.</p><p><br><b>Mit dem Kauf und der Nutzung des Erlaubnisscheines werden die besonderen Bedingungen anerkannt.</b><br><br></p><h3 class=\"MsoNormal\"><span style=\"font-weight: normal;\"></span></h3><br><div style=\"text-align: justify; text-indent: -18.9333px;\"><font size=\"1\"></font></div><p></p>","rules_files":[{"id":1399187,"name":"pruesssee-bestimmungen","description":null,"file":"https://api.hejfish.com/files/download/893d0bc156ec0e460008844ab38d05ffde6e42c6/pruesssee-bestimmungen.pdf"}],"tickets":[{"name":"Tageskarte Mitglieder - Mitglied im Deutschen Angelfischerverband","price":"10,00 EUR","ticket_type_id":8415,"price_id":91733},{"name":"Tageskarte Mitglieder - Mitglied im Deutschen Angelfischerverband Jugend","price":"6,00 EUR","ticket_type_id":8415,"price_id":91734},{"name":"Wochenkarte Mitglieder - Mitglied im Deutschen Angelfischerverband","price":"40,00 EUR","ticket_type_id":8416,"price_id":91735},{"name":"Wochenkarte Mitglieder - Mitglied im Deutschen Angelfischerverband Jugend","price":"24,00 EUR","ticket_type_id":8416,"price_id":91736},{"name":"3-Tageskarte Mitglieder - Mitglied im Deutschen Angelfischerverband","price":"20,00 EUR","ticket_type_id":8417,"price_id":91737},{"name":"3-Tageskarte Mitglieder - Mitglied im Deutschen Angelfischerverband Jugend","price":"12,00 EUR","ticket_type_id":8417,"price_id":91738},{"name":"Tageskarte nicht organisiert - nicht organisiert","price":"15,00 EUR","ticket_type_id":8418,"price_id":91739},{"name":"Tageskarte nicht organisiert - nicht organisiert Jugend","price":"9,00 EUR","ticket_type_id":8418,"price_id":91740},{"name":"3-Tageskarte nicht organisiert - nicht organisiert","price":"30,00 EUR","ticket_type_id":8419,"price_id":91741},{"name":"3-Tageskarte nicht organisiert - nicht organisiert Jugend","price":"18,00 EUR","ticket_type_id":8419,"price_id":91742},{"name":"Wochenkarte nicht organisiert - nicht organisiert","price":"60,00 EUR","ticket_type_id":8420,"price_id":91743},{"name":"Wochenkarte nicht organisiert - nicht organisiert Jugend","price":"36,00 EUR","ticket_type_id":8420,"price_id":91744},{"name":"Jahreskarte Mitglieder - Mitglied im Deutschen Angelfischerverband","price":"120,00 EUR","ticket_type_id":8495,"price_id":91746},{"name":"Jahreskarte Mitglieder - Mitglied im Deutschen Angelfischerverband Jugend","price":"72,00 EUR","ticket_type_id":8495,"price_id":91747},{"name":"Jahreskarte nicht organisiert - nicht organisiert","price":"180,00 EUR","ticket_type_id":8496,"price_id":91748},{"name":"Jahreskarte nicht organisiert - nicht organisiert Jugend","price":"108,00 EUR","ticket_type_id":8496,"price_id":91749},{"name":"Nachtangelkarte Mitglieder (gültig von 12:00 bis 12:00 Uhr Folgetag) - Mitglied im Deutschen Angelfischerverband","price":"10,00 EUR","ticket_type_id":9086,"price_id":91750},{"name":"Nachtangelkarte Mitglieder (gültig von 12:00 bis 12:00 Uhr Folgetag) - Mitglied im Deutschen Angelfischerverband Jugend","price":"6,00 EUR","ticket_type_id":9086,"price_id":91751},{"name":"Nachtangelkarte nicht organisiert (gültig von 12:00 bis 12:00 Uhr Folgetag) - nicht organisiert","price":"15,00 EUR","ticket_type_id":9087,"price_id":91752},{"name":"Nachtangelkarte nicht organisiert (gültig von 12:00 bis 12:00 Uhr Folgetag) - nicht organisiert Jugend","price":"9,00 EUR","ticket_type_id":9087,"price_id":91753}],"manager":{"id":1485,"name":"Landesangelverband Schleswig-Holstein e.V.","street":"Papenkamp 52","postal_code":"24114","city":"Kiel","telephone":"+49431676818","email":"info@lav-sh.de","website":"https://www.lav-sh.de/","logo":"https://file.hejfish.com/image/r200x200/cb/4a/cb4a93c9e4930ca88bbb86dd560f7754cdb7faca.jpg","slug":"landesangelverband-schleswig-holstein-e-v"},"season_begin":"0001-01-01","season_end":"0001-12-31","features":{"accessible":false,"public_transport":false,"boat":true,"belly_boat":false,"digital_ticket":true,"night_fishing":true,"ice_fishing":false,"depth_map":true,"has_gauges":false},"location":{"city":{"id":10473,"name":"Büchen"},"district":{"id":158,"name":"Kreis Herzogtum Lauenburg"},"state":{"id":25,"name":"Schleswig-Holstein","slug":"schleswig-holstein"},"country":{"id":2,"name":"Deutschland","code":"de","slug":"deutschland"}},"source_last_updated":"2026-05-07T11:45:39.358Z","error":false},"alleangeln":{"platform":"alleangeln","geocode_source":"alleangeln_json_ld","slug":"prüßsee","description":"Prüßsee ist ein See in Schleswig-Holstein in der Nähe von Güster. Das Gewässer wird von unseren Mitgliedern sehr stark befischt und als Top Gewässer bewertet.","followers":306,"catches_count":97,"images_count":3,"website":"http://angelgewaesser.lsfv-sh.de/","best_method":"Spinnfischen","scraper_version":2,"source_last_updated":"2026-05-11T19:56:47.929Z","error":false}}},"last_updated":"2026-05-11T19:56:47.929Z"}