{"id":"hejfish-13201","source_platform":"merged","source_ids":{"hejfish":13201,"alleangeln":"weiheranlage-in-der-kasheck"},"name":"Weiheranlage – In der Kasheck","water_type":"Teich (Weiher)","country":"DE","center":{"lat":49.328942,"lng":6.645087,"source":"hejfish_api_map_geojson","confidence":"high"},"geometry":{"points":[{"lat":49.329181,"lng":6.645346},{"lat":49.329018,"lng":6.644745}],"lines":[],"polygons":[[{"lat":49.328748,"lng":6.645141},{"lat":49.328821,"lng":6.645602},{"lat":49.329024,"lng":6.64557},{"lat":49.32916,"lng":6.645398},{"lat":49.329104,"lng":6.645194},{"lat":49.329104,"lng":6.644985},{"lat":49.329052,"lng":6.644974},{"lat":49.328852,"lng":6.645066}],[{"lat":49.328985,"lng":6.644572},{"lat":49.328863,"lng":6.644695},{"lat":49.328723,"lng":6.644669},{"lat":49.328741,"lng":6.645055},{"lat":49.328783,"lng":6.64499},{"lat":49.328831,"lng":6.644942},{"lat":49.328884,"lng":6.644889},{"lat":49.328964,"lng":6.644862},{"lat":49.329034,"lng":6.644867},{"lat":49.329031,"lng":6.644679}]],"source":"hejfish_api_map_geojson","confidence":"high"},"links":{"source":"https://www.hejfish.com/d/13201-weiheranlage-in-der-kasheck","hejfish":"https://www.hejfish.com/d/13201-weiheranlage-in-der-kasheck","alleangeln":"https://www.alleangeln.de/gewaesser/weiheranlage-in-der-kasheck","website":"https://asv-rammelfangen.de/","image":"https://file.hejfish.com/image/cc1200x900/22/bc/22bc392170f72c3294f0c2aedadcd3503102d9f1.jpeg"},"fish":["Stör","Zander","Karpfen","Div. Weißfische","Aal","Brasse","Flussbarsch","Regenbogenforelle","Brachse","4 weitere Fischarten"],"metadata":{"merged_fields":{"center":"hejfish","fish":["hejfish","alleangeln"],"description":"hejfish","geometry":"hejfish","water_type":"hejfish"},"sources":{"hejfish":{"platform":"hejfish","geocode_source":"hejfish_api_map_geojson","slug":"weiheranlage-in-der-kasheck","seo_name":"Weiheranlage – In der Kasheck","description":"<p>Zwischen Gisingen und Rammelfangen warten 2 nebeneinander gelegene Angelweiher darauf befischt zu werden. Die Gewässer sind ruhig und abgeschieden gelegen. Der Premium Wanderweg \"Der Gisinger\" führt den ein oder anderen Wanderer an den Weiheranlagen vorbei. Mit Splitt bedeckte Parkplätze sind in ausreichender Zahl vorhanden. Jeweils 4,5 ha Fläche stehen euch zum Fischfang zur Verfügung. Wie das Angelwetter zurzeit an unserem Gewässer ist, seht ihr auf asv-rammelfangen.de </p>","borders":"<p>Großer Weiher: 49.329181, 6.645346\n<br>Kleiner Weiher: 49.329018, 6.644745 </p>\n\n","techniques":["Ansitzangeln","Friedfischangeln","Posenangeln","Spinnangeln","Raubfischangeln"],"rules_text":"<p><b>Hinweis: In den Wintermonaten können die Weiher gefroren und somit nicht befischbar sein! Bitte beachten!<br></b></p><p><b>Zusatzbedingungen zum Fischfang beim ASV Rammelfangen e.V. zu den gesetzlichen Vorgaben \r\n</b></p><ol><li>Der Angler erfüllt die gesetzlichen Vorgaben den Fischfang auszuüben. \r\n</li><li>Die Weiheranlage ist mit allen Bauten und Bepflanzungen schonend zu behandeln \r\n</li><li>Das Angeln wird mit 2 Handangeln gestattet, von Sonnenauf- bis Sonnenuntergang \r\n</li><li>Der Angler entsorgt den angefallenen Müll in den dafür vorgesehenen Behältern. \r\n</li><li>Das Fischen mit selbstgezogenen Maden, Blinkern sowie künstlichen Teigen mit Glitzer, ist verboten. \r\n</li><li>Die Fische sind auf geeignete Landungsmatten abzusetzen. \r\n</li></ol><p><b>Fangbegrenzung:</b></p><p><b>Karpfen mit einem Gewicht über 3 Kg sind schonend wieder zurück zu setzen.</b></p><p><b>Störe sind generell zur MItnahme gesperrt und müssen schonend wieder zurückgesetzt werden.</b></p><p><b> \r\n</b></p><p>1 Zander(min.45cm), 12 Weißfische, 2 Karpfen(bis 3 Kilo)\r\n</p><p>-oder – 2 Schleien(min. 25cm), 3 Forellen\r\n</p><p>-Oder-\r\n</p><p>12 Weißfische, 1 Karpfen(bis 3 Kilo)\r\n</p><p>– oder – 2 Schleien, 3 Forellen\r\n</p><p>-Oder-\r\n</p><p>1 Aal(min. 50cm), 12 Weißfische, 1 Karpfen(bis 3 Kilo)\r\n</p><p>– oder – 2 Schleien, 3 Forellen</p><p><b>Schonzeiten &amp; Mindestmaße</b><br>zusätzliche gesetzliche Schonzeiten &amp; Mindestmaße beachten!<br>Karpfen über 3 Kg sind zur Mitnahme gesperrt und müssen schonend wieder zurückgesetzt werden.</p><p>Störe sind zur Mitnahme generell gesperrt und müssen ebenfalls schonend wieder zurückgesetzt werden.</p><p>Aal</p><p>Schonzeit: Keine</p><p>Mindestmaß: 50 cm</p><p>Karpfen</p><p>Schonzeit: Keine</p><p>Mindestmaß: bis 3 Kilo</p><p>Rotauge, Rotfeder</p><p>Schonzeit: Keine</p><p>Mindestmaß: Keines</p><p>Schleie</p><p>Schonzeit: Keine</p><p>Mindestmaß: 25 cm</p><p>Zander</p><p>Schonzeit:15. Feb -&gt; 31. Mai</p><p>Mindestmaß: 45 cm</p><p>Brachse</p><p>Schonzeit: Keine</p><p>Mindestmaß: Keines</p><p>Güster</p><p>Schonzeit: Keine</p><p>Mindestmaß: Keines</p><p>Flußbarsch</p><p>Schonzeit: Keine</p><p>Mindestmaß: Keines</p><p>Stör (Waxdick)</p><p>Schonzeit: Keine Gesperrt zur Mitnahme</p><p>Weitere Infos auf: asv-rammelfangen.de</p><p>  \r\n</p><p><br></p>","tickets":[{"name":"Tageskarte - Normalpreis inkl. Servicegebühr","price":"12,50 EUR","ticket_type_id":3201,"price_id":95209}],"manager":{"id":1785,"name":"ASV Rammelfangen e.V.","street":"Waldstrasse 4","postal_code":"66798","city":"Wallerfangen-Rammelfangen","telephone":"0049 162 43 47 18 8","email":"hoenchristian@gmail.com","website":"","logo":"https://file.hejfish.com/image/r200x200/1e/70/1e701979c9803046fcf892df4690b4c955d8cd1b.png","slug":"asv-rammelfangen-e-v"},"season_begin":"0001-01-01","season_end":"0001-12-31","features":{"accessible":false,"public_transport":false,"boat":false,"belly_boat":false,"digital_ticket":false,"night_fishing":false,"ice_fishing":false,"depth_map":false,"has_gauges":false},"location":{"city":{"id":25447,"name":"Wallerfangen"},"district":{"id":327,"name":"Kreis Saarlouis"},"state":{"id":12,"name":"Saarland","slug":"saarland"},"country":{"id":2,"name":"Deutschland","code":"de","slug":"deutschland"}},"source_last_updated":"2026-05-07T11:42:14.423Z","error":false},"alleangeln":{"platform":"alleangeln","geocode_source":"alleangeln_json_ld","slug":"weiheranlage-in-der-kasheck","description":"Weiheranlage in der Kasheck ist ein Weiher in Saarland in der Nähe von Wallerfangen. Das Gewässer wird von unseren Mitgliedern sehr wenig befischt und als Top Gewässer bewertet.","followers":30,"catches_count":20,"images_count":4,"website":"https://asv-rammelfangen.de/","best_method":"Grundangeln","scraper_version":2,"source_last_updated":"2026-05-11T19:19:41.827Z","error":false}}},"last_updated":"2026-05-11T19:19:41.827Z"}