{"id":"hejfish-12885","source_platform":"merged","source_ids":{"hejfish":12885,"alleangeln":"obinger-see"},"name":"Obinger See","water_type":"See","country":"DE","center":{"lat":48.005699,"lng":12.412559,"source":"hejfish_api_map","confidence":"high"},"geometry":{"points":[{"lat":48.005699,"lng":12.412559},{"lat":48.005078,"lng":12.412642},{"lat":48.005055,"lng":12.41345},{"lat":48.005153,"lng":12.413848},{"lat":48.001306,"lng":12.419059},{"lat":48.001545,"lng":12.417918},{"lat":48.0018,"lng":12.414947},{"lat":48.001932,"lng":12.412417},{"lat":48.00402,"lng":12.409929},{"lat":48.004249,"lng":12.410509},{"lat":48.004437,"lng":12.410913}],"lines":[],"polygons":[],"source":"hejfish_api_map","confidence":"medium"},"links":{"source":"https://www.hejfish.com/d/12885-obinger-see","hejfish":"https://www.hejfish.com/d/12885-obinger-see","alleangeln":"https://www.alleangeln.de/gewaesser/obinger-see","website":"http://www.fischerverein-obing.de/","image":"https://file.hejfish.com/image/cc1200x900/31/c9/31c93eb534e27feb5bf032313230d104c253c84c.jpeg"},"fish":["Hecht","Karpfen","Flussbarsch","Brasse","Rotauge","Schleie","Aal","Wels","Bachforelle","Regenbogenforelle","Zander","Rotfeder","5 weitere Fischarten"],"metadata":{"merged_fields":{"center":"hejfish","fish":["hejfish","alleangeln"],"description":"hejfish","geometry":"hejfish","water_type":"hejfish"},"sources":{"hejfish":{"platform":"hejfish","geocode_source":"hejfish_api_map","slug":"obinger-see","seo_name":"Obinger See","description":"<p>Parkplätze sind auf unseren Grundstück (Seestraße 4, 83119 Obing). Am Minigolfparkplatz und gegebenenfalls in der Nebenstraße am Obinger Seebach entlang (süd-westliches Ufer). Am Seeauslauf (süd-östliches Ufer).<br></p> <p>Der Obinger See ist 33 ha gross und 14 Meter tief, Gewässerklasse 2 – euthroph. Er liegt ca. 70 km östlich von München an der B304. </p> <p>Die Plattformen und Stege auf der Seite der alten B304 (Altenmarkter Strasse) und die Stege und Plattformen neben unserem Grundstück Seestraße 4 sind die Hauptangelplätze. </p> <p>WCs und ein Getränkeautomat sind in unserem Vereinsheim verfügbar.</p> <p>Mehr auf unserer Homepage www.fischerverein-obing.de </p> <p>Boote sind beim Gasthof Oberwirt für 12 € / Tag mietbar.<br>Es sind keine eigenen Gastboote, Bellyboote oder das Verwenden von Motoren erlaubt.<br></p> <p>Hauptfischarten sind Hecht, Karpfen, Brachse, Rotauge und Barsch. </p>","borders":"<p>Es darf nur im See geangelt werden, nicht im Zufluss oder Ablauf, eine Fischruhezone ist im Ostufer mit Schildern im Wasser gekennzeichnet. <br>Am Steg des Bootshauses und auf Steganlagen in Privatbesitz, ist der Nutzung durch die Eigentümer bzw. Badegäste Vorrang einzuräumen.<br>Die Wiese um das Bootshaus ist Privatgrund. Die Durchquerungs des Grundstückes direkt am Bootshaus entlang zu den Angelplätzen ist aber erlaubt.</p>","techniques":["Ansitzangeln","Spinnangeln","Naturköderangeln","Raubfischangeln","Friedfischangeln"],"rules_text":"<h4><b>Die genauen Bestimmungen entnehmen Sie bitte der PDF-Datei im Anhang.</b></h4><h4><b>Diese sind vor dem Kauf genau durchzulesen und dann am Wasser zu befolgen!</b><br></h4>","rules_files":[{"id":1125326,"name":"obinger-see-bestimmungen","description":null,"file":"https://api.hejfish.com/files/download/b0fac8149a0af969cc50aba36b27e370f4473a43/obinger-see-bestimmungen.pdf"}],"tickets":[{"name":"Tageskarte - Normalpreis inkl. Servicegebühr","price":"27,00 EUR","ticket_type_id":2632,"price_id":94750}],"manager":{"id":1686,"name":"Fischerverein Obing e. V.","street":"Seestraße 4","postal_code":"83119","city":"Obing","telephone":"","email":"info@fischerverein-obing.de","website":"http://www.fischerverein-obing.de/","logo":"https://file.hejfish.com/image/r200x200/14/8d/148d6ef868cdbb9694f9bf7111c215cb7c2bb301.jpeg","slug":"fischerverein-obing-e-v"},"season_begin":"0001-04-02","season_end":"0001-10-31","features":{"accessible":false,"public_transport":true,"boat":true,"belly_boat":false,"digital_ticket":false,"night_fishing":false,"ice_fishing":false,"depth_map":true,"has_gauges":false},"location":{"city":{"id":31675,"name":"Obing"},"district":{"id":400,"name":"Kreis Traunstein"},"state":{"id":10,"name":"Bayern","slug":"bayern"},"country":{"id":2,"name":"Deutschland","code":"de","slug":"deutschland"}},"source_last_updated":"2026-05-07T11:41:44.165Z","error":false},"alleangeln":{"platform":"alleangeln","geocode_source":"alleangeln_json_ld","slug":"obinger-see","description":"Obinger See ist ein See in Bayern in der Nähe von Obing. Das Gewässer wird von unseren Mitgliedern sehr stark befischt und als Top Gewässer bewertet.","followers":599,"catches_count":128,"images_count":12,"website":"http://www.fischerverein-obing.de/","best_method":"Grundangeln","scraper_version":2,"source_last_updated":"2026-05-11T20:00:04.970Z","error":false}}},"last_updated":"2026-05-11T20:00:04.970Z"}