{"id":15527,"slug":"kanukarten-waldschlut-gemarkung-breisach","url":"https://www.hejfish.com/d/15527-kanukarten-waldschlut-gemarkung-breisach","name":"Kanukarten Waldschlut (Gemarkung Breisach)","seo_name":"Kanukarten Waldschlut (Gemarkung Breisach)","description":"<h4><b>Waldschlut</b></h4> <p>Die Waldschlut stammt noch aus den Zeiten, als der Rhein hier etwa 1,5 km breit und mäanderförmig ausgebildet war. Sie wird auch heute vom Rhein gespeist, ihre Wassermenge wird über den Einlauf bei Rhein-Baggerloch 3.1 reguliert. Auf ihrem Weg Richtung Norden wird dieser durchgehende Altrheinzug zusätzlich von verschiedenen Quellen und Gießen gespeist. Dies ist der Grund, warum sie - außer bei Hochwasser - relativ klar ist. Auf der ganzen Strecke bis hin zum Burkheimer Sportplatz finden Kanufahrer auf über sechs Kilometern Strecke herrliche Natur (FFH-, Landschaft- und Vogelschutzgebiet). Hier kann man erleben, warum die Waldschlut den Beinamen „Amazonas Süddeutschlands“ trägt. Unter den Wellen herrscht überall eine sehr gut intakte Flora- und Fauna. An manchen Gewässerabschnitten herrscht Strömung, an einigen nur mäßige oder fast gar keine. </p> <p>Bitte beachten Sie: Je nach Wasserstand muss man an Brücken und Durchlässen eventuell aussteigen und das Boot umsetzen. </p> <h4><b>Fahrstrecke Gemarkung Breisach:</b></h4> <p><b>Waldschlut:<br></b>Einstiegstelle Breisach 2 (Parkplatz Klärwerk) oder Einstiegsstelle Breisach 3 (Parkplatz bei Bauhof /Regierungspräsidium) bis Ausstiegstelle Breisach 4 (Waldparklatz Bauhüttenweg)</p> <p><b>Möhlin:</b><br>Ausstiegstelle Möhlinwehr in Richtung Einstiegstelle Breisach 1 und wieder retour.</p>","intro":"<p><b>Achtung: Gewässer dürfen nur von 08:00 Uhr bis 19:00 Uhr befahren werden! </b></p><p>Hier bekommen Sie die Kanukarten für das <b>Stadtgebiet Breisach & Vogtsburg. \r\n</b></p><p><u>Eine Befahrung der Waldschlut mit <b>SUPs </b>empfiehlt sich aus folgenden Gründen nicht:\r\n</u></p><ul><li>Aufgrund vieler schmaler Stellen, Brücken und anderer schmaler Durchlässe z.B. durch Baumstämme, kann das SUP im stehenden Gebrauch gefährlich sein\r\n</li><li>Manche Stellen sind je nach Wasserstand nur 30 cm tief, der Boden besteht oft aus Steinen und verschlammten Bereichen (Finne kann Schaden nehmen)\r\n</li><li>Oft liegen Äste und Bäume im Wasser, die zu Schäden am SUP führen können (Aufreißen, Finne)\r\n</li><li>Aus Rücksicht gegenüber der Unterwasserflora bzgl. der Eintauchtiefe der Paddel sollte nur im Sitzen gefahren werden\r\n</li><li>Zwischen Einstieg 4 und dem Baggersee Burkheim gibt es keine Ausstiegstelle, um das SUP bei Abbruch der Tour wieder ins KFZ zu laden\r\n</li></ul><p><br></p><p>\r\n</p><p>\r\n</p>","details":"","borders":"<h4><b>Bitte beachten Sie die Einstiegs- bzw. Ausstiegspunkte auf der interaktiven Karte, sowie auf den Karten im Anhang. </b></h4>\n\n<p><b>Fahrstrecke Waldschlut, Gemarkung Breisach:</b></p>\n\n<p>Einstiegstelle Breisach 2, Parkplatz Klärwerk, bis Ausstiegstelle Breisach 4, Parkplatz vor Brücke (über Bauhüttenweg, Mittler Krütt)\n</p>\n\n<p><b>Möhlin:<br></b>Von Ausstiegstelle Möhlinwehr in Richtung Einstiegstelle Breisach 1 und retour, da bei der ehemaligen Einstiegstelle nicht mehr geparkt werden kann.</p>","image":"https://file.hejfish.com/image/cc1200x900/79/90/79907525fb57684bf285165684077610a465148a.jpg","water_size_ha":null,"fish":[],"techniques":[],"properties":[],"water_type":"Altarm","rules_text":"","rules_files":[],"tickets":[],"ticket_types":[],"manager":{"id":2132,"name":"Stadt Breisach am Rhein - Kanukarten","street":"Münsterplatz 1","postal_code":"79206 ","city":"Breisach am Rhein","telephone":"+49 (0)7667 / 832 - 0","email":"kanu@breisach.de","website":"","logo":"https://file.hejfish.com/image/r200x200/2f/6f/2f6fb2d116eb875d140cb864cdc145eb74d6206f.png","slug":"stadt-breisach-am-rhein-kanukarten"},"season_begin":"0001-08-01","season_end":"0001-02-28","features":{"accessible":false,"public_transport":false,"boat":true,"belly_boat":false,"digital_ticket":true,"night_fishing":false,"ice_fishing":false,"depth_map":true,"has_gauges":false},"location":{"city":{"id":30100,"name":"Breisach am Rhein"},"district":{"id":386,"name":"Kreis Breisgau-Hochschwarzwald"},"state":{"id":11,"name":"Baden-Württemberg","slug":"baden-wuerttemberg"},"country":{"id":2,"name":"Deutschland","code":"de","slug":"deutschland"}},"products":[],"points_of_interest":[],"catch_reports":[],"news":[{"id":5233,"text":"<p><b>ACHTUNG!</b></p><p><b>Die Waldschlut ist derzeit aufgrund von im Wasser liegenden Bäumen nicht zur Befahrung freigegeben. \r\n</b></p><p><b>\r\n</b></p><p><b>Die Einstiegsstelle Breisach 1 ist nicht mehr mit dem Kfz anzufahren. Aus diesem Grund kann die Möhlin nur noch befahren werden, wenn man von der Ausstiegstelle Möhlinwehr in Richtung Einstiegstelle Breisach 1 die Möhlin bergan paddelt und anschließend die Strecke vom Einstieg in Richtung Ausstieg wieder zurückfährt.</b></p><p><b>Aufgrund von erhöhten Wasserständen kann es zu starken Strömungen auf der Waldschlut kommen. Bei Brücken und anderen Durchlässen muss gegebenenfalls ausgestiegen und zu Fuß umgesetzt werden. WIR BITTEN UM BEACHTUNG.</b></p><p><b>Nur Kanus, Motorboote streng verboten!</b><br></p><p><b>Nur Kanukarten, Fischereierlaubnisscheine erhalten Sie hier: <a href=\"https://www.hejfish.com/m/stadt-breisach-am-rhein-2013\" target=\"_blank\">KLICK</a></b></p><p><b>Achtung: Gewässer dürfen nur von 08:00 Uhr bis 19:00 Uhr befahren werden!&nbsp;</b></p><p><b>Achtung: Zelten und Übernachten im FFH-Gebiet ist verboten!</b></p><p><b>\r\n</b></p>","valid_from":null,"valid_till":null}],"hejfish_fee":[{"min":137,"max":297,"percent":8.9,"fisher_type":"guest"}],"lat":48.002951,"lng":7.618928,"geocode_source":"hejfish_api_map","map_data":{"id":15527,"geojson":[],"locations":[{"lat":48.002951,"lng":7.618928},{"lat":48.003087,"lng":7.618894},{"lat":48.050332,"lng":7.576483},{"lat":48.057497,"lng":7.579875},{"lat":48.063307,"lng":7.582139},{"lat":48.02019,"lng":7.596947}],"stations":[{"name":"Breisach Weinfestgelände","lat":48.033417,"lng":7.572025,"lines":null,"url":null},{"name":"Breisach Leopoldschanze","lat":48.035279,"lng":7.573543,"lines":null,"url":null},{"name":"Breisach Baumarkt","lat":48.039598,"lng":7.574217,"lines":null,"url":null},{"name":"Breisach Stadtmuseum","lat":48.033134,"lng":7.574666,"lines":null,"url":null},{"name":"Breisach Gerberstraße","lat":48.042475,"lng":7.575879,"lines":null,"url":null},{"name":"Breisach Wohnmobilstellplatz","lat":48.02983,"lng":7.575924,"lines":null,"url":null},{"name":"Breisach Isenbergstraße","lat":48.037087,"lng":7.576337,"lines":null,"url":null},{"name":"Breisach Goldengasse/Burg","lat":48.032293,"lng":7.577209,"lines":null,"url":null},{"name":"Breisach Blaues Haus","lat":48.033867,"lng":7.578556,"lines":null,"url":null},{"name":"Breisach Münster/Rathaus","lat":48.029836,"lng":7.578996,"lines":null,"url":null},{"name":"Breisach Kupfertor","lat":48.034156,"lng":7.579185,"lines":null,"url":null},{"name":"Breisach Kupfertorplatz","lat":48.033363,"lng":7.580011,"lines":null,"url":null},{"name":"Breisach Burkheimer Straße","lat":48.042901,"lng":7.580191,"lines":null,"url":null},{"name":"Breisach Feuerwehr","lat":48.038348,"lng":7.580793,"lines":null,"url":null},{"name":"Breisach, Montessori-Schule","lat":48.034732,"lng":7.580964,"lines":null,"url":null},{"name":"Breisach Josef-Schmidlin-Str.","lat":48.030647,"lng":7.581251,"lines":null,"url":null},{"name":"Breisach Endinger Straße","lat":48.040799,"lng":7.581251,"lines":null,"url":null},{"name":"Breisach Stadtbücherei (Gymn)","lat":48.026941,"lng":7.581485,"lines":null,"url":null},{"name":"Breisach Marktplatz","lat":48.028112,"lng":7.581709,"lines":null,"url":null},{"name":"Breisach Kupfertorstr.","lat":48.032197,"lng":7.581718,"lines":null,"url":null},{"name":"Breisach Europaplatz","lat":48.037928,"lng":7.582059,"lines":null,"url":null},{"name":"Breisach Kindergarten","lat":48.042463,"lng":7.582149,"lines":null,"url":null},{"name":"Breisach Seniorenpflegeheim","lat":48.033231,"lng":7.582239,"lines":null,"url":null},{"name":"Breisach Gutgesellentorplatz","lat":48.029722,"lng":7.583164,"lines":null,"url":null},{"name":"Breisach Rebgarten","lat":48.034324,"lng":7.583425,"lines":null,"url":null},{"name":"Breisach Engel-Lichtspiele","lat":48.02792,"lng":7.584171,"lines":null,"url":null},{"name":"Breisach Vogtsburger Straße","lat":48.040469,"lng":7.584548,"lines":null,"url":null},{"name":"Breisach Neutorplatz","lat":48.02771,"lng":7.584692,"lines":null,"url":null},{"name":"Breisach Richard-Müller-Str.","lat":48.028695,"lng":7.584871,"lines":null,"url":null},{"name":"Breisach Neubreisacher Straße","lat":48.043297,"lng":7.584889,"lines":null,"url":null},{"name":"Breisach Krankenhaus","lat":48.031657,"lng":7.585329,"lines":null,"url":null},{"name":"Breisach Vogesenstraße","lat":48.037093,"lng":7.585689,"lines":null,"url":null},{"name":"Breisach Helios-Rossm.-Klinik","lat":48.03096,"lng":7.585716,"lines":null,"url":null},{"name":"Breisach Kaiserstuhlstr.","lat":48.039604,"lng":7.585913,"lines":null,"url":null},{"name":"Breisach Rempartstr.","lat":48.027464,"lng":7.586416,"lines":null,"url":null},{"name":"Breisach Hohenzollernstr.","lat":48.035483,"lng":7.586416,"lines":null,"url":null},{"name":"Breisach Christmannsweg","lat":48.041369,"lng":7.587288,"lines":null,"url":null},{"name":"Breisach Rosmannstraße","lat":48.029722,"lng":7.587575,"lines":null,"url":null},{"name":"Breisach Neuenburger Straße","lat":48.038943,"lng":7.588402,"lines":null,"url":null},{"name":"Breisach Bahnhof","lat":48.027007,"lng":7.589614,"lines":null,"url":null},{"name":"Breisach Grüngärtenweg","lat":48.033393,"lng":7.589704,"lines":null,"url":null},{"name":"Breisach Breisgaustraße","lat":48.035585,"lng":7.590342,"lines":null,"url":null},{"name":"Breisach Realschule","lat":48.035561,"lng":7.590351,"lines":null,"url":null},{"name":"Breisach Sozialstation","lat":48.036859,"lng":7.590477,"lines":null,"url":null},{"name":"Breisach Lidl","lat":48.032378,"lng":7.590558,"lines":null,"url":null},{"name":"Breisach, Breisgauhalle","lat":48.035651,"lng":7.59124,"lines":null,"url":null},{"name":"Breisach Kandelstraße","lat":48.031416,"lng":7.591456,"lines":null,"url":null},{"name":"Breisach BadenCampus","lat":48.029578,"lng":7.593217,"lines":null,"url":null},{"name":"Breisach Bad. Winzerkeller","lat":48.035369,"lng":7.601113,"lines":null,"url":null},{"name":"Hochstetten, Hochstetterstraße","lat":48.021323,"lng":7.606853,"lines":null,"url":null},{"name":"Achkarren Bahnhof","lat":48.059715,"lng":7.607994,"lines":null,"url":null},{"name":"Hochstetten, Adler","lat":48.018896,"lng":7.610545,"lines":null,"url":null},{"name":"Achkarren WG","lat":48.066037,"lng":7.620543,"lines":null,"url":null},{"name":"Achkarren Weinbaumuseum","lat":48.068072,"lng":7.62508,"lines":null,"url":null}],"gauges":[],"depth_map":null},"extractor_schema_version":2,"last_updated":"2026-05-07T11:46:45.881Z","error":false,"source_platform":"merged","global_id":"hejfish-15527","external_ids":{"hejfish":[15527,15477]}}