{"id":"hejfish-14118","source_platform":"merged","source_ids":{"hejfish":14118,"alleangeln":"simmergraben"},"name":"Simmergraben bei Gudow","water_type":"Bach","country":"DE","center":{"lat":53.290754,"lng":11.010731,"source":"hejfish_api_map_geojson","confidence":"high"},"geometry":{"points":[{"lat":53.291276,"lng":11.011207},{"lat":53.290618,"lng":11.012721},{"lat":53.2914,"lng":11.0112}],"lines":[[{"lat":53.289832,"lng":11.013586},{"lat":53.289964,"lng":11.013403},{"lat":53.290526,"lng":11.012944},{"lat":53.29063,"lng":11.012836},{"lat":53.290727,"lng":11.012678},{"lat":53.290812,"lng":11.012465},{"lat":53.29127,"lng":11.011247},{"lat":53.291382,"lng":11.010932},{"lat":53.291489,"lng":11.010583},{"lat":53.291509,"lng":11.010438},{"lat":53.291546,"lng":11.010067},{"lat":53.29159,"lng":11.009345},{"lat":53.29161,"lng":11.009013},{"lat":53.291633,"lng":11.008478},{"lat":53.291657,"lng":11.008095},{"lat":53.291676,"lng":11.007876}]],"polygons":[],"source":"hejfish_api_map_geojson","confidence":"high"},"links":{"source":"https://www.hejfish.com/d/14118-simmergraben-bei-gudow","hejfish":"https://www.hejfish.com/d/14118-simmergraben-bei-gudow","alleangeln":"https://www.alleangeln.de/gewaesser/simmergraben","image":null},"fish":["Hecht","Flussbarsch","Rotauge","Aal","Güster","Döbel"],"metadata":{"merged_fields":{"center":"hejfish","fish":["hejfish","alleangeln"],"description":"alleangeln","geometry":"hejfish","water_type":"hejfish"},"sources":{"hejfish":{"platform":"hejfish","geocode_source":"hejfish_api_map_geojson","slug":"simmergraben-bei-gudow","seo_name":"Simmergraben bei Gudow","techniques":["Spinnangeln","Fliegenfischen","Ansitzangeln","Feedern","Stippangeln","Posenangeln","Oberflächenangeln","Raubfischangeln","Friedfischangeln","Karpfenangeln"],"rules_files":[{"id":293099,"name":"satellitenbild","description":null,"file":"https://api.hejfish.com/files/download/5b131320171ea12645cd02bdf948598f31c766d0/satellitenbild.pdf"},{"id":884564,"name":"Gewaesserordnung 01.01.2023","description":null,"file":"https://api.hejfish.com/files/download/d4cbab17110d09a2062535e73af3194f406fe45b/Gewaesserordnung%2001.01.2023.pdf"}],"tickets":[{"name":"Tageskarte - Erwachsene","price":"16,00 EUR","ticket_type_id":6502,"price_id":100699},{"name":"Tageskarte - Jugend","price":"4,00 EUR","ticket_type_id":6502,"price_id":100700},{"name":"2-Tageskarte - Erwachsene","price":"32,00 EUR","ticket_type_id":6503,"price_id":100701},{"name":"2-Tageskarte - Jugend","price":"8,00 EUR","ticket_type_id":6503,"price_id":100702},{"name":"Wochenkarte - Erwachsene","price":"92,00 EUR","ticket_type_id":6504,"price_id":100703},{"name":"Wochenkarte - Jugend","price":"20,00 EUR","ticket_type_id":6504,"price_id":100704},{"name":"Monatskarte - Erwachsene","price":"172,00 EUR","ticket_type_id":6505,"price_id":100705}],"manager":{"id":1834,"name":"Landesanglerverband Mecklenburg-Vorpommern e.V.","street":"OT Görslow, Siedlung 18a","postal_code":"19067","city":"Leezen","telephone":"","email":"","website":"https://www.lav-mv.de/","logo":"https://file.hejfish.com/image/r200x200/37/cb/37cb2792d40e6c06eadde2bd767e4c1c68624403.png","slug":"landesanglerverband-mecklenburg-vorpommern-e-v"},"season_begin":"0001-01-01","season_end":"0001-12-31","features":{"accessible":false,"public_transport":true,"boat":true,"belly_boat":true,"digital_ticket":true,"night_fishing":true,"ice_fishing":false,"depth_map":false,"has_gauges":false},"location":{"city":{"id":8995,"name":"Lübtheen"},"district":{"id":150,"name":"Kreis Ludwigslust-Parchim"},"state":{"id":20,"name":"Mecklenburg-Vorpommern","slug":"mecklenburg-vorpommern"},"country":{"id":2,"name":"Deutschland","code":"de","slug":"deutschland"}},"source_last_updated":"2026-05-07T11:43:57.283Z","error":false},"alleangeln":{"platform":"alleangeln","geocode_source":"alleangeln_json_ld","slug":"simmergraben","description":"Simmergraben ist ein Graben in Mecklenburg-Vorpommern in der Nähe von Lübtheen. Das Gewässer wird von unseren Mitgliedern relativ wenig befischt und als Top Angelreview bewertet.","followers":25,"catches_count":12,"images_count":0,"best_method":"Posenfischen","source_last_updated":"2026-05-07T10:45:50.929Z","error":false}}},"last_updated":"2026-05-07T11:43:57.283Z"}