{"id":"hejfish-13341","source_platform":"merged","source_ids":{"hejfish":13341,"alleangeln":"waldsee-hilsbach"},"name":"Waldsee Hilsbach","water_type":"See","country":"DE","center":{"lat":49.200404,"lng":8.845628,"source":"hejfish_api_map_geojson","confidence":"high"},"geometry":{"points":[{"lat":49.200448,"lng":8.846759}],"lines":[],"polygons":[[{"lat":49.20046,"lng":8.845386},{"lat":49.200416,"lng":8.845088},{"lat":49.200276,"lng":8.844909},{"lat":49.200099,"lng":8.845016},{"lat":49.200178,"lng":8.845483}],[{"lat":49.200709,"lng":8.846245},{"lat":49.200626,"lng":8.845939},{"lat":49.200484,"lng":8.845721},{"lat":49.200342,"lng":8.845697},{"lat":49.200523,"lng":8.846346}]],"source":"hejfish_api_map_geojson","confidence":"high"},"links":{"source":"https://www.hejfish.com/d/13341-waldsee-hilsbach","hejfish":"https://www.hejfish.com/d/13341-waldsee-hilsbach","alleangeln":"https://www.alleangeln.de/gewaesser/waldsee-hilsbach","website":"http://www.asv-elsenztal.de/waldsee","image":"https://file.hejfish.com/image/cc1200x900/a2/24/a224cee892a896ea0fe52bcd705c314cb385cb72.jpeg"},"fish":["Karpfen","Schleie","Hecht","Zander","Rotauge","Rotfeder","Aal","Flussbarsch","Brasse","Giebel","Karausche","Schuppenkarpfen","Spiegelkarpfen","Amur","Brachse","Graskarpfen"],"metadata":{"merged_fields":{"center":"hejfish","fish":["hejfish","alleangeln"],"description":"hejfish","geometry":"hejfish","water_type":"hejfish"},"sources":{"hejfish":{"platform":"hejfish","geocode_source":"hejfish_api_map_geojson","slug":"waldsee-hilsbach","seo_name":"Waldsee Hilsbach","description":"<p>Der Waldsee Hilsbach liegt im gleichnamigen Ortsteil (Sinsheim – Hilsbach). Er besteht aus zwei getrennten Seen. Der vordere Hauptsee darf befischt werden. Im dahinterliegende Biotop ist das fischen und betreten verboten dies gilt ebenso für den Flachwasserbereich im Hauptsee (Siehe Karte). Der See hat eine Fläche von ca. 0.7 Hektar.</p>","borders":"<p>Ufer, außer Schon- und Naturschutzgebiete!</p>","techniques":["Ansitzangeln","Feedern","Posenangeln","Spinnangeln"],"rules_text":"<p><b>Bestimmungen siehe Anhang!</b></p><p><b>Entnahme: </b><br>Maximal 3 Edelfischen (Zander, Aal, Karpfen, Hecht, Schleie) pro Tag erlaubt!</p><p><b>Schonzeiten und Mindestmaße:</b><br>Bachforelle:             01.10. - 28.02.    / 28cm<br>Regenbogenforelle: 01.01. - 28.02.    / kein Schonmaß<br>Seeforelle:               01.10. - 28.02.    / 50cm<br>Bachsaibling:           01.10. - 28.02.    / kein Schonmaß<br>Aal:                          Keine Schonzeit / 50cm<br>Hecht:                      15.02. - 15.05.    / 50cm<br>Zander:                    01.04. - 15.05.    / 60cm<br>Karpfen:                   Keine Schonzeit / 40cm<br>Schleie:                    15.05. - 30.06.    / 30cm<br>Barsch:                     01.05. - 15.06    / kein Schonmaß<br>Döbel, Rotauge, Rotfeder, Wels: Keine Schonzeit, keine Schonmaße.</p><p>Bestimmungen gelesen und akzeptiert: </p><p><br></p><p><br></p><p>_______________________________</p><p>Datum und Unterschrift</p><p><b>Dieser Fischereierlaubnisschein ist ohne Unterschrift ungültig! </b></p><p><br></p>","rules_files":[{"id":269999,"name":"waldsee-hilsbach-bestimmungen","description":null,"file":"https://api.hejfish.com/files/download/29b89f84948a8284680eb82ac314e5e3579b4c97/waldsee-hilsbach-bestimmungen.pdf"}],"tickets":[{"name":"Tageskarte - Normalpreis inkl.Servicegebühr","price":"18,00 EUR","ticket_type_id":3453,"price_id":95514}],"manager":{"id":1818,"name":"ASV Elsenztal Steinsfurt 1968 e.V.","street":"Röhrigstraße 37","postal_code":"74889 ","city":"Sinsheim-Steinsfurt","telephone":"","email":"denis.teich@asv-elsenztal.de","website":"https://www.asv-elsenztal.de/","logo":"https://file.hejfish.com/image/r200x200/f4/21/f421fbf1c4a3041aa2931b76c0aebacb28c78897.jpeg","slug":"asv-elsenztal-steinsfurt-1968-e-v"},"season_begin":"0001-01-01","season_end":"0001-12-31","features":{"accessible":false,"public_transport":false,"boat":false,"belly_boat":false,"digital_ticket":false,"night_fishing":false,"ice_fishing":false,"depth_map":false,"has_gauges":false},"location":{"city":{"id":26733,"name":"Sinsheim"},"district":{"id":349,"name":"Rhein-Neckar-Kreis"},"state":{"id":11,"name":"Baden-Württemberg","slug":"baden-wuerttemberg"},"country":{"id":2,"name":"Deutschland","code":"de","slug":"deutschland"}},"source_last_updated":"2026-05-07T11:42:31.271Z","error":false},"alleangeln":{"platform":"alleangeln","geocode_source":"alleangeln_json_ld","slug":"waldsee-hilsbach","description":"Waldsee Hilsbach ist ein See in Baden-Württemberg in der Nähe von Sinsheim. Das Gewässer wird von unseren Mitgliedern relativ wenig befischt und als durchschnittliches Angelreview bewertet.","followers":92,"catches_count":16,"images_count":7,"website":"http://www.asv-elsenztal.de/waldsee","best_method":"Grundangeln","scraper_version":2,"source_last_updated":"2026-05-11T19:12:54.392Z","error":false}}},"last_updated":"2026-05-11T19:12:54.392Z"}