{"id":"hejfish-15447","source_platform":"merged","source_ids":{"hejfish":15447,"alleangeln":"neutraublinger-see"},"name":"Neutraublinger See","water_type":"See","country":"DE","center":{"lat":48.991995,"lng":12.193738,"source":"hejfish_api_map_geojson","confidence":"high"},"geometry":{"points":[{"lat":48.991194,"lng":12.193833}],"lines":[],"polygons":[[{"lat":48.992174,"lng":12.194086},{"lat":48.992176,"lng":12.194059},{"lat":48.99217,"lng":12.193889},{"lat":48.992155,"lng":12.19379},{"lat":48.992125,"lng":12.193707},{"lat":48.992084,"lng":12.193628},{"lat":48.991814,"lng":12.19339},{"lat":48.991861,"lng":12.19368},{"lat":48.991869,"lng":12.19366},{"lat":48.991967,"lng":12.193673},{"lat":48.992017,"lng":12.193718},{"lat":48.992057,"lng":12.193781},{"lat":48.992078,"lng":12.193871},{"lat":48.992079,"lng":12.193953},{"lat":48.99207,"lng":12.194005}]],"source":"hejfish_api_map_geojson","confidence":"high"},"links":{"source":"https://www.hejfish.com/d/15447-neutraublinger-see","hejfish":"https://www.hejfish.com/d/15447-neutraublinger-see","alleangeln":"https://www.alleangeln.de/gewaesser/neutraublinger-see","website":"https://anglerverein-neutraubling.de/","image":"https://file.hejfish.com/image/cc1200x900/2c/9f/2c9fd6650a2ef11c7c05d7f0632bc779a4fea6c3.jpg"},"fish":["Aal","Brasse","Flussbarsch","Hecht","Karpfen","Laube","Rotauge","Rotfeder","Schleie","Wels","Amur","Graskarpfen"],"metadata":{"merged_fields":{"center":"hejfish","fish":["hejfish","alleangeln"],"description":"hejfish","geometry":"hejfish","water_type":"hejfish"},"sources":{"hejfish":{"platform":"hejfish","geocode_source":"hejfish_api_map_geojson","slug":"neutraublinger-see","seo_name":"Neutraublinger See","description":"<h4>Der Neutraublinger See </h4><p>ist ein ca. 1,8 ha großer Baggersee inmitten der Stadt Neutraubling. </p><p>Ein teils kiesiger Untergund, Tiefen bis zu 7m und klares Wasser zeichnen dieses Gewässer aus. Die Ufer sind kaum zugewachsen und teilweise über Holzstege zu erreichen. Öffentliche Parkmöglichkeiten gibt es in der Teichstraße. </p><p>Für die Friedfischangler bietet der See einen guten Bestand an Karpfen und Weißfischen. Raubfischangler kommen mit Hecht, Zander und Wels ebenfalls auf ihre Kosten.</p>","details":"<h4>Der Neutraublinger See </h4><p>ist ein ca. 1,8 ha großer Baggersee inmitten der Stadt Neutraubling.  \r\n</p><p>Ein teils kiesiger Untergund, Tiefen bis zu 7m und klares Wasser zeichnen dieses Gewässer aus. Die Ufer sind kaum zugewachsen und teilweise über Holzstege zu erreichen. Öffentliche Parkmöglichkeiten gibt es in der Teichstraße. \r\n</p><p>Für die Friedfischangler bietet der See einen guten Bestand an Karpfen und Weißfischen. Raubfischangler kommen mit Hecht, Zander und Wels ebenfalls auf ihre Kosten.</p>","borders":"<p>Das Angeln in der Laichzone (Inselbrücke bis zum Wasserwachtsheim) ist verboten!</p>","techniques":["Ansitzangeln","Friedfischangeln","Posenangeln","Raubfischangeln","Spinnangeln"],"rules_text":"<h4><b>Fischereiliche Bestimmungen:</b></h4><h5><b><br></b></h5><ul><li>Das Angeln darf vom Inhaber mit zwei Ruten ausgeübt werden, davon eine mit Raubfischmontage. Die zweite Rute muss in greifbarer Nähe sein.</li><li>Das Angeln bzw. das Auslegen von Montagen von einem Kahn, der Betonmauer sowie Inselbrücke herab ist verboten.</li><li>Das Angeln in der Laichzone (5 m vor Inselbrücke bis zum Wasserwachtsheim) ist verboten.</li><li>Die Fangerlaubnis für die Arten Graskarpfen, Karpfen, Schleie, Regenbogenforelle, Hecht und Zander ist begrenzt auf insgesamt:</li><ul><li>2 Fische / Tag, davon 1 Raubfisch oder Graskarpfen pro Tag.</li></ul><li><b>Mindestmaße und Schonzeiten:</b><br></li>\r\n<style type=\"text/css\">\r\n\ttable.tableizer-table {\r\n\t\tfont-size: 9px;\r\n\t\tborder: 1px solid #000; \r\n\t\tfont-family: Arial, Helvetica, sans-serif;\r\n\t} \r\n\t.tableizer-table td {\r\n\t\tpadding: 1px;\r\n\t\tmargin: 1px;\r\n\t\tborder: 1px solid #000;\r\n\t}\r\n\t.tableizer-table th {\r\n\t\tbackground-color: #00C1D6; \r\n\t\tcolor: #000;\r\n\t\tfont-weight: bold;\r\n\t}\r\n</style>\r\n<table class=\"tableizer-table\">\r\n<thead><tr class=\"tableizer-firstrow\"><th>Fischart</th><th>Mindestmaß</th><th>Schonzeit</th></tr></thead><tbody>\r\n <tr><td>Aal</td><td>50 cm</td><td>keine</td></tr>\r\n <tr><td>Hecht</td><td>50 cm</td><td>15.02. - 14.05.</td></tr>\r\n <tr><td>Karpfen</td><td>40 cm</td><td>keine</td></tr>\r\n <tr><td>Schleie</td><td>30 cm</td><td>01.05. - 30.06.</td></tr>\r\n <tr><td>Regenbogenforelle</td><td>30 cm</td><td>15.12. - 15.03.</td></tr>\r\n <tr><td>Zander</td><td>50 cm</td><td>15.02. - 14.05.</td></tr>\r\n</tbody></table>\r\nWährend der Hecht-/Zanderschonzeit sind jegliche Art von Kunstködern verboten.<li>Der Angelplatz ist sauber zu verlassen!</li><li>Fangmeldungen sind direkt nach dem Fang online abzugeben. Auch Leermeldungen sind abzugeben. Bei Nichtabgabe (auch bei keinem Fangerfolg), wird künftig kein Erlaubnisschein mehr ausgegeben.</li><li>Diese nicht übertragbare Karte ist beim Angeln mitzuführen und bei Kontrolle vorzuzeigen.</li><li>Der Verkauf von Fischen oder diesbezügliche Tauschgeschäfte sind untersagt.</li><li>Verstöße gegen diese Bestimmungen werden gemäß Satzung und Vereinsordnung geahndet.</li></ul><p><br></p><p>\r\n</p>","tickets":[{"name":"Tageskarte - Normalpreis inkl. Servicegebühr","price":"18,00 EUR","ticket_type_id":8558,"price_id":102864}],"manager":{"id":2122,"name":"Anglerverein Neutraubling e.V.","street":"Straßackerweg 54","postal_code":"93073","city":"Neutraubling","telephone":"+49 (0) 160 93745525","email":"info@anglerverein-neutraubling.de","website":"https://anglerverein-neutraubling.de/","logo":"https://file.hejfish.com/image/r200x200/48/ef/48ef1c85d392063d694f0679c5c11119712125b0.png","slug":"anglerverein-neutraubling-e-v"},"season_begin":"0001-01-01","season_end":"0001-12-31","features":{"accessible":false,"public_transport":true,"boat":false,"belly_boat":false,"digital_ticket":false,"night_fishing":true,"ice_fishing":false,"depth_map":true,"has_gauges":false},"location":{"city":{"id":34853,"name":"Regensburg"},"district":{"id":458,"name":"Regensburg"},"state":{"id":10,"name":"Bayern","slug":"bayern"},"country":{"id":2,"name":"Deutschland","code":"de","slug":"deutschland"}},"source_last_updated":"2026-05-07T11:45:45.738Z","error":false},"alleangeln":{"platform":"alleangeln","geocode_source":"alleangeln_json_ld","slug":"neutraublinger-see","description":"Neutraublinger See ist ein See in Bayern in der Nähe von Neutraubling. Das Gewässer wird von unseren Mitgliedern relativ stark befischt und als Top Gewässer bewertet.","followers":51,"catches_count":26,"images_count":3,"website":"https://anglerverein-neutraubling.de/","best_method":"Grundangeln","scraper_version":2,"source_last_updated":"2026-05-11T19:27:21.908Z","error":false}}},"last_updated":"2026-05-11T19:27:21.908Z"}