{"id":15655,"slug":"waldmannsweiher","url":"https://www.hejfish.com/d/15655-waldmannsweiher","name":"Waldmannsweiher","seo_name":"Waldmannsweiher","description":"<p>Gewässer in Fürth</p>","intro":"","details":"","borders":"<p>Gewässer-Grenzen: Ufer!</p>","image":"https://file.hejfish.com/image/cc1200x900/31/f0/31f016ef95b455f4b117921d29943d0dbb6a5970.jpg","water_size_ha":null,"fish":["Karpfen","Schleie","Hecht","Rotfeder","Rotauge"],"techniques":["Ansitzangeln","Friedfischangeln","Naturköderangeln","Posenangeln","Raubfischangeln","Spinnangeln"],"properties":[],"water_type":"Teich (Weiher)","rules_text":"<p>Bestimmungen Gewässer FV Fürth</p><p><br></p><p>1) Zur Ausübung der Fischerei muss ein gültiger staatlicher Fischereischein und eine Erlaubniskarte mitgeführt werden. Nachtangelverbot von 00:00 bis 05:00 Uhr!</p><p><br></p><p>2) Verboten ist das Auslegen von Grundschnüren, Reusen und das Fischen mit sog. Paternosterangeln, Senk- und sonstigen Netzen sowie das unbeaufsichtigte Liegenlassen von Handangeln. Zum Fang von Köderfischen und Krebsen sind Senknetze von max. 100 x 100 cm oder Krebsteller gestattet. Entnommen werden dürfen damit nur Weißfische und Krebse. Bei Benutzung des Senknetzes muss 1 Angel aus dem Wasser genommen werden. Auf die gesetzlichen Schonmaße und Schonzeiten ist zu achten.</p><p><br></p><p>3) vom 2. November mit 30. November das Angeln auf Friedfische untersagt, außer auf Köderfische mit Hakengröße 14-16.</p><p><br></p><p>4) Die Benutzung eines kleinen Gasgrills ist an allen Gewässern gestattet, Holzkohle ist immer verboten, ausser auf den bestehenden, gemauerten Grills an Waldsee und Rodler-See. Offenes Feuer aller Art ist überall verboten!</p><p><br></p><p>5) Gefangene Fische und Krebse dienen aus- schließlich dem eigenen Verzehr. Jeder Verkauf und Tausch und Weitergabe von Fischen ist verboten. Fische dürfen nicht lebend transportiert werden.</p><p><br></p><p>6) Der Verein setzt Wasserwarte ein. Diese haben das Recht und die Pflicht, jeden am Wasser befindlichen zu kontrollieren. Unsere staatlich geprüften Fischereiaufseher haben das Recht, auf Verlangen Fischbehältnisse und Fahrzeuge einzusehen. Ihren Anweisungen ist unweigerlich Folge zu leisten, Diskussionen mit den Wasserwarten sind zu unterlassen.</p><p><br></p><p>7) Der Fisch ist waidgerecht abzuschlagen und zu töten. Das Ausnehmen und Abschuppen am Fischwasser ist nicht gestattet.</p><p><br></p><p>8) Jegliches Live-Streamen und posten von Inhalten auf diversen Social Media Plattformen, das Fische, Fischfänge oder Themen die die Angelei betreffen, sind streng untersagt!</p><p><br></p><p>9) Mitgebrachte Köderfische dürfen an keinem Gewässer ausgesetzt werden. Ordnungsgemäß gefangene Fische können nach dem Töten und dem Eintrag in das Fangbuch auch als Köder verwendet werden.</p><p><br></p><p>10) Anfüttern ist nur in kleinen Mengen während des Angelns erlaubt. Anfüttern mit Tiernahrung (Hunde- oder Katzenfutter) ist verboten.</p><p><br></p><p>11) Das Baden in den Gewässern ist untersagt.</p><p><br></p><p>12 ) Fangbeschränkungen | Schonmaß | Schonzeit</p><p><br></p><p>1 Stück: Aal, Mindestmaß 50cm, Schonzeit 1. Nov. mit 31. Dezember</p><p><br></p><p>2 Stück: Bachforellen, Mindestmaß 28 cm, Schonzeit 01.Oktober mit 15. März</p><p><br></p><p>2 Stück: Karpfen, Mindestmaß 35 cm, Schonzeit keine</p><p><br></p><p>2 Stück: Schleien, Mindestmaß 28 cm, Schonzeit 01.Mai mit 30. Juni</p><p><br></p><p>1 Stück: Hecht oder Zander, Mindestmaß Hecht 60 cm, Zander 50 cm, Schonzeit 15. Februar mit 30. April</p><p><br></p><p>Alle Waller ohne Mindestmaß und Schonzeit</p><p><br></p><p>5 Stück: Weißfische, Mindestmaß und Schonzeit entsprechen der Art</p><p><br></p><p>13) Für jedes Gewässer sind 2 Handangeln auf Friedfisch oder 1 Handangel auf Raubfisch erlaubt</p><p>\r\n</p><p>\r\n</p>","rules_files":[],"tickets":[{"name":"Tageskarte - Normalpreis inkl. Servicegebühr","price":"23,00 EUR","ticket_type_id":9215,"price_id":103170}],"ticket_types":[{"id":9215,"name":"Tageskarte","category":"DAY","duration":1,"prices":[{"id":103170,"name":"Normalpreis inkl. Servicegebühr","value":"23,00 EUR","cents":2300,"type":"DEFAULT","valid_from":"2026-01-01","valid_to":"2026-12-31","available_from":"2025-12-31","age":0,"eligible":true}],"licenses":{"required":["Fischereischein / Jugendfischereischein Deutschland"],"optional":[]},"rules_text":"<p>Bestimmungen Gewässer FV Fürth</p><p><br></p><p>1) Zur Ausübung der Fischerei muss ein gültiger staatlicher Fischereischein und eine Erlaubniskarte mitgeführt werden. Nachtangelverbot von 00:00 bis 05:00 Uhr!</p><p><br></p><p>2) Verboten ist das Auslegen von Grundschnüren, Reusen und das Fischen mit sog. Paternosterangeln, Senk- und sonstigen Netzen sowie das unbeaufsichtigte Liegenlassen von Handangeln. Zum Fang von Köderfischen und Krebsen sind Senknetze von max. 100 x 100 cm oder Krebsteller gestattet. Entnommen werden dürfen damit nur Weißfische und Krebse. Bei Benutzung des Senknetzes muss 1 Angel aus dem Wasser genommen werden. Auf die gesetzlichen Schonmaße und Schonzeiten ist zu achten.</p><p><br></p><p>3) vom 2. November mit 30. November das Angeln auf Friedfische untersagt, außer auf Köderfische mit Hakengröße 14-16.</p><p><br></p><p>4) Die Benutzung eines kleinen Gasgrills ist an allen Gewässern gestattet, Holzkohle ist immer verboten, ausser auf den bestehenden, gemauerten Grills an Waldsee und Rodler-See. Offenes Feuer aller Art ist überall verboten!</p><p><br></p><p>5) Gefangene Fische und Krebse dienen aus- schließlich dem eigenen Verzehr. Jeder Verkauf und Tausch und Weitergabe von Fischen ist verboten. Fische dürfen nicht lebend transportiert werden.</p><p><br></p><p>6) Der Verein setzt Wasserwarte ein. Diese haben das Recht und die Pflicht, jeden am Wasser befindlichen zu kontrollieren. Unsere staatlich geprüften Fischereiaufseher haben das Recht, auf Verlangen Fischbehältnisse und Fahrzeuge einzusehen. Ihren Anweisungen ist unweigerlich Folge zu leisten, Diskussionen mit den Wasserwarten sind zu unterlassen.</p><p><br></p><p>7) Der Fisch ist waidgerecht abzuschlagen und zu töten. Das Ausnehmen und Abschuppen am Fischwasser ist nicht gestattet.</p><p><br></p><p>8) Jegliches Live-Streamen und posten von Inhalten auf diversen Social Media Plattformen, das Fische, Fischfänge oder Themen die die Angelei betreffen, sind streng untersagt!</p><p><br></p><p>9) Mitgebrachte Köderfische dürfen an keinem Gewässer ausgesetzt werden. Ordnungsgemäß gefangene Fische können nach dem Töten und dem Eintrag in das Fangbuch auch als Köder verwendet werden.</p><p><br></p><p>10) Anfüttern ist nur in kleinen Mengen während des Angelns erlaubt. Anfüttern mit Tiernahrung (Hunde- oder Katzenfutter) ist verboten.</p><p><br></p><p>11) Das Baden in den Gewässern ist untersagt.</p><p><br></p><p>12 ) Fangbeschränkungen | Schonmaß | Schonzeit</p><p><br></p><p>1 Stück: Aal, Mindestmaß 50cm, Schonzeit 1. Nov. mit 31. Dezember</p><p><br></p><p>2 Stück: Bachforellen, Mindestmaß 28 cm, Schonzeit 01.Oktober mit 15. März</p><p><br></p><p>2 Stück: Karpfen, Mindestmaß 35 cm, Schonzeit keine</p><p><br></p><p>2 Stück: Schleien, Mindestmaß 28 cm, Schonzeit 01.Mai mit 30. Juni</p><p><br></p><p>1 Stück: Hecht oder Zander, Mindestmaß Hecht 60 cm, Zander 50 cm, Schonzeit 15. Februar mit 30. April</p><p><br></p><p>Alle Waller ohne Mindestmaß und Schonzeit</p><p><br></p><p>5 Stück: Weißfische, Mindestmaß und Schonzeit entsprechen der Art</p><p><br></p><p>13) Für jedes Gewässer sind 2 Handangeln auf Friedfisch oder 1 Handangel auf Raubfisch erlaubt</p><p>\r\n</p><p>\r\n</p>","rules_files":[],"additional_areas":[],"catch_report_required":true}],"manager":{"id":2196,"name":"Fischereiverein Fürth e.V.","street":"Amtsgasse 2","postal_code":"90768","city":"Fürth","telephone":"","email":"anfrage@fischereiverein-fuerth.de","website":"https://fischereiverein-fuerth.de/","logo":"https://file.hejfish.com/image/r200x200/1e/f4/1ef4fc491aeca520c2b152041fb76ac857154e5a.jpg","slug":"fischereiverein-fuerth-e-v"},"season_begin":"0001-01-01","season_end":"0001-12-31","features":{"accessible":false,"public_transport":true,"boat":false,"belly_boat":false,"digital_ticket":true,"night_fishing":false,"ice_fishing":false,"depth_map":true,"has_gauges":false},"location":{"city":{"id":34265,"name":"Fürth"},"district":{"id":445,"name":"Fürth"},"state":{"id":10,"name":"Bayern","slug":"bayern"},"country":{"id":2,"name":"Deutschland","code":"de","slug":"deutschland"}},"products":[{"id":1887,"name":"Statistikdaten in Rohformat (Excel) – Waldmannsweiher","caption":"","description":"<p>Mithilfe dieser Statistikdaten wollen wir dir zu deinem Fang verhelfen. In diesem Excel-Download findest du die anonymisierten Rohdaten zum jeweiligen Gewässer aus unserer Fangdatenbank.</p>","image":"https://file.hejfish.com/image/cc800x600/bd/85/bd8572e8d4e2c38eba0a2ce880a00196ceda2fd0.jpg","category":{"id":10,"name":"Fangstatistiken (Rohdaten)"},"price":null,"guest_ticket":null,"show_in_shop":false,"show_on_area_detail_page":true,"show_in_basket":false}],"points_of_interest":[],"catch_reports":[],"news":[{"id":6883,"text":"<p>Nachtangelverbot von 00:00 bis 05:00 Uhr!</p>","valid_from":null,"valid_till":null}],"hejfish_fee":[{"min":137,"max":297,"percent":8.9,"fisher_type":"guest"}],"lat":49.475109,"lng":10.979643,"geocode_source":"hejfish_api_map","map_data":{"id":15655,"geojson":[],"locations":[{"lat":49.475109,"lng":10.979643}],"stations":[{"name":"Fürth, Klinikum Ost","lat":49.48249,"lng":10.969723,"lines":null,"url":null},{"name":"Fürth Stiftungsstr.","lat":49.478276,"lng":10.970253,"lines":null,"url":null},{"name":"Fürth Pfeiferstr.","lat":49.481084,"lng":10.971259,"lines":null,"url":null},{"name":"Fürth Berlinstr.","lat":49.475942,"lng":10.971367,"lines":null,"url":null},{"name":"Fürth Jakob-Henle-Str/Klinikum","lat":49.484276,"lng":10.971439,"lines":null,"url":null},{"name":"Fürth Westvorstadt","lat":49.46903,"lng":10.971484,"lines":null,"url":null},{"name":"Fürth Scherbsgrabenbäder","lat":49.477378,"lng":10.976496,"lines":null,"url":null},{"name":"Fürth Billinganlage","lat":49.480424,"lng":10.977754,"lines":null,"url":null},{"name":"Fürth Am Grünerpark","lat":49.483611,"lng":10.978293,"lines":null,"url":null},{"name":"Fürth Kulturforum","lat":49.480611,"lng":10.980826,"lines":null,"url":null},{"name":"Fürth Stadthalle","lat":49.480284,"lng":10.981428,"lines":null,"url":null},{"name":"Fürth Mariensteig","lat":49.474903,"lng":10.981859,"lines":null,"url":null},{"name":"Fürth Badstr.","lat":49.474827,"lng":10.981886,"lines":null,"url":null},{"name":"Fürth Weiherstr.","lat":49.478481,"lng":10.98212,"lines":null,"url":null},{"name":"Fürth Stadthalle Süd","lat":49.478597,"lng":10.982901,"lines":null,"url":null},{"name":"Fürth Maxbrücke","lat":49.479817,"lng":10.983423,"lines":null,"url":null},{"name":"Fürth Mondstr.","lat":49.472819,"lng":10.983863,"lines":null,"url":null},{"name":"Fürth Theaterstr.","lat":49.475043,"lng":10.984671,"lines":null,"url":null},{"name":"Fürth Hirschenstr.","lat":49.472807,"lng":10.985004,"lines":null,"url":null},{"name":"Fürth Katharinenstr.","lat":49.477418,"lng":10.985237,"lines":null,"url":null},{"name":"Fürth Grüner Markt","lat":49.4797,"lng":10.98583,"lines":null,"url":null},{"name":"Fürth Am Schießanger","lat":49.481971,"lng":10.986504,"lines":null,"url":null},{"name":"Fürth Amalienstr.","lat":49.468604,"lng":10.986513,"lines":null,"url":null},{"name":"Fürth Mathildenstr.","lat":49.474226,"lng":10.986674,"lines":null,"url":null},{"name":"Fürth Volkshochschule","lat":49.474879,"lng":10.987465,"lines":null,"url":null},{"name":"Fürth Maxstr.","lat":49.471926,"lng":10.987815,"lines":null,"url":null},{"name":"Fürth Maxstr. Süd","lat":49.470974,"lng":10.988228,"lines":null,"url":null},{"name":"Fürth Rosenstr.","lat":49.475726,"lng":10.988408,"lines":null,"url":null},{"name":"Fürth Rathaus","lat":49.477646,"lng":10.988588,"lines":null,"url":null},{"name":"Fürth Hbf Südausgang","lat":49.46948,"lng":10.989253,"lines":null,"url":null}],"gauges":[],"depth_map":null},"extractor_schema_version":2,"last_updated":"2026-05-07T11:46:02.497Z","error":false,"source_platform":"merged","global_id":"hejfish-15655","external_ids":{"hejfish":15655,"alleangeln":"waldmannsweiher-fürth"}}