{"id":"hejfish-14161","source_platform":"merged","source_ids":{"hejfish":14161,"alleangeln":"elde-neu-kaliß"},"name":"Altarm der Alten Elde bei Kaliß","water_type":"Altarm","country":"DE","center":{"lat":53.173539,"lng":11.29018,"source":"hejfish_api_map_geojson","confidence":"high"},"geometry":{"points":[{"lat":53.174289,"lng":11.286925},{"lat":53.176437,"lng":11.289761},{"lat":53.1773,"lng":11.2911}],"lines":[[{"lat":53.178307,"lng":11.295043},{"lat":53.178515,"lng":11.29473},{"lat":53.178643,"lng":11.294481},{"lat":53.178979,"lng":11.293815},{"lat":53.179061,"lng":11.293527},{"lat":53.179016,"lng":11.293267},{"lat":53.178899,"lng":11.293062},{"lat":53.178764,"lng":11.292984},{"lat":53.178467,"lng":11.292792},{"lat":53.178243,"lng":11.292573},{"lat":53.177899,"lng":11.292336},{"lat":53.177759,"lng":11.292294},{"lat":53.177461,"lng":11.291788},{"lat":53.177345,"lng":11.2915},{"lat":53.177182,"lng":11.290939},{"lat":53.177007,"lng":11.290239},{"lat":53.176857,"lng":11.289777},{"lat":53.176725,"lng":11.289511},{"lat":53.176283,"lng":11.288921},{"lat":53.175933,"lng":11.288466},{"lat":53.175174,"lng":11.287405},{"lat":53.174199,"lng":11.286846},{"lat":53.173099,"lng":11.286282},{"lat":53.172033,"lng":11.285935},{"lat":53.171601,"lng":11.285837},{"lat":53.171278,"lng":11.285817},{"lat":53.170777,"lng":11.285752},{"lat":53.168932,"lng":11.285348},{"lat":53.168549,"lng":11.285376},{"lat":53.168016,"lng":11.285317}]],"polygons":[],"source":"hejfish_api_map_geojson","confidence":"high"},"links":{"source":"https://www.hejfish.com/d/14161-altarm-der-alten-elde-bei-kaliss","hejfish":"https://www.hejfish.com/d/14161-altarm-der-alten-elde-bei-kaliss","alleangeln":"https://www.alleangeln.de/gewaesser/elde-neu-kaliß","website":"http://www.lav-mv.de/","image":null},"fish":["Hecht","Flussbarsch","Brasse","Rotauge","Aal","Laube","Güster","Brachse","Karpfen","1 weitere Fischarten","Rapfen"],"metadata":{"merged_fields":{"center":"hejfish","fish":["hejfish","alleangeln"],"description":"alleangeln","geometry":"hejfish","water_type":"hejfish"},"sources":{"hejfish":{"platform":"hejfish","geocode_source":"hejfish_api_map_geojson","slug":"altarm-der-alten-elde-bei-kaliss","seo_name":"Altarm der Alten Elde bei Kaliß","techniques":["Spinnangeln","Fliegenfischen","Ansitzangeln","Feedern","Stippangeln","Posenangeln","Oberflächenangeln","Raubfischangeln","Friedfischangeln","Karpfenangeln"],"rules_files":[{"id":293143,"name":"satellitenbild","description":null,"file":"https://api.hejfish.com/files/download/f2033191d459ede5eaa62c2cf1bf2312b79fd91d/satellitenbild.pdf"},{"id":884564,"name":"Gewaesserordnung 01.01.2023","description":null,"file":"https://api.hejfish.com/files/download/d4cbab17110d09a2062535e73af3194f406fe45b/Gewaesserordnung%2001.01.2023.pdf"}],"tickets":[{"name":"Tageskarte - Erwachsene","price":"16,00 EUR","ticket_type_id":6674,"price_id":101000},{"name":"Tageskarte - Jugend","price":"4,00 EUR","ticket_type_id":6674,"price_id":101001},{"name":"2-Tageskarte - Erwachsene","price":"32,00 EUR","ticket_type_id":6675,"price_id":101002},{"name":"2-Tageskarte - Jugend","price":"8,00 EUR","ticket_type_id":6675,"price_id":101003},{"name":"Wochenkarte - Erwachsene","price":"92,00 EUR","ticket_type_id":6676,"price_id":101004},{"name":"Wochenkarte - Jugend","price":"20,00 EUR","ticket_type_id":6676,"price_id":101005},{"name":"Monatskarte - Erwachsene","price":"172,00 EUR","ticket_type_id":6677,"price_id":101006}],"manager":{"id":1834,"name":"Landesanglerverband Mecklenburg-Vorpommern e.V.","street":"OT Görslow, Siedlung 18a","postal_code":"19067","city":"Leezen","telephone":"","email":"","website":"https://www.lav-mv.de/","logo":"https://file.hejfish.com/image/r200x200/37/cb/37cb2792d40e6c06eadde2bd767e4c1c68624403.png","slug":"landesanglerverband-mecklenburg-vorpommern-e-v"},"season_begin":"0001-01-01","season_end":"0001-12-31","features":{"accessible":false,"public_transport":true,"boat":true,"belly_boat":true,"digital_ticket":true,"night_fishing":true,"ice_fishing":false,"depth_map":false,"has_gauges":false},"location":{"city":{"id":9030,"name":"Neu Kaliß"},"district":{"id":150,"name":"Kreis Ludwigslust-Parchim"},"state":{"id":20,"name":"Mecklenburg-Vorpommern","slug":"mecklenburg-vorpommern"},"country":{"id":2,"name":"Deutschland","code":"de","slug":"deutschland"}},"source_last_updated":"2026-05-07T11:44:02.269Z","error":false},"alleangeln":{"platform":"alleangeln","geocode_source":"alleangeln_json_ld","slug":"elde-neu-kaliß","description":"Elde (Neu Kaliß) ist ein Fluss in Mecklenburg-Vorpommern in der Nähe von Neu Kaliß. Das Gewässer wird von unseren Mitgliedern sehr stark befischt und als Top Gewässer bewertet.","followers":282,"catches_count":57,"images_count":2,"website":"http://www.lav-mv.de/","best_method":"Grundangeln","scraper_version":2,"source_last_updated":"2026-05-11T19:46:52.152Z","error":false}}},"last_updated":"2026-05-11T19:46:52.152Z"}