{"id":"hejfish-12583","source_platform":"merged","source_ids":{"hejfish":12583,"alleangeln":"hufeisenkolk-müden"},"name":"Hufeisenkolk","water_type":"Teich (Weiher)","country":"DE","center":{"lat":52.514944,"lng":10.358324,"source":"hejfish_api_map_geojson","confidence":"high"},"geometry":{"points":[{"lat":52.514583,"lng":10.359302}],"lines":[],"polygons":[[{"lat":52.515721,"lng":10.357685},{"lat":52.515571,"lng":10.35749},{"lat":52.515313,"lng":10.35783},{"lat":52.515127,"lng":10.358176},{"lat":52.514868,"lng":10.358552},{"lat":52.514673,"lng":10.358613},{"lat":52.514507,"lng":10.358503},{"lat":52.514419,"lng":10.358267},{"lat":52.514458,"lng":10.357849},{"lat":52.514497,"lng":10.357653},{"lat":52.514298,"lng":10.357763},{"lat":52.514167,"lng":10.35797},{"lat":52.514309,"lng":10.358855},{"lat":52.514525,"lng":10.359158},{"lat":52.514853,"lng":10.358973},{"lat":52.515119,"lng":10.358501},{"lat":52.515344,"lng":10.358254},{"lat":52.51563,"lng":10.357881}]],"source":"hejfish_api_map_geojson","confidence":"high"},"links":{"source":"https://www.hejfish.com/d/12583-hufeisenkolk","hejfish":"https://www.hejfish.com/d/12583-hufeisenkolk","alleangeln":"https://www.alleangeln.de/gewaesser/hufeisenkolk-müden","website":"http://angelsportverein.de/","image":null},"fish":["Aal","Brasse","Hecht","Karpfen","Schleie","Wels","Zander","Rotauge","Flussbarsch"],"metadata":{"merged_fields":{"center":"hejfish","fish":["hejfish","alleangeln"],"description":"hejfish","geometry":"hejfish","water_type":"hejfish"},"sources":{"hejfish":{"platform":"hejfish","geocode_source":"hejfish_api_map_geojson","slug":"hufeisenkolk","seo_name":"Hufeisenkolk","description":"<p>Der Hufeisenkolk ist ein Altwasser der Oker . Der Altarm hat einen Zugang zur Oker , sodass eine Austausch von Wasser und deren Lebewesen stattfinden kann.<br>Sehr guter Baumbestand und Seerosenfelder.<br>Der Hufeisenkolk befindet sich in einem Naturschutzgebiet ,dementsprechend sollte sich auch verhalten werden. Auf die Beschilderung ist zu achten.</p>","borders":"<p>Ufer!</p>","techniques":["Ansitzangeln","Spinnangeln","Fliegenfischen","Karpfenangeln","Naturköderangeln","Raubfischangeln","Friedfischangeln"],"rules_text":"<p><u style=\"font-weight: 700;\">Gewässergrenzen der Gewässer des ASV Müden-Dieckhorst e.V.</u><br>(detaillierte Informationen siehe Anhang)</p><p><span style=\"font-weight: 700;\">Aller:<br></span>Südseite bis Kreisgrenze Nordseite bis Kreisgrenze<br>Südseite bis Gemarkungsgrenze Nordseite bis Gemarkungsgrenze</p><p><span style=\"font-weight: 700;\">Hufeisenkolk: </span>Ufer</p><p><span style=\"font-weight: 700;\">Oker: </span>Ostseite bis Gemarkungsgrenze</p><p><br></p><p><span style=\"font-weight: 700;\">Die fischereilichen Bestimmungen entnehmen Sie bitte der PDF im Anhang!</span></p>","rules_files":[{"id":969350,"name":"kombi-tageskarte-fuer-die-gewaesser-des-asv-mueden-dieckhorst-e-v-bestimmungen","description":null,"file":"https://api.hejfish.com/files/download/aff16371b5e1c62d210af884212ceb9892e48a27/kombi-tageskarte-fuer-die-gewaesser-des-asv-mueden-dieckhorst-e-v-bestimmungen.pdf"},{"id":969351,"name":"kombi-wochenkarte-fuer-die-gewaesser-des-asv-mueden-dieckhorst-e-v-bestimmungen","description":null,"file":"https://api.hejfish.com/files/download/757132ba986a88aeeb989bef3e6c629b614da77a/kombi-wochenkarte-fuer-die-gewaesser-des-asv-mueden-dieckhorst-e-v-bestimmungen.pdf"},{"id":969348,"name":"kombi-monatskarte-fuer-die-gewaesser-des-asv-mueden-dieckhorst-e-v-bestimmungen","description":null,"file":"https://api.hejfish.com/files/download/1f438c703627556c531f673298771cb65f9645e3/kombi-monatskarte-fuer-die-gewaesser-des-asv-mueden-dieckhorst-e-v-bestimmungen.pdf"}],"tickets":[{"name":"Kombi-Tageskarte für die Gewässer des ASV Müden-Dieckhorst e.V. - Normalpreis inkl. Servicegebühr","price":"15,50 EUR","ticket_type_id":2105,"price_id":94143},{"name":"Kombi-Wochenkarte für die Gewässer des ASV Müden-Dieckhorst e.V. - Normalpreis inkl. Servicegebühr","price":"33,50 EUR","ticket_type_id":2107,"price_id":94144},{"name":"Kombi-Monatskarte für die Gewässer des ASV Müden-Dieckhorst e.V. - Normalpreis inkl. Servicegebühr","price":"55,00 EUR","ticket_type_id":2108,"price_id":94142}],"manager":{"id":1611,"name":"Angelsportverein Müden-Dieckhorst e.V.","street":"Spetzengasse 8 ","postal_code":"29362","city":"Hohne","telephone":"+49171-9943840","email":"1.vorsitzender@angelsportverein.de","website":"http://angelsportverein.de","logo":"https://file.hejfish.com/image/r200x200/19/65/1965d7a90bcb597ec77ed68ae2518cec215afa5e.jpeg","slug":"angelsportverein-mueden-dieckhorst-e-v"},"season_begin":"0001-01-01","season_end":"0001-12-31","features":{"accessible":false,"public_transport":false,"boat":false,"belly_boat":false,"digital_ticket":true,"night_fishing":true,"ice_fishing":false,"depth_map":false,"has_gauges":false},"location":{"city":{"id":13350,"name":"Müden (Aller)"},"district":{"id":196,"name":"Kreis Gifhorn"},"state":{"id":22,"name":"Niedersachsen","slug":"niedersachsen"},"country":{"id":2,"name":"Deutschland","code":"de","slug":"deutschland"}},"source_last_updated":"2026-05-07T11:41:26.639Z","error":false},"alleangeln":{"platform":"alleangeln","geocode_source":"alleangeln_json_ld","slug":"hufeisenkolk-müden","description":"Hufeisenkolk (Müden) ist ein Altarm in Niedersachsen in der Nähe von Müden (Aller). Das Gewässer wird von unseren Mitgliedern relativ stark befischt und als Top Gewässer bewertet.","followers":73,"catches_count":27,"website":"http://angelsportverein.de/","best_method":"Grundangeln","scraper_version":2,"source_last_updated":"2026-05-11T19:28:14.498Z","error":false}}},"last_updated":"2026-05-11T19:28:14.498Z"}