{"id":13013,"slug":"aller-bei-hodenhagen","url":"https://www.hejfish.com/d/13013-aller-bei-hodenhagen","name":"Aller bei Hodenhagen","seo_name":"Aller bei Hodenhagen","description":"<p>Die Aller fließt gemächlich in relativ naturbelassener Umgebung entlang von Wiesen und Wäldern und durch kleinere Dörfer sowie Landstädte. Die Aller bietet zwischen der Fähre Eickeloh bis zur Brücke Ahlden (ca. 5,5 km), eine interessante Angelstrecke mit guten Erfolgsaussichten. Der Fluss verläuft auf dieser Strecke in seichten Kurven durch Grünlandflächen und verfügt über zahlreiche Buhnen die zum Angeln einladen. Der Untergrund ist sandig. Doch wer die Wahl hat, hat auch die Qual, denn bei so vielen Buhnen fällt die Entscheidung nicht leicht. Abgelegene Buhnen werden sicherlich seltener beangelt und bieten daher auch größere Erfolgschancen. Wer lieber den kapitalen Raubfischen auf die Schuppen rücken möchte, der sollte hier sein Kunstköder-Repertoire einpacken und Strecke machen. Dabei lässt sich der Flusslauf gut vom Ufer befischen. Die Fließgeschwindigkeit der Aller ist streckenweise gering.</p> <p><br><br></p>","intro":"","details":"","borders":"<p>Seilfähre Eickeloh und Allerbrücke Richtung Ahlden</p>\n\n","image":"https://file.hejfish.com/image/cc1200x900/b3/42/b3429d612a17fb6a1ad6e7317d2fd153b975e0b6.jpeg","water_size_ha":null,"fish":["Hecht","Karpfen","Schleie","Wels","Zander","Äsche","Bachforelle","Flussbarsch","Brasse","Rapfen","Aal"],"techniques":["Ansitzangeln","Fliegenfischen","Naturköderangeln","Spinnangeln"],"properties":[],"water_type":"Fluss","rules_text":"<p>Die allgemeinen Bestimmungen (Gewässerordnung) des Gewässers entnehmen Sie bitte der PDF-Datei im Anhang! <br><br>Mit diese Angelkarte dürfen Sie nur an der Aller des SAV Hodenhagen e.V. von 1936 Angeln.<br><br>Die Grenzen der einzelnen Gewässer entnehmen Sie bitte der Gewässerkarte!<br><br><br></p>","rules_files":[{"id":1178572,"name":"aller-bei-hodenhagen-bestimmungen","description":null,"file":"https://api.hejfish.com/files/download/ce32246bf158a5cf6a253ee47ea7e6c8dbbe800d/aller-bei-hodenhagen-bestimmungen.pdf"}],"tickets":[{"name":"Tageskarte - Normalpreis inkl. Servicegebühr","price":"13,50 EUR","ticket_type_id":2794,"price_id":94890},{"name":"Wochenkarte - Normalpreis inkl. Servicegebühr","price":"33,00 EUR","ticket_type_id":2795,"price_id":94891}],"ticket_types":[{"id":2794,"name":"Tageskarte","category":"DAY","duration":1,"prices":[{"id":94890,"name":"Normalpreis inkl. Servicegebühr","value":"13,50 EUR","cents":1350,"type":"DEFAULT","valid_from":"2026-01-01","valid_to":"2026-12-31","available_from":"2025-12-28","age":0,"eligible":true}],"licenses":{"required":["Fischereischein / Jugendfischereischein Deutschland"],"optional":[]},"rules_text":"<p>Die allgemeinen Bestimmungen (Gewässerordnung) des Gewässers entnehmen Sie bitte der PDF-Datei im Anhang! <br><br>Mit diese Angelkarte dürfen Sie nur an der Aller des SAV Hodenhagen e.V. von 1936 Angeln.<br><br>Die Grenzen der einzelnen Gewässer entnehmen Sie bitte der Gewässerkarte!<br><br><br></p>","rules_files":[{"id":1178572,"name":"aller-bei-hodenhagen-bestimmungen","description":null,"file":"https://api.hejfish.com/files/download/ce32246bf158a5cf6a253ee47ea7e6c8dbbe800d/aller-bei-hodenhagen-bestimmungen.pdf"}],"additional_areas":[],"catch_report_required":false},{"id":2795,"name":"Wochenkarte","category":"DAY","duration":7,"prices":[{"id":94891,"name":"Normalpreis inkl. Servicegebühr","value":"33,00 EUR","cents":3300,"type":"DEFAULT","valid_from":"2026-01-01","valid_to":"2026-12-31","available_from":"2025-12-28","age":0,"eligible":true}],"licenses":{"required":["Fischereischein / Jugendfischereischein Deutschland"],"optional":[]},"rules_text":"<p>Die allgemeinen Bestimmungen (Gewässerordnung) des Gewässers entnehmen Sie bitte der PDF-Datei im Anhang! <br><br>Mit diese Angelkarte dürfen Sie nur an der Aller des SAV Hodenhagen e.V. von 1936 Angeln.<br><br>Die Grenzen der einzelnen Gewässer entnehmen Sie bitte der Gewässerkarte!<br><br><br></p>","rules_files":[{"id":1178572,"name":"aller-bei-hodenhagen-bestimmungen","description":null,"file":"https://api.hejfish.com/files/download/ce32246bf158a5cf6a253ee47ea7e6c8dbbe800d/aller-bei-hodenhagen-bestimmungen.pdf"}],"additional_areas":[],"catch_report_required":false}],"manager":{"id":1720,"name":"SAV Hodenhagen","street":"Bahnhofstraße 26","postal_code":"29693","city":"Hodenhagen","telephone":"+49 172 6494315","email":"Christian.Kluender@gmx.de","website":"http://www.sav-hodenhagen.de/","logo":"https://file.hejfish.com/image/r200x200/fe/7d/fe7d18f65d4c05ef380fd06dc6c334b78eb3695d.jpg","slug":"sav-hodenhagen"},"season_begin":"0001-03-01","season_end":"0001-12-31","features":{"accessible":false,"public_transport":false,"boat":false,"belly_boat":false,"digital_ticket":false,"night_fishing":true,"ice_fishing":false,"depth_map":false,"has_gauges":true},"location":{"city":{"id":12789,"name":"Hodenhagen"},"district":{"id":189,"name":"Heidekreis"},"state":{"id":22,"name":"Niedersachsen","slug":"niedersachsen"},"country":{"id":2,"name":"Deutschland","code":"de","slug":"deutschland"}},"products":[{"id":842,"name":"Statistikdaten in Rohformat (Excel) – Aller bei Hodenhagen","caption":"","description":"<p>Mithilfe dieser Statistikdaten wollen wir dir zu deinem Fang verhelfen. In diesem Excel-Download findest du die anonymisierten Rohdaten zum jeweiligen Gewässer aus unserer Fangdatenbank.</p>","image":"https://file.hejfish.com/image/cc800x600/bd/85/bd8572e8d4e2c38eba0a2ce880a00196ceda2fd0.jpg","category":{"id":10,"name":"Fangstatistiken (Rohdaten)"},"price":null,"guest_ticket":null,"show_in_shop":false,"show_on_area_detail_page":true,"show_in_basket":false}],"points_of_interest":[],"catch_reports":[],"news":[],"hejfish_fee":[{"min":137,"max":297,"percent":8.9,"fisher_type":"guest"}],"lat":52.760986,"lng":9.569352,"geocode_source":"hejfish_api_map","map_data":{"id":13013,"geojson":[],"locations":[{"lat":52.760986,"lng":9.569352},{"lat":52.728539,"lng":9.592491}],"stations":[{"name":"Grethem Dorfstraße","lat":52.726435,"lng":9.57669,"lines":null,"url":null},{"name":"Büchten zur Linde","lat":52.732948,"lng":9.567173,"lines":null,"url":null},{"name":"Hodenhagen Gutsweg","lat":52.756801,"lng":9.589595,"lines":null,"url":null},{"name":"Hodenhagen Grundschule","lat":52.760818,"lng":9.584365,"lines":null,"url":null},{"name":"Hodenhagen Neues Dorf","lat":52.761337,"lng":9.584652,"lines":null,"url":null},{"name":"Hodenhagen Allerstraße","lat":52.761828,"lng":9.574251,"lines":null,"url":null},{"name":"Hodenhagen Allerstraße","lat":52.762483,"lng":9.581759,"lines":null,"url":null},{"name":"Hodenhagen Heerstraße","lat":52.764069,"lng":9.582902,"lines":null,"url":null},{"name":"Hodenhagen Schulstraße","lat":52.764101,"lng":9.580437,"lines":null,"url":null},{"name":"Hodenhagen Bahnhof","lat":52.765804,"lng":9.595291,"lines":null,"url":null},{"name":"Hodenhagen","lat":52.765987,"lng":9.595379,"lines":null,"url":null}],"gauges":[{"id":41,"name":"Marklendorf","lat":52.682757,"lng":9.703456},{"id":42,"name":"Ahlden","lat":52.762431,"lng":9.570881}],"depth_map":null},"extractor_schema_version":2,"last_updated":"2026-05-07T11:41:56.456Z","error":false,"source_platform":"merged","global_id":"hejfish-13013","external_ids":{"hejfish":13013,"alleangeln":"aller-ahlden-hodenhagen"}}