{"id":12932,"slug":"heidenheimer-weiher","url":"https://www.hejfish.com/d/12932-heidenheimer-weiher","name":"Heidenheimer Weiher","seo_name":"Heidenheimer Weiher","description":"<p>Heidenheimer Weiher</p>","intro":"","details":"","borders":"<p>Gewässer-Grenzen: Ufer</p>","image":"https://file.hejfish.com/image/cc1200x900/ec/fe/ecfe91c5c66b84f2a08c3985b5704a57b0ed5c96.jpeg","water_size_ha":null,"fish":["Aal","Hecht","Zander","Karpfen","Schleie"],"techniques":["Ansitzangeln","Feedern","Posenangeln"],"properties":[],"water_type":"Teich (Weiher)","rules_text":"","rules_files":[],"tickets":[],"ticket_types":[],"manager":{"id":1701,"name":"Fischereiverein Hahnenkamm e.V.","street":"Waldstr. 5","postal_code":"91805","city":"Polsingen","telephone":"","email":"info@fischereiverein-hahnenkamm.de","website":"http://www.fischereiverein-hahnenkamm-ev.de/","logo":"https://file.hejfish.com/image/r200x200/a1/bf/a1bff2433a5abe6fd0aa776124315656c311f90f.jpeg","slug":"fischereiverein-hahnenkamm-e-v"},"season_begin":"0001-01-01","season_end":"0001-12-31","features":{"accessible":false,"public_transport":true,"boat":false,"belly_boat":false,"digital_ticket":false,"night_fishing":true,"ice_fishing":false,"depth_map":false,"has_gauges":false},"location":{"city":{"id":34597,"name":"Heidenheim (Mittelfranken)"},"district":{"id":453,"name":"Kreis Weißenburg-Gunzenhausen"},"state":{"id":10,"name":"Bayern","slug":"bayern"},"country":{"id":2,"name":"Deutschland","code":"de","slug":"deutschland"}},"products":[{"id":787,"name":"Statistikdaten in Rohformat (Excel) – Heidenheimer Weiher","caption":"","description":"<p>Mithilfe dieser Statistikdaten wollen wir dir zu deinem Fang verhelfen. In diesem Excel-Download findest du die anonymisierten Rohdaten zum jeweiligen Gewässer aus unserer Fangdatenbank.</p>","image":"https://file.hejfish.com/image/cc800x600/bd/85/bd8572e8d4e2c38eba0a2ce880a00196ceda2fd0.jpg","category":{"id":10,"name":"Fangstatistiken (Rohdaten)"},"price":null,"guest_ticket":null,"show_in_shop":false,"show_on_area_detail_page":true,"show_in_basket":false}],"points_of_interest":[],"catch_reports":[],"news":[],"hejfish_fee":[{"min":137,"max":297,"percent":8.9,"fisher_type":"guest"}],"lat":49.016958,"lng":10.734634,"geocode_source":"hejfish_api_map","map_data":{"id":12932,"geojson":[],"locations":[{"lat":49.016958,"lng":10.734634}],"stations":[{"name":"Heidenheim Krämershof","lat":49.026635,"lng":10.729361,"lines":null,"url":null},{"name":"Heidenheim Schule","lat":49.019283,"lng":10.737122,"lines":null,"url":null},{"name":"Heidenheim Hechlinger Str.","lat":49.013221,"lng":10.739162,"lines":null,"url":null},{"name":"Heidenheim Ostheimer Str.","lat":49.020138,"lng":10.742063,"lines":null,"url":null},{"name":"Heidenheim Rathaus","lat":49.018264,"lng":10.74236,"lines":null,"url":null},{"name":"Heidenheim Krankenhausstr","lat":49.012479,"lng":10.742737,"lines":null,"url":null}],"gauges":[],"depth_map":null},"extractor_schema_version":2,"last_updated":"2026-05-07T11:41:48.136Z","error":false,"source_platform":"merged","global_id":"hejfish-12932","external_ids":{"hejfish":12932,"alleangeln":"heidenheimer-weiher"}}