{"id":15369,"slug":"walder-altmuehl-hauptvorfluter-sued","url":"https://www.hejfish.com/d/15369-walder-altmuehl-hauptvorfluter-sued","name":"Walder Altmühl / Hauptvorfluter Süd","seo_name":"Walder Altmühl / Hauptvorfluter Süd","description":"Walder Altmühl (Gunzenhausen) ist ein Fluss in Bayern in der Nähe von Gunzenhausen. Das Gewässer wird von unseren Mitgliedern sehr wenig befischt und als Top Gewässer bewertet.","intro":"","details":"","borders":"<p>Gewässergrenzen: </p>\n\n<p>oberhalb der Kirche Wald (49.133214  10.706866) bis Brücke Spielplatz (49.123055  10.720901)</p>","image":"https://file.hejfish.com/image/cc1200x900/27/d4/27d4bcdd2684f20cd5b819e7bcf5b84011754ac7.jpg","water_size_ha":null,"fish":["Aal","Wels","Flussbarsch","Zander","Hecht","Div. Weißfische","Amur","Karpfen","Schleie","Rapfen","Quappe"],"techniques":["Ansitzangeln","Feedern","Fliegenfischen","Karpfenangeln","Naturköderangeln","Posenangeln","Raubfischangeln","Spinnangeln"],"properties":[],"water_type":"Fluss","rules_text":"<p><b>Gültigkeit</b>: Die Angelkarte gilt für einen Kalendertag. Erlaubte Angelzeiten sind den Bestimmungen zu entnehmen.\r\n</p><p><b>Schonzeiten &amp; Mindestmaße</b>: Es gelten die in den Bestimmungen aufgeführten Schonzeiten und Mindestmaße. Für die nicht aufgeführten Arten gelten die <u>gesetzlichen Schonzeiten und Mindestmaße für Bayern.\r\n</u></p><p><b>Fischereiliche Bestimmungen:\r\n</b></p><p>Ein gültiger staatlicher Fischereischein bzw. Jugendfischereischein ist erforderlich und mitzuführen.</p><p>Für die Zufahrt zu den Gewässern sind ausschließlich öffentliche Wege zu benutzen. Das Befahren und Parken mit motorbetrieben Fahrzeugen von Wiesen, Feldern, gesperrten Wegen und Privatwegen sowie der Uferzone ist verboten. Offene Feuerstellen und Grillen sind untersagt (Ausnahme: Gaskocher und Gasgrill sind erlaubt). Camping und Zelten ist verboten. Jegliche Schäden sind unter allen Umständen zu vermeiden. Schadensersatzansprüche gegenüber dem Verein werden ausnahmslos an die Verursacher weitergeleitet.&nbsp;</p><p>Die tägliche Angelzeit ist 0:00 bis 24:00 Uhr.&nbsp;</p><p>Das Angeln von Brücken, Schleusen, Dükern, Wehranlagen, vom Boot und an Badestränden ist verboten.&nbsp;</p><p>Gestattet sind 2 Handangeln. Das Angeln auf Friedfische ist nur mit Einfachhaken erlaubt. Das Anfüttern mit Schlacht- und Küchenabfällen, Hunde- und Katzenfutter ist verboten. Ein Beifütterung in mäßigen Umfang unmittelbar vor und während dem Fischen ist gestattet. Geeignete Landungshilfen (Kescher), Hakenlöser, Rachensperre beim Raubfischangeln, geeignete Betäubungs- und Fischtöter sind mitzuführen.&nbsp;</p><p>Das Angeln auf Raubfische ist nur mit einem geeigneten Raubfischvorfach (Stahl, Titan, Kevlar) gestattet. In der Zeit vom 15. Februar bis zum 30. April ist die Verwendung jeglicher Raubfischköder verboten. Das Raubfischangeln mit Kunstködern (Blinker, Spinner, Gummiködern, Wobblern, Schleppen, Fliegenfischen etc.) ist erst ab dem 16.06. gestattet; dabei darf nur 1 Handangel verwendet werden.&nbsp;</p><p>Untermaßige oder während der Schonzeit gefangene, lebensfähige Fische sind unverzüglich zurückzusetzten. Hälterung zum Zweck des Austausches ist nicht gestattet. Nach Erreichen der Fangbeschränkung ist das Angeln einzustellen.</p><p>Alle Fänge sind sofort nach dem Fang einzutragen.&nbsp;</p><p>Den Aufsichtsorganen ist Folge zu leisten. Bei Verstößen gegen die Auflagen und Bedingungen oder das BayFiG wird der Erlaubnisschein sofort entschädigungslos eingezogen.</p><p><b>Fangbeschränkungen</b>: 2 Karpfen, 2 Schleien, 1 Hecht oder Zander. Waller sind ohne Beschränkung nach Zeit, Maß und Stückzahl zu entnehmen.&nbsp;</p><p>Für das in diesem Erlaubnisschein genannte Gewässer gelten die gesetzlichen Schonmaße und Schonzeiten des bayerischen Fischereigesetzes und der Bezirksfischereiverordnung des Bezirkes Mittelfranken.&nbsp;</p><p>Abweichende Schonmaße* und Schonzeiten* sind von der Fachberatung für Fischerei Mittelfranken genehmigt:<br><u>Hecht</u>: 60 cm*, 15. Februar bis einschl. 30. April*<br><u>Zander</u>: 50 cm, 15. April bis einschl. 30. April*<br><br></p><p><b>Das Fangergebnis ist nach dem Angeln unter www.hejfish.com/fang einzutragen.</b> Der Erwerber des Erlaubnisscheines erkennt die Auflagen an.</p><p><br></p><p>\r\n</p><p>\r\n</p>","rules_files":[],"tickets":[{"name":"Tageskarte - Normalpreis inkl. Servicegebühr","price":"18,00 EUR","ticket_type_id":8394,"price_id":104054}],"ticket_types":[{"id":8394,"name":"Tageskarte","category":"DAY","duration":1,"prices":[{"id":104054,"name":"Normalpreis inkl. Servicegebühr","value":"18,00 EUR","cents":1800,"type":"DEFAULT","valid_from":"2026-01-01","valid_to":"2026-12-31","available_from":"2025-12-31","age":0,"eligible":true}],"licenses":{"required":["Fischereischein / Jugendfischereischein Deutschland"],"optional":[]},"rules_text":"<p><b>Gültigkeit</b>: Die Angelkarte gilt für einen Kalendertag. Erlaubte Angelzeiten sind den Bestimmungen zu entnehmen.\r\n</p><p><b>Schonzeiten &amp; Mindestmaße</b>: Es gelten die in den Bestimmungen aufgeführten Schonzeiten und Mindestmaße. Für die nicht aufgeführten Arten gelten die <u>gesetzlichen Schonzeiten und Mindestmaße für Bayern.\r\n</u></p><p><b>Fischereiliche Bestimmungen:\r\n</b></p><p>Ein gültiger staatlicher Fischereischein bzw. Jugendfischereischein ist erforderlich und mitzuführen.</p><p>Für die Zufahrt zu den Gewässern sind ausschließlich öffentliche Wege zu benutzen. Das Befahren und Parken mit motorbetrieben Fahrzeugen von Wiesen, Feldern, gesperrten Wegen und Privatwegen sowie der Uferzone ist verboten. Offene Feuerstellen und Grillen sind untersagt (Ausnahme: Gaskocher und Gasgrill sind erlaubt). Camping und Zelten ist verboten. Jegliche Schäden sind unter allen Umständen zu vermeiden. Schadensersatzansprüche gegenüber dem Verein werden ausnahmslos an die Verursacher weitergeleitet.&nbsp;</p><p>Die tägliche Angelzeit ist 0:00 bis 24:00 Uhr.&nbsp;</p><p>Das Angeln von Brücken, Schleusen, Dükern, Wehranlagen, vom Boot und an Badestränden ist verboten.&nbsp;</p><p>Gestattet sind 2 Handangeln. Das Angeln auf Friedfische ist nur mit Einfachhaken erlaubt. Das Anfüttern mit Schlacht- und Küchenabfällen, Hunde- und Katzenfutter ist verboten. Ein Beifütterung in mäßigen Umfang unmittelbar vor und während dem Fischen ist gestattet. Geeignete Landungshilfen (Kescher), Hakenlöser, Rachensperre beim Raubfischangeln, geeignete Betäubungs- und Fischtöter sind mitzuführen.&nbsp;</p><p>Das Angeln auf Raubfische ist nur mit einem geeigneten Raubfischvorfach (Stahl, Titan, Kevlar) gestattet. In der Zeit vom 15. Februar bis zum 30. April ist die Verwendung jeglicher Raubfischköder verboten. Das Raubfischangeln mit Kunstködern (Blinker, Spinner, Gummiködern, Wobblern, Schleppen, Fliegenfischen etc.) ist erst ab dem 16.06. gestattet; dabei darf nur 1 Handangel verwendet werden.&nbsp;</p><p>Untermaßige oder während der Schonzeit gefangene, lebensfähige Fische sind unverzüglich zurückzusetzten. Hälterung zum Zweck des Austausches ist nicht gestattet. Nach Erreichen der Fangbeschränkung ist das Angeln einzustellen.</p><p>Alle Fänge sind sofort nach dem Fang einzutragen.&nbsp;</p><p>Den Aufsichtsorganen ist Folge zu leisten. Bei Verstößen gegen die Auflagen und Bedingungen oder das BayFiG wird der Erlaubnisschein sofort entschädigungslos eingezogen.</p><p><b>Fangbeschränkungen</b>: 2 Karpfen, 2 Schleien, 1 Hecht oder Zander. Waller sind ohne Beschränkung nach Zeit, Maß und Stückzahl zu entnehmen.&nbsp;</p><p>Für das in diesem Erlaubnisschein genannte Gewässer gelten die gesetzlichen Schonmaße und Schonzeiten des bayerischen Fischereigesetzes und der Bezirksfischereiverordnung des Bezirkes Mittelfranken.&nbsp;</p><p>Abweichende Schonmaße* und Schonzeiten* sind von der Fachberatung für Fischerei Mittelfranken genehmigt:<br><u>Hecht</u>: 60 cm*, 15. Februar bis einschl. 30. April*<br><u>Zander</u>: 50 cm, 15. April bis einschl. 30. April*<br><br></p><p><b>Das Fangergebnis ist nach dem Angeln unter www.hejfish.com/fang einzutragen.</b> Der Erwerber des Erlaubnisscheines erkennt die Auflagen an.</p><p><br></p><p>\r\n</p><p>\r\n</p>","rules_files":[],"additional_areas":[],"catch_report_required":true}],"manager":{"id":2097,"name":"Fischereiverein Gunzenhausen e.V.","street":"Am Stein 8","postal_code":"91741","city":"Theilenhofen","telephone":"0170 2110307","email":"","website":"https://www.fischereiverein-gunzenhausen.de/Startseite/","logo":"https://file.hejfish.com/image/r200x200/03/35/03350a5db37ede79aa74e0ef93519936e419f276.jpg","slug":"fischereiverein-gunzenhausen-e-v"},"season_begin":"0001-01-01","season_end":"0001-12-31","features":{"accessible":false,"public_transport":true,"boat":false,"belly_boat":false,"digital_ticket":true,"night_fishing":true,"ice_fishing":false,"depth_map":true,"has_gauges":true},"location":{"city":{"id":34599,"name":"Dittenheim"},"district":{"id":453,"name":"Kreis Weißenburg-Gunzenhausen"},"state":{"id":10,"name":"Bayern","slug":"bayern"},"country":{"id":2,"name":"Deutschland","code":"de","slug":"deutschland"}},"products":[{"id":1947,"name":"Statistikdaten in Rohformat (Excel) – Walder Altmühl / Hauptvorfluter Süd","caption":"","description":"<p>Mithilfe dieser Statistikdaten wollen wir dir zu deinem Fang verhelfen. In diesem Excel-Download findest du die anonymisierten Rohdaten zum jeweiligen Gewässer aus unserer Fangdatenbank.</p>","image":"https://file.hejfish.com/image/cc800x600/bd/85/bd8572e8d4e2c38eba0a2ce880a00196ceda2fd0.jpg","category":{"id":10,"name":"Fangstatistiken (Rohdaten)"},"price":null,"guest_ticket":null,"show_in_shop":false,"show_on_area_detail_page":true,"show_in_basket":false}],"points_of_interest":[],"catch_reports":[],"news":[{"id":5472,"text":"<p><b>In der Zeit vom 15. Februar bis zum 30. April ist die Verwendung jeglicher Raubfischköder verboten. Das Raubfischangeln mit Kunstködern (Blinker, Spinner, Gummiködern, Wobblern, Schleppen etc.) ist erst ab dem 16.06. gestattet. </b></p><p><br></p><p>\r\n</p>","valid_from":null,"valid_till":null}],"hejfish_fee":[{"min":137,"max":297,"percent":8.9,"fisher_type":"guest"}],"lat":49.133214,"lng":10.706866,"geocode_source":"hejfish_api_map","map_data":{"id":15369,"geojson":[],"locations":[{"lat":49.133214,"lng":10.706866},{"lat":49.123055,"lng":10.720901}],"stations":[{"name":"Steinabühl","lat":49.128404,"lng":10.69739,"lines":null,"url":null},{"name":"Mooskorb","lat":49.131778,"lng":10.699744,"lines":null,"url":null},{"name":"Wald Raiffeisenbank","lat":49.13025,"lng":10.702986,"lines":null,"url":null},{"name":"Wald Mitte","lat":49.131813,"lng":10.70304,"lines":null,"url":null},{"name":"Wald West","lat":49.130132,"lng":10.703669,"lines":null,"url":null},{"name":"Schweina","lat":49.128286,"lng":10.710667,"lines":null,"url":null},{"name":"Wald Seezentrum","lat":49.125729,"lng":10.71621,"lines":null,"url":null}],"gauges":[{"id":1858,"name":"Ansbach","lat":49.3095905,"lng":10.5732576},{"id":1862,"name":"Weiboldshausen","lat":49.0492777,"lng":10.9820085},{"id":1403,"name":"Unterwurmbach","lat":49.1120456,"lng":10.7326343},{"id":1864,"name":"Brombachsee","lat":49.137311,"lng":10.8949305},{"id":1404,"name":"Schambach","lat":48.9672936,"lng":10.9535593},{"id":1861,"name":"Mühlstetten","lat":49.1533774,"lng":11.0129459},{"id":1863,"name":"Brombachsee Vorsperre","lat":49.1389614,"lng":10.8941296},{"id":1402,"name":"Bechhofen","lat":49.156751,"lng":10.5487692},{"id":1860,"name":"Seemannsmühle","lat":49.120546,"lng":11.003886},{"id":1320,"name":"Hahnenkammsee","lat":48.9653651,"lng":10.7205225},{"id":1859,"name":"Weißenburg","lat":49.0298569,"lng":10.9549961},{"id":1316,"name":"Gerolfingen","lat":49.0477375,"lng":10.5176936},{"id":1857,"name":"Wernfels Kläranlage","lat":49.1953781,"lng":10.8873887},{"id":1394,"name":"Treuchtlingen","lat":48.9531559,"lng":10.9135837},{"id":1393,"name":"Aha","lat":49.1005098,"lng":10.7536737},{"id":1392,"name":"Muhr Seepegel","lat":49.1493309,"lng":10.7038326},{"id":1856,"name":"Ansbach","lat":49.304566,"lng":10.5656689},{"id":1391,"name":"Ornbau Wehr Oberwasser","lat":49.1710743,"lng":10.6505639},{"id":1390,"name":"Thann","lat":49.206517,"lng":10.544653}],"depth_map":null},"extractor_schema_version":2,"last_updated":"2026-05-07T11:45:36.483Z","error":false,"source_platform":"merged","global_id":"hejfish-15369","external_ids":{"hejfish":15369,"alleangeln":"walder-altmuehl-gunzenhausen"}}