{"id":12113,"slug":"lahn-station-ii-und-ohm-station-iv","url":"https://www.hejfish.com/d/12113-lahn-station-ii-und-ohm-station-iv","name":"Lahn Station II und Ohm Station IV","description":"","water_size_ha":null,"fish":["AalÄscheBachforelleFlussbarschBrasseDöbelKarpfenRotaugeSchleieZanderRegenbogenforelleWelsBarbe"],"techniques":["FliegenfischenPosenangelnAnsitzangeln"],"properties":["kein Boot\nKein Nachtfischen\nTechniken:\nFliegenfischenPosenangelnAnsitzangeln"],"season":null,"water_type":null,"rules_text":"","mobile_ticket":false,"print_required":true,"tickets":[],"manager":null,"main_image":null,"location_info":["Hessen","Kreis Marburg-Biedenkopf"],"lat":null,"lng":null,"geocode_source":null,"map_data":{"data":{"id":12113,"geojson":[],"locations":[{"lat":50.848962,"lng":8.836904},{"lat":50.854679,"lng":8.794686},{"lat":50.854679,"lng":8.794686},{"lat":50.750155,"lng":8.7438}],"stations":[{"name":"Weimar-Niederweimar Bahnhof","lat":50.756976,"lng":8.733903,"lines":null,"url":null},{"name":"Marburg-Marbach Sellhof","lat":50.811133,"lng":8.734437,"lines":null,"url":null},{"name":"Marburg Zum runden Baum","lat":50.782848,"lng":8.734621,"lines":null,"url":null},{"name":"Weimar-Argenstein Wenkbacher Straße","lat":50.7443,"lng":8.73518,"lines":null,"url":null},{"name":"Weimar-Argenstein Talstraße","lat":50.7436,"lng":8.7356,"lines":null,"url":null},{"name":"Marburg Gladenbacher Weg","lat":50.798525,"lng":8.736168,"lines":null,"url":null},{"name":"Marburg Dietrich-Bonhoeffer-Straße","lat":50.78936,"lng":8.736215,"lines":null,"url":null},{"name":"Weimar-Niederweimar Ringweg","lat":50.761033,"lng":8.737073,"lines":null,"url":null},{"name":"Marburg Soldatengraben","lat":50.803195,"lng":8.738029,"lines":null,"url":null},{"name":"Marburg Platz der weißen Rose","lat":50.791276,"lng":8.738336,"lines":null,"url":null},{"name":"Marburg In der Gemoll","lat":50.800491,"lng":8.738767,"lines":null,"url":null},{"name":"Marburg-Marbach Friedhof","lat":50.821686,"lng":8.741984,"lines":null,"url":null},{"name":"Marburg-Marbach Höhenweg","lat":50.80875,"lng":8.742126,"lines":null,"url":null},{"name":"Marburg-Marbach Kreutzacker","lat":50.810451,"lng":8.742727,"lines":null,"url":null},{"name":"Marburg Herrmannstraße","lat":50.802316,"lng":8.742842,"lines":null,"url":null},{"name":"Marburg-Marbach Unterer Eichweg","lat":50.815414,"lng":8.743296,"lines":null,"url":null},{"name":"Marburg Graf-von-Stauffenberg-Straße","lat":50.794174,"lng":8.744149,"lines":null,"url":null},{"name":"Lahntal-Goßfelden Marburger Straße","lat":50.86111,"lng":8.74502,"lines":null,"url":null},{"name":"Marburg-Marbach Europabadstraße","lat":50.817729,"lng":8.74527,"lines":null,"url":null},{"name":"Marburg-Marbach Salegrund","lat":50.813801,"lng":8.745461,"lines":null,"url":null},{"name":"Marburg-Marbach Holderstrauch","lat":50.81186,"lng":8.745855,"lines":null,"url":null},{"name":"Marburg-Marbach Rotdornweg","lat":50.81836,"lng":8.746061,"lines":null,"url":null},{"name":"Marburg-Wehrda Sachsenring","lat":50.839952,"lng":8.746426,"lines":null,"url":null},{"name":"Marburg Friedhof","lat":50.806963,"lng":8.746718,"lines":null,"url":null},{"name":"Lahntal-Goßfelden Brunnenquell","lat":50.859668,"lng":8.747399,"lines":null,"url":null},{"name":"Marburg-Marbach Behringwerke","lat":50.820845,"lng":8.747906,"lines":null,"url":null},{"name":"Marburg Stiftstraße","lat":50.801392,"lng":8.747954,"lines":null,"url":null},{"name":"Marburg-Gisselberg Wendeschleife","lat":50.771894,"lng":8.748179,"lines":null,"url":null},{"name":"Marburg Hohe Leuchte","lat":50.803327,"lng":8.748922,"lines":null,"url":null},{"name":"Marburg Elisabethenhof","lat":50.807489,"lng":8.748929,"lines":null,"url":null},{"name":"Marburg-Wehrda Ernst-Lemmer-Straße","lat":50.843987,"lng":8.74977,"lines":null,"url":null},{"name":"Marburg-Gisselberg Gießener Straße","lat":50.77291,"lng":8.750177,"lines":null,"url":null},{"name":"Marburg Zwetschenweg","lat":50.797533,"lng":8.75101,"lines":null,"url":null},{"name":"Marburg-Marbach Brunnenstraße","lat":50.816304,"lng":8.751734,"lines":null,"url":null},{"name":"Marburg Georg-Gaßmann-Stadion","lat":50.798561,"lng":8.752281,"lines":null,"url":null},{"name":"Marburg Stephan-Niderehe-Straße","lat":50.791334,"lng":8.752419,"lines":null,"url":null},{"name":"Marburg Georg-Gaßmann-Stadion/Feuerwehr","lat":50.796949,"lng":8.753349,"lines":null,"url":null},{"name":"Marburg-Wehrda Lärchenweg","lat":50.835527,"lng":8.753506,"lines":null,"url":null},{"name":"Marburg Taubenweg","lat":50.802573,"lng":8.753537,"lines":null,"url":null},{"name":"Marburg Am Herrenfeld","lat":50.795571,"lng":8.754155,"lines":null,"url":null},{"name":"Marburg-Wehrda Magdeburger Straße","lat":50.844095,"lng":8.754227,"lines":null,"url":null},{"name":"Marburg Bachweg","lat":50.799976,"lng":8.75433,"lines":null,"url":null},{"name":"Marburg-Ronhausen","lat":50.755904,"lng":8.755524,"lines":null,"url":null},{"name":"Marburg An der Haustatt","lat":50.816061,"lng":8.755608,"lines":null,"url":null},{"name":"Marburg Am Krekel/Stadtwerke","lat":50.789228,"lng":8.755705,"lines":null,"url":null},{"name":"Marburg Calvinstraße","lat":50.806586,"lng":8.755743,"lines":null,"url":null},{"name":"Marburg-Wehrda Am Kornacker","lat":50.840971,"lng":8.756217,"lines":null,"url":null},{"name":"Marburg Köhlersgrundgasse","lat":50.812368,"lng":8.756366,"lines":null,"url":null},{"name":"Marburg Stadtwerke P+R","lat":50.791729,"lng":8.756841,"lines":null,"url":null},{"name":"Marburg Willy-Mock-Straße","lat":50.794481,"lng":8.757054,"lines":null,"url":null},{"name":"Marburg-Wehrda Auf dem Schaumrück","lat":50.838267,"lng":8.75714,"lines":null,"url":null},{"name":"Marburg-Wehrda Bürgerhaus","lat":50.836191,"lng":8.757335,"lines":null,"url":null},{"name":"Marburg-Cappel Steinmühle Schule","lat":50.770691,"lng":8.757768,"lines":null,"url":null},{"name":"Marburg Wannkopfstraße","lat":50.818151,"lng":8.758152,"lines":null,"url":null},{"name":"Marburg Gisonenweg","lat":50.808525,"lng":8.758755,"lines":null,"url":null},{"name":"Marburg Wilhelmsplatz","lat":50.804754,"lng":8.759039,"lines":null,"url":null},{"name":"Marburg-Wehrda Mengelsgasse","lat":50.836636,"lng":8.759363,"lines":null,"url":null},{"name":"Marburg Radestraße","lat":50.801228,"lng":8.759913,"lines":null,"url":null},{"name":"Marburg Herder-Institut","lat":50.808587,"lng":8.76068,"lines":null,"url":null},{"name":"Marburg Gisselberger Straße","lat":50.796674,"lng":8.761255,"lines":null,"url":null},{"name":"Marburg Sybelstraße","lat":50.806607,"lng":8.761559,"lines":null,"url":null},{"name":"Marburg Südbahnhof-West","lat":50.794971,"lng":8.761813,"lines":null,"url":null},{"name":"Marburg-Wehrda Diakonie-Krankenhaus","lat":50.832515,"lng":8.76191,"lines":null,"url":null},{"name":"Marburg Frankfurter Straße/Theater","lat":50.79885,"lng":8.761953,"lines":null,"url":null},{"name":"Marburg-Wehrda Diakonie-Hebronberg","lat":50.830052,"lng":8.762065,"lines":null,"url":null},{"name":"Marburg Schulze Berg","lat":50.826234,"lng":8.763049,"lines":null,"url":null},{"name":"Marburg Turnergarten","lat":50.807963,"lng":8.763194,"lines":null,"url":null},{"name":"Marburg-Cappel Umgebungsstr./Steinmühlenweg","lat":50.772932,"lng":8.763328,"lines":null,"url":null},{"name":"Marburg Südbahnhof","lat":50.794871,"lng":8.763548,"lines":null,"url":null},{"name":"Marburg Philippshaus","lat":50.80645,"lng":8.763943,"lines":null,"url":null},{"name":"Marburg Carl-Duisberg-Haus","lat":50.809507,"lng":8.764113,"lines":null,"url":null},{"name":"Marburg-Cappel Zum Neuen Hieb","lat":50.771033,"lng":8.764334,"lines":null,"url":null},{"name":"Marburg Wehrdaer Weg","lat":50.82008,"lng":8.764939,"lines":null,"url":null},{"name":"Marburg-Cappel Umgehungsstraße/Im Rudert","lat":50.783305,"lng":8.765109,"lines":null,"url":null},{"name":"Marburg Friedrichstraße","lat":50.801464,"lng":8.765259,"lines":null,"url":null},{"name":"Marburg Liebigstraße","lat":50.8058,"lng":8.76527,"lines":null,"url":null},{"name":"Marburg-Cappel Umgehungsstr./Zur Aue","lat":50.780119,"lng":8.765419,"lines":null,"url":null},{"name":"Marburg Konrad-Adenauer-Brücke","lat":50.79661,"lng":8.765582,"lines":null,"url":null},{"name":"Marburg-Cappel Zuckerberg","lat":50.774695,"lng":8.765648,"lines":null,"url":null},{"name":"Marburg-Cappel Umgehungsstraße/Lidl","lat":50.785836,"lng":8.765702,"lines":null,"url":null},{"name":"Marburg Schloss","lat":50.809915,"lng":8.765898,"lines":null,"url":null},{"name":"Marburg Wilhelm-Roser-Straße","lat":50.814078,"lng":8.766275,"lines":null,"url":null},{"name":"Marburg-Wehrda Lahnwerkstätten","lat":50.8435,"lng":8.766511,"lines":null,"url":null},{"name":"Marburg Kult-Discothek","lat":50.790261,"lng":8.76663,"lines":null,"url":null},{"name":"Marburg Am Plan","lat":50.807903,"lng":8.766632,"lines":null,"url":null},{"name":"Marburg-Wehrda Tom-Mutters-Straße","lat":50.842274,"lng":8.767237,"lines":null,"url":null},{"name":"Marburg Stadtbüro","lat":50.789432,"lng":8.767574,"lines":null,"url":null},{"name":"Marburg-Cappel Schubertstraße","lat":50.785881,"lng":8.767677,"lines":null,"url":null},{"name":"Marburg-Cappel Cappeler Gleiche","lat":50.769224,"lng":8.767703,"lines":null,"url":null},{"name":"Marburg-Wehrda Einkaufszentrum","lat":50.840788,"lng":8.767817,"lines":null,"url":null},{"name":"Marburg-Cappel August-Bebel-Platz","lat":50.778034,"lng":8.767886,"lines":null,"url":null},{"name":"Marburg-Wehrda Messeplatz P+R","lat":50.833148,"lng":8.768039,"lines":null,"url":null},{"name":"Marburg-Cappel Paul-Natorp-Straße","lat":50.781469,"lng":8.768124,"lines":null,"url":null},{"name":"Marburg-Wehrda Am Kaufmarkt","lat":50.840205,"lng":8.768487,"lines":null,"url":null},{"name":"Marburg-Cappel Sommerstraße","lat":50.778988,"lng":8.768491,"lines":null,"url":null},{"name":"Marburg Elisabethstraße","lat":50.815773,"lng":8.768764,"lines":null,"url":null},{"name":"Marburg Rollwiesenweg","lat":50.794801,"lng":8.768767,"lines":null,"url":null},{"name":"Marburg Gutenbergstraße","lat":50.807048,"lng":8.768802,"lines":null,"url":null},{"name":"Marburg Hanno-Drechsler-Platz","lat":50.807053,"lng":8.768807,"lines":null,"url":null},{"name":"Marburg Afföllerstraße","lat":50.829383,"lng":8.768938,"lines":null,"url":null},{"name":"Marburg Körnerstraße","lat":50.7982,"lng":8.769091,"lines":null,"url":null},{"name":"Marburg Elisabethkirche","lat":50.814498,"lng":8.769352,"lines":null,"url":null},{"name":"Marburg Auf der Weide/AquaMar","lat":50.803963,"lng":8.769645,"lines":null,"url":null},{"name":"Marburg Steinweg/Elisabethkirche","lat":50.81425,"lng":8.769647,"lines":null,"url":null},{"name":"Marburg Afföller","lat":50.824692,"lng":8.769827,"lines":null,"url":null},{"name":"Marburg Garten des Gedenkens","lat":50.807194,"lng":8.770064,"lines":null,"url":null},{"name":"Marburg Bahnhofstraße","lat":50.816777,"lng":8.770117,"lines":null,"url":null},{"name":"Marburg Markt","lat":50.808935,"lng":8.770372,"lines":null,"url":null},{"name":"Marburg-Cappel Erich-Kästner-Schule","lat":50.781096,"lng":8.770395,"lines":null,"url":null},{"name":"Marburg Elisabethkirche (HNO)","lat":50.814532,"lng":8.771078,"lines":null,"url":null},{"name":"Marburg Parkhaus-Oberstadt","lat":50.811005,"lng":8.771582,"lines":null,"url":null},{"name":"Marburg Robert-Koch-Straße","lat":50.816408,"lng":8.771726,"lines":null,"url":null},{"name":"Marburg Schlosserstraße","lat":50.82546,"lng":8.771753,"lines":null,"url":null},{"name":"Marburg Alte Universität","lat":50.807751,"lng":8.771782,"lines":null,"url":null},{"name":"Marburg Friedrich-Ebert-Straße","lat":50.788793,"lng":8.771803,"lines":null,"url":null},{"name":"Marburg Schulstraße","lat":50.80599,"lng":8.771805,"lines":null,"url":null},{"name":"Marburg Hauptbahnhof ZOB","lat":50.819604,"lng":8.772175,"lines":null,"url":null},{"name":"Cölbe PAF-Discothek","lat":50.8486,"lng":8.77225,"lines":null,"url":null},{"name":"Marburg An der Schanze","lat":50.797055,"lng":8.772274,"lines":null,"url":null},{"name":"Marburg Zimmermannstraße","lat":50.821677,"lng":8.772566,"lines":null,"url":null},{"name":"Marburg Rudolphsplatz","lat":50.808769,"lng":8.772657,"lines":null,"url":null},{"name":"Marburg Neues Forum","lat":50.829013,"lng":8.772971,"lines":null,"url":null},{"name":"Marburg Siemensstraße","lat":50.834159,"lng":8.773254,"lines":null,"url":null},{"name":"Marburg AquaMar","lat":50.80139,"lng":8.773445,"lines":null,"url":null},{"name":"Marburg-Cappel Kreishaus","lat":50.786432,"lng":8.773545,"lines":null,"url":null},{"name":"Marburg-Bortshausen Zum Sportplatz","lat":50.752057,"lng":8.773597,"lines":null,"url":null},{"name":"Marburg Försterweg","lat":50.825859,"lng":8.773624,"lines":null,"url":null},{"name":"Marburg-Cappel Am Teich","lat":50.778432,"lng":8.773654,"lines":null,"url":null},{"name":"Marburg Hauptbahnhof","lat":50.819257,"lng":8.774007,"lines":null,"url":null},{"name":"Marburg Bunsenstraße","lat":50.813823,"lng":8.774009,"lines":null,"url":null},{"name":"Marburg Bahnhof","lat":50.818849,"lng":8.774084,"lines":null,"url":null},{"name":"Marburg Erwin-Piscator-Haus","lat":50.810399,"lng":8.77438,"lines":null,"url":null},{"name":"Marburg (Fernbus)","lat":50.817312,"lng":8.774489,"lines":null,"url":null},{"name":"Marburg Ginseldorfer Weg","lat":50.828397,"lng":8.77506,"lines":null,"url":null},{"name":"Marburg-Cappel Raiffeisenstraße","lat":50.784035,"lng":8.775131,"lines":null,"url":null},{"name":"Marburg Reichwein-Schule","lat":50.800549,"lng":8.77542,"lines":null,"url":null},{"name":"Marburg Erlenring","lat":50.807794,"lng":8.775428,"lines":null,"url":null},{"name":"Marburg Alte Kasseler Straße","lat":50.822762,"lng":8.775626,"lines":null,"url":null},{"name":"Marburg Volkshochschule","lat":50.812883,"lng":8.775631,"lines":null,"url":null},{"name":"Marburg Savignystraße","lat":50.810942,"lng":8.776264,"lines":null,"url":null},{"name":"Marburg Ortenbergcenter","lat":50.815922,"lng":8.776397,"lines":null,"url":null},{"name":"Marburg Damaschkeweg","lat":50.787409,"lng":8.776476,"lines":null,"url":null},{"name":"Cölbe Sägewerk","lat":50.847002,"lng":8.776727,"lines":null,"url":null},{"name":"Marburg Leipziger Straße","lat":50.792641,"lng":8.776735,"lines":null,"url":null},{"name":"Cölbe Ringstraße","lat":50.8502,"lng":8.77692,"lines":null,"url":null},{"name":"Marburg-Bortshausen Bürgerhaus","lat":50.750279,"lng":8.777002,"lines":null,"url":null},{"name":"Cölbe Grüne Bette","lat":50.8533,"lng":8.77717,"lines":null,"url":null},{"name":"Marburg-Cappel Rentmeisterstraße","lat":50.783924,"lng":8.777797,"lines":null,"url":null},{"name":"Marburg Hbf Ost/Ortenbergsteg","lat":50.819332,"lng":8.777913,"lines":null,"url":null},{"name":"Marburg Berliner Straße","lat":50.789066,"lng":8.778113,"lines":null,"url":null},{"name":"Marburg St.-Martin-Straße","lat":50.828268,"lng":8.778126,"lines":null,"url":null},{"name":"Marburg Am Richtsberg","lat":50.792797,"lng":8.778308,"lines":null,"url":null},{"name":"Marburg Geschwister-Scholl-Straße","lat":50.823019,"lng":8.778449,"lines":null,"url":null},{"name":"Marburg Studentendorf","lat":50.824592,"lng":8.778626,"lines":null,"url":null},{"name":"Marburg-Cappel Sohlgraben","lat":50.776051,"lng":8.778826,"lines":null,"url":null},{"name":"Marburg Kurt-Schumacher-Brücke","lat":50.806686,"lng":8.778952,"lines":null,"url":null},{"name":"Marburg Chr.-Wolff-Haus","lat":50.78549,"lng":8.779207,"lines":null,"url":null},{"name":"Marburg Wittenberger Weg","lat":50.790192,"lng":8.779327,"lines":null,"url":null},{"name":"Marburg-Cappel Moischter Straße","lat":50.773985,"lng":8.779474,"lines":null,"url":null},{"name":"Marburg Kantstraße","lat":50.798463,"lng":8.779742,"lines":null,"url":null},{"name":"Marburg Ludwig-Schüler-Park","lat":50.812522,"lng":8.780017,"lines":null,"url":null},{"name":"Cölbe Kiesebachweg","lat":50.856,"lng":8.78025,"lines":null,"url":null},{"name":"Marburg Ortenbergplatz","lat":50.81744,"lng":8.780505,"lines":null,"url":null},{"name":"Marburg Universitäts-Bibliothek","lat":50.808761,"lng":8.780825,"lines":null,"url":null},{"name":"Marburg-Cappel Königsberger Straße","lat":50.776424,"lng":8.781221,"lines":null,"url":null},{"name":"Marburg-Cappel Neuer Friedhof","lat":50.773422,"lng":8.781504,"lines":null,"url":null},{"name":"Marburg Karlsbader Weg","lat":50.794556,"lng":8.781704,"lines":null,"url":null},{"name":"Marburg-Cappel Reinhardswaldstraße","lat":50.774244,"lng":8.781765,"lines":null,"url":null},{"name":"Marburg Weintrautstraße","lat":50.804355,"lng":8.781786,"lines":null,"url":null},{"name":"Marburg Hans-Sachs-Straße","lat":50.819277,"lng":8.781873,"lines":null,"url":null},{"name":"Marburg Eisenacher Weg","lat":50.79275,"lng":8.781996,"lines":null,"url":null},{"name":"Cölbe Gemeindehalle","lat":50.8516,"lng":8.78236,"lines":null,"url":null},{"name":"Cölbe Am Friedhof","lat":50.855568,"lng":8.783039,"lines":null,"url":null},{"name":"Marburg Blitzweg","lat":50.813203,"lng":8.783334,"lines":null,"url":null},{"name":"Marburg Alter Kirchhainer Weg","lat":50.806416,"lng":8.783464,"lines":null,"url":null},{"name":"Cölbe Kirchweg","lat":50.84831,"lng":8.78348,"lines":null,"url":null},{"name":"Marburg Kleine Ortenberggasse","lat":50.809851,"lng":8.783775,"lines":null,"url":null},{"name":"Marburg Tabor","lat":50.819712,"lng":8.784098,"lines":null,"url":null},{"name":"Cölbe An der Kirche","lat":50.849,"lng":8.78413,"lines":null,"url":null},{"name":"Marburg Sudetenstraße","lat":50.794768,"lng":8.784369,"lines":null,"url":null},{"name":"Marburg Erfurter Straße","lat":50.792084,"lng":8.784462,"lines":null,"url":null},{"name":"Cölbe Feuerwehr","lat":50.8494,"lng":8.78454,"lines":null,"url":null},{"name":"Marburg Brüder-Grimm-Straße","lat":50.79902,"lng":8.78469,"lines":null,"url":null},{"name":"Cölbe Am Steinbruch","lat":50.8504,"lng":8.78499,"lines":null,"url":null},{"name":"Marburg Christa-Czempiel-Platz","lat":50.792917,"lng":8.78503,"lines":null,"url":null},{"name":"Cölbe Hebertstraße","lat":50.852,"lng":8.78599,"lines":null,"url":null},{"name":"Marburg Zahlbach","lat":50.805432,"lng":8.786221,"lines":null,"url":null},{"name":"Cölbe Bahnhof","lat":50.848513,"lng":8.786532,"lines":null,"url":null},{"name":"Cölbe Polizei","lat":50.8504,"lng":8.78735,"lines":null,"url":null},{"name":"Marburg Fähnrichsweg","lat":50.804078,"lng":8.787589,"lines":null,"url":null},{"name":"Ebsdorfergrund-Beltershausen Frauenberg Seebode","lat":50.7592,"lng":8.78762,"lines":null,"url":null},{"name":"Marburg Sonnenblickallee","lat":50.795044,"lng":8.787687,"lines":null,"url":null},{"name":"Marburg Fontanestraße","lat":50.801027,"lng":8.78845,"lines":null,"url":null},{"name":"Marburg Hölderlinstraße","lat":50.799676,"lng":8.789425,"lines":null,"url":null},{"name":"Marburg Pommernweg","lat":50.792226,"lng":8.790266,"lines":null,"url":null},{"name":"Marburg Potsdamer Straße/In der Badestube","lat":50.795924,"lng":8.792448,"lines":null,"url":null},{"name":"Ebsdorfergrund-Beltershausen Frauenberg Brunet","lat":50.76,"lng":8.79422,"lines":null,"url":null},{"name":"Marburg Potsdamer Straße/Auf dem Berg","lat":50.797159,"lng":8.794258,"lines":null,"url":null},{"name":"Marburg-Moischt Hof Capelle","lat":50.771571,"lng":8.802139,"lines":null,"url":null},{"name":"Marburg Sonnenblick","lat":50.799054,"lng":8.804151,"lines":null,"url":null},{"name":"Marburg Botanischer Garten","lat":50.804927,"lng":8.805587,"lines":null,"url":null},{"name":"Marburg Universitätsklinikum","lat":50.816455,"lng":8.805677,"lines":null,"url":null},{"name":"Cölbe-Bernsdorf","lat":50.861347,"lng":8.806116,"lines":null,"url":null},{"name":"Marburg Amöneburger Straße","lat":50.797856,"lng":8.807531,"lines":null,"url":null},{"name":"Marburg Hans-Meerwein-Straße","lat":50.812041,"lng":8.807743,"lines":null,"url":null},{"name":"Marburg-Moischt Hahnerheide","lat":50.77312,"lng":8.809249,"lines":null,"url":null},{"name":"Ebsdorfergrund-Beltershausen Bürgerhaus","lat":50.7589,"lng":8.81128,"lines":null,"url":null},{"name":"Marburg-Moischt Bürgerhaus","lat":50.774126,"lng":8.814221,"lines":null,"url":null},{"name":"Marburg-Schröck Brunnen","lat":50.791166,"lng":8.817529,"lines":null,"url":null},{"name":"Cölbe-Bürgeln Bahnhof","lat":50.85324,"lng":8.817922,"lines":null,"url":null},{"name":"Marburg-Ginseldorf Von-Keitz-Straße","lat":50.841043,"lng":8.818708,"lines":null,"url":null},{"name":"Marburg-Ginseldorf Backhaus","lat":50.841098,"lng":8.818963,"lines":null,"url":null},{"name":"Marburg-Ginseldorf Friedhof","lat":50.838973,"lng":8.819274,"lines":null,"url":null},{"name":"Marburg-Moischt Hirtengarten","lat":50.77436,"lng":8.820458,"lines":null,"url":null},{"name":"Marburg-Moischt Kindergarten","lat":50.773615,"lng":8.821311,"lines":null,"url":null},{"name":"Cölbe-Bürgeln Grundschule","lat":50.855062,"lng":8.821693,"lines":null,"url":null},{"name":"Marburg-Bauerbach Schule","lat":50.820884,"lng":8.823572,"lines":null,"url":null},{"name":"Cölbe-Bürgeln Rennweg","lat":50.856117,"lng":8.823677,"lines":null,"url":null},{"name":"Marburg-Bauerbach Wäldchen","lat":50.821878,"lng":8.826847,"lines":null,"url":null},{"name":"Marburg-Schröck Schule","lat":50.786255,"lng":8.827786,"lines":null,"url":null},{"name":"Marburg-Bauerbach Bauerbacherstraße","lat":50.816154,"lng":8.828471,"lines":null,"url":null},{"name":"Marburg-Bauerbach Bürgerhaus","lat":50.819356,"lng":8.829552,"lines":null,"url":null},{"name":"Marburg-Schröck Balzer","lat":50.78286,"lng":8.829656,"lines":null,"url":null},{"name":"Marburg-Schröck Himbornstraße","lat":50.784226,"lng":8.829779,"lines":null,"url":null},{"name":"Marburg-Schröck Am schwarzen Born","lat":50.787517,"lng":8.829994,"lines":null,"url":null},{"name":"Marburg-Schröck Bürgerhaus","lat":50.785135,"lng":8.830371,"lines":null,"url":null},{"name":"Marburg-Schröck Heljehaus","lat":50.787583,"lng":8.832433,"lines":null,"url":null},{"name":"Marburg-Schröck Reutergasse","lat":50.786663,"lng":8.833623,"lines":null,"url":null},{"name":"Ebsdorfergrund-Heskem Kirchhainer Straße","lat":50.745304,"lng":8.834236,"lines":null,"url":null},{"name":"Ebsdorfergrund-Heskem Dorfmittelpunkt","lat":50.743724,"lng":8.835446,"lines":null,"url":null},{"name":"Ebsdorfergrund-Heskem Tulpenweg","lat":50.742683,"lng":8.837065,"lines":null,"url":null},{"name":"Ebsdorfergrund-Heskem Schule","lat":50.740993,"lng":8.839809,"lines":null,"url":null},{"name":"Kirchhain-Betziesdorf Lahnstraße","lat":50.860559,"lng":8.846332,"lines":null,"url":null}],"gauges":[{"id":135,"name":"Marburg","lat":50.798719,"lng":8.764489}],"depth_map":null}},"country":"DE","last_updated":"2026-05-05T19:52:07.312Z","error":false}