{"id":12194,"slug":"lahn-bei-nassau","url":"https://www.hejfish.com/d/12194-lahn-bei-nassau","name":"Lahn bei Nassau","description":"","water_size_ha":null,"fish":["AalFlussbarschHechtKarpfenRapfenSchleieBrasseWelsZanderForelleNase"],"techniques":["AnsitzangelnFliegenfischen"],"properties":["kein Boot\nKein Nachtfischen\nTechniken:\nAnsitzangelnFliegenfischen"],"season":null,"water_type":null,"rules_text":"","mobile_ticket":false,"print_required":true,"tickets":[],"manager":null,"main_image":null,"location_info":["Rheinland-Pfalz","Rhein-Lahn-Kreis"],"lat":null,"lng":null,"geocode_source":null,"map_data":{"data":{"id":12194,"geojson":[],"locations":[{"lat":50.307496,"lng":7.831388},{"lat":50.315931,"lng":7.775517},{"lat":50.302666,"lng":7.83133},{"lat":50.315709,"lng":7.775706}],"stations":[{"name":"Singhofen Bubenborn/Awz","lat":50.29377,"lng":7.819924,"lines":null,"url":null},{"name":"Dienethal West","lat":50.303663,"lng":7.774991,"lines":null,"url":null},{"name":"Nassau (Lahn) Scheuern Kindergarten","lat":50.304576,"lng":7.793694,"lines":null,"url":null},{"name":"Dienethal Ost","lat":50.305516,"lng":7.783749,"lines":null,"url":null},{"name":"Nassau (Lahn) Bergnassau Haus Lahnberg","lat":50.306153,"lng":7.797251,"lines":null,"url":null},{"name":"Nassau (Lahn) Bergnassau Mühlbachtal","lat":50.306188,"lng":7.796901,"lines":null,"url":null},{"name":"Nassau (Lahn) Scheuern Hirtenberg","lat":50.306543,"lng":7.788223,"lines":null,"url":null},{"name":"Misselberg Taunusstr.","lat":50.306911,"lng":7.769762,"lines":null,"url":null},{"name":"Nassau (Lahn) Elisenhütte","lat":50.307198,"lng":7.826788,"lines":null,"url":null},{"name":"Nassau (Lahn) Scheuern Am Sauerborn","lat":50.307525,"lng":7.79125,"lines":null,"url":null},{"name":"Nassau (Lahn) Scheuern Brückenstr.","lat":50.307961,"lng":7.791502,"lines":null,"url":null},{"name":"Nassau (Lahn) Schulzentrum","lat":50.311242,"lng":7.798535,"lines":null,"url":null},{"name":"Nassau (Lahn) Bf","lat":50.311477,"lng":7.800682,"lines":null,"url":null},{"name":"Nassau (Lahn) Amtsstr.","lat":50.312424,"lng":7.798059,"lines":null,"url":null},{"name":"Nassau (Lahn) Emser Str.","lat":50.315814,"lng":7.795059,"lines":null,"url":null},{"name":"Nassau (Lahn) Grundschule","lat":50.315883,"lng":7.802937,"lines":null,"url":null},{"name":"Weinähr Miedziankit","lat":50.319336,"lng":7.838016,"lines":null,"url":null}],"gauges":[{"id":127,"name":"Cramberg Schleuse OP","lat":50.342655,"lng":7.955811},{"id":128,"name":"Cramberg Schleuse UP","lat":50.34282,"lng":7.955217},{"id":129,"name":"Scheidt Schleuse OP","lat":50.337613,"lng":7.929587},{"id":130,"name":"Scheidt Schleuse UP","lat":50.337311,"lng":7.929973},{"id":131,"name":"Kalkofen Schleuse OP","lat":50.314072,"lng":7.89635},{"id":132,"name":"Kalkofen Neu","lat":50.317832,"lng":7.889816},{"id":133,"name":"Hollerich Schleuse OP","lat":50.30472,"lng":7.833037},{"id":134,"name":"Hollerich Schleuse UP","lat":50.304568,"lng":7.833097},{"id":136,"name":"Nassau Schleuse OP","lat":50.317103,"lng":7.788009},{"id":137,"name":"Dausenau Schleuse OP","lat":50.321436,"lng":7.743761},{"id":138,"name":"Dausenau Schleuse UP","lat":50.321143,"lng":7.743333},{"id":139,"name":"Bad Ems Wehr OP","lat":50.331878,"lng":7.710901},{"id":140,"name":"Bad Ems Schleuse UP","lat":50.335097,"lng":7.696354}],"depth_map":null}},"country":"DE","last_updated":"2026-05-05T19:54:04.943Z","error":false}