{"id":12293,"slug":"grosse-hase","url":"https://www.hejfish.com/d/12293-grosse-hase","name":"Große Hase","description":"","water_size_ha":null,"fish":["AalAlandBrasseFlussbarschKarpfenKaulbarschDöbelRotaugeRotfederZanderWels"],"techniques":["AnsitzangelnFliegenfischen… mehr"],"properties":["Boot\nNachtfischen\nTechniken:\nAnsitzangelnFliegenfischen… mehr"],"season":null,"water_type":null,"rules_text":"","mobile_ticket":false,"print_required":true,"tickets":[],"manager":null,"main_image":null,"location_info":["Niedersachsen","Kreis Osnabrück"],"lat":null,"lng":null,"geocode_source":null,"map_data":{"data":{"id":12293,"geojson":[],"locations":[{"lat":52.649685,"lng":8.002173},{"lat":52.697178,"lng":7.969713}],"stations":[{"name":"Badbergen Zur Schmiede","lat":52.642047,"lng":7.981718,"lines":null,"url":null},{"name":"Badbergen Brunswinkel","lat":52.650346,"lng":7.978392,"lines":null,"url":null},{"name":"Lechterke Sünnhagen","lat":52.655873,"lng":7.976142,"lines":null,"url":null},{"name":"Lechterke Spiegel","lat":52.660884,"lng":7.972477,"lines":null,"url":null},{"name":"Wohld(Badbergen) Siedlung","lat":52.66313,"lng":8.003958,"lines":null,"url":null},{"name":"Wohld(Badbergen) Jürgens","lat":52.66426,"lng":7.995122,"lines":null,"url":null},{"name":"Wohld(Badbergen) Schlarmann","lat":52.669116,"lng":8.006609,"lines":null,"url":null},{"name":"Quakenbrück Ärztezentrum Wohldstraße","lat":52.674694,"lng":7.987772,"lines":null,"url":null},{"name":"Wohld(Quakenbrück) Trentlage","lat":52.674748,"lng":8.00725,"lines":null,"url":null},{"name":"Wohld(Quakenbrück) Kramersweg","lat":52.676035,"lng":7.995738,"lines":null,"url":null},{"name":"Quakenbrück Abzw.Schützenhof","lat":52.676495,"lng":7.973796,"lines":null,"url":null},{"name":"Quakenbrück Feriendorf","lat":52.676582,"lng":7.98076,"lines":null,"url":null},{"name":"Quakenbrück Schulzentrum","lat":52.677787,"lng":7.96428,"lines":null,"url":null},{"name":"Quakenbrück Schubertstraße","lat":52.679195,"lng":7.969001,"lines":null,"url":null},{"name":"Quakenbrück Bremer Straße","lat":52.681271,"lng":7.961654,"lines":null,"url":null},{"name":"Quakenbrück Ligusterstraße","lat":52.682644,"lng":7.967566,"lines":null,"url":null},{"name":"Quakenbrück Groß Hartlage","lat":52.6851,"lng":7.967848,"lines":null,"url":null},{"name":"Quakenbrück Geschw.-Scholl-Straße","lat":52.686032,"lng":7.969645,"lines":null,"url":null},{"name":"Uptloh Gravenhorst","lat":52.694023,"lng":7.993853,"lines":null,"url":null},{"name":"Uptloh Wulfenauer Straße","lat":52.703546,"lng":8.006064,"lines":null,"url":null}],"gauges":[],"depth_map":null}},"country":"DE","last_updated":"2026-05-05T19:54:59.158Z","error":false}