{"id":12364,"slug":"grosse-aue","url":"https://www.hejfish.com/d/12364-grosse-aue","name":"Große Aue","description":"","water_size_ha":null,"fish":["Div. WeißfischeBrasseRotaugeRotfederDöbelAlandGründlingHechtZanderFlussbarschAalQuappeSchleieKarpfen"],"techniques":["AnsitzangelnFliegenfischen… mehr"],"properties":["kein Boot\nKein Nachtfischen\nTechniken:\nAnsitzangelnFliegenfischen… mehr"],"season":null,"water_type":null,"rules_text":"","mobile_ticket":false,"print_required":true,"tickets":[],"manager":null,"main_image":null,"location_info":["Niedersachsen","Kreis Diepholz"],"lat":null,"lng":null,"geocode_source":null,"map_data":{"data":{"id":12364,"geojson":[],"locations":[{"lat":52.612137,"lng":8.777929},{"lat":52.620421,"lng":8.83263}],"stations":[{"name":"Barenburg Abzw. Scharringhausen","lat":52.608302,"lng":8.807582,"lines":null,"url":null},{"name":"Barenburg Auf der Schweineinsel","lat":52.614619,"lng":8.798875,"lines":null,"url":null},{"name":"Barenburg Mitte","lat":52.619386,"lng":8.799676,"lines":null,"url":null},{"name":"Barenburg Bahnhofstraße","lat":52.621903,"lng":8.797696,"lines":null,"url":null},{"name":"Barenburg Meyer","lat":52.624575,"lng":8.785208,"lines":null,"url":null},{"name":"Barenburg Abzw. Bahnhof","lat":52.628432,"lng":8.777955,"lines":null,"url":null},{"name":"Barenburg Munterburg","lat":52.628507,"lng":8.802854,"lines":null,"url":null}],"gauges":[],"depth_map":null}},"country":"DE","last_updated":"2026-05-05T19:56:32.109Z","error":false}