{"id":12365,"slug":"kleine-aue","url":"https://www.hejfish.com/d/12365-kleine-aue","name":"Kleine Aue","description":"Deutschland, Österreich, Niederlande","water_size_ha":null,"fish":[],"techniques":["Div. Weißfische","Div. Weißfische","Brasse","Brasse","Rotauge","Rotauge","Rotfeder","Rotfeder","Döbel","Döbel","Aland","Aland","Gründling","Gründling","Hecht","Hecht","Zander","Zander","Flussbarsch","Flussbarsch","Aal","Aal","Quappe","Quappe","Schleie","Schleie","Karpfen","Karpfen"],"properties":["Div. Weißfische","Div. Weißfische","Brasse","Brasse","Rotauge","Rotauge","Rotfeder","Rotfeder","Döbel","Döbel","Aland","Aland","Gründling","Gründling","Hecht","Hecht","Zander","Zander","Flussbarsch","Flussbarsch","Aal","Aal","Quappe","Quappe","Schleie","Schleie","Karpfen","Karpfen"],"tickets":[],"manager":null,"lat":52.629276,"lng":8.774872,"geocode_source":"hejfish_api_map","map_data":{"id":12365,"geojson":[],"locations":[{"lat":52.629276,"lng":8.774872},{"lat":52.615586,"lng":8.795105}],"stations":[{"name":"Barenburg Auf der Schweineinsel","lat":52.614619,"lng":8.798875,"lines":null,"url":null},{"name":"Barenburg Mitte","lat":52.619386,"lng":8.799676,"lines":null,"url":null},{"name":"Barenburg Bahnhofstraße","lat":52.621903,"lng":8.797696,"lines":null,"url":null},{"name":"Barenburg Meyer","lat":52.624575,"lng":8.785208,"lines":null,"url":null},{"name":"Barenburg Abzw. Bahnhof","lat":52.628432,"lng":8.777955,"lines":null,"url":null},{"name":"Barenburg Munterburg","lat":52.628507,"lng":8.802854,"lines":null,"url":null}],"gauges":[],"depth_map":null},"last_updated":"2026-05-06T18:12:00.712Z","error":false}