{"id":12388,"slug":"fulda","url":"https://www.hejfish.com/d/12388-fulda","name":"Fulda","description":"","water_size_ha":null,"fish":["Div. WeißfischeHechtZanderKarpfenSchleieForelleBrasseAalFlussbarsch"],"techniques":["AnsitzangelnFliegenfischen… mehr"],"properties":["kein Boot\nKein Nachtfischen\nÖffis\nTechniken:\nAnsitzangelnFliegenfischen… mehr"],"season":null,"water_type":null,"rules_text":"","mobile_ticket":false,"print_required":true,"tickets":[],"manager":null,"main_image":null,"location_info":["Hessen","Kreis Fulda"],"lat":49.9947008,"lng":8.2232584,"geocode_source":"nominatim","map_data":{"data":{"id":12388,"geojson":[],"locations":[{"lat":50.547674,"lng":9.667343},{"lat":50.560984,"lng":9.660587}],"stations":[{"name":"Fulda-Galerie Mondrianplatz","lat":50.539053,"lng":9.65079,"lines":null,"url":null},{"name":"Fulda Brüder-Grimm-Schule","lat":50.556488,"lng":9.650924,"lines":null,"url":null},{"name":"Fulda Hartungstraße","lat":50.570834,"lng":9.652914,"lines":null,"url":null},{"name":"Fulda Kettelerstraße","lat":50.55284,"lng":9.652984,"lines":null,"url":null},{"name":"Fulda Schlitzer Straße","lat":50.567108,"lng":9.653611,"lines":null,"url":null},{"name":"Fulda Schannatstraße","lat":50.569054,"lng":9.654541,"lines":null,"url":null},{"name":"Fulda Abt-Richard-Straße","lat":50.550997,"lng":9.655547,"lines":null,"url":null},{"name":"Fulda Antoniusheim","lat":50.553749,"lng":9.657555,"lines":null,"url":null},{"name":"Fulda St.-Vinzenz-Straße","lat":50.557915,"lng":9.659298,"lines":null,"url":null},{"name":"Fulda Horas Zentrum","lat":50.564634,"lng":9.659386,"lines":null,"url":null},{"name":"Fulda Bardoschule","lat":50.550821,"lng":9.659622,"lines":null,"url":null},{"name":"Fulda Bonifatiushaus","lat":50.55139,"lng":9.660674,"lines":null,"url":null},{"name":"Fulda Dokkumstraße","lat":50.568751,"lng":9.661024,"lines":null,"url":null},{"name":"Fulda Horas Bonifatiusbrunnen","lat":50.565664,"lng":9.66163,"lines":null,"url":null},{"name":"Fulda Feuerwache","lat":50.547051,"lng":9.661671,"lines":null,"url":null},{"name":"Fulda Hainzeller Straße","lat":50.544108,"lng":9.662392,"lines":null,"url":null},{"name":"Fulda Horas Brücke","lat":50.561678,"lng":9.663132,"lines":null,"url":null},{"name":"Fulda Stadion","lat":50.539941,"lng":9.663194,"lines":null,"url":null},{"name":"Fulda An der Steingrube","lat":50.567365,"lng":9.665315,"lines":null,"url":null},{"name":"Fulda König-Konrad-Straße, Abzweig","lat":50.569785,"lng":9.665711,"lines":null,"url":null},{"name":"Fulda Birkenstieg","lat":50.559698,"lng":9.666689,"lines":null,"url":null},{"name":"Fulda Weimarer Straße","lat":50.55616,"lng":9.666803,"lines":null,"url":null},{"name":"Fulda Am Kronhof","lat":50.554507,"lng":9.669658,"lines":null,"url":null},{"name":"Fulda Hinterburg","lat":50.55501,"lng":9.669736,"lines":null,"url":null},{"name":"Fulda Aueweiher","lat":50.544094,"lng":9.670159,"lines":null,"url":null},{"name":"Fulda Abtstor","lat":50.552657,"lng":9.670817,"lines":null,"url":null},{"name":"Fulda Am Rosengarten","lat":50.54782,"lng":9.671784,"lines":null,"url":null},{"name":"Fulda Hornungsmühle","lat":50.5448,"lng":9.67184,"lines":null,"url":null},{"name":"Fulda Parkstraße","lat":50.5586,"lng":9.67271,"lines":null,"url":null},{"name":"Fulda Paulustor","lat":50.556124,"lng":9.672913,"lines":null,"url":null},{"name":"Fulda Dom","lat":50.553453,"lng":9.673129,"lines":null,"url":null},{"name":"Fulda Mackenrodtstraße","lat":50.566114,"lng":9.673357,"lines":null,"url":null},{"name":"Fulda Robert-Kircher-Straße","lat":50.550303,"lng":9.673747,"lines":null,"url":null},{"name":"Fulda Frauenberg","lat":50.560493,"lng":9.673926,"lines":null,"url":null},{"name":"Fulda Winfriedschule","lat":50.557123,"lng":9.674267,"lines":null,"url":null},{"name":"Fulda Löherstraße","lat":50.547849,"lng":9.674592,"lines":null,"url":null},{"name":"Fulda Löhertor","lat":50.546401,"lng":9.674699,"lines":null,"url":null},{"name":"Fulda Herz-Jesu-Krankenhaus","lat":50.562016,"lng":9.674781,"lines":null,"url":null},{"name":"Fulda RhönEnergie","lat":50.546116,"lng":9.674872,"lines":null,"url":null},{"name":"Fulda Hermann-Muth-Straße","lat":50.567508,"lng":9.674916,"lines":null,"url":null},{"name":"Fulda Am Eisweiher","lat":50.563875,"lng":9.675005,"lines":null,"url":null},{"name":"Fulda Martin-Luther-Platz","lat":50.543637,"lng":9.67605,"lines":null,"url":null},{"name":"Fulda Wallweg","lat":50.540013,"lng":9.676309,"lines":null,"url":null},{"name":"Fulda Adalbertstraße","lat":50.558509,"lng":9.676509,"lines":null,"url":null},{"name":"Fulda Stadtschloss","lat":50.553692,"lng":9.676843,"lines":null,"url":null},{"name":"Fulda Weserstraße","lat":50.537949,"lng":9.677168,"lines":null,"url":null}],"gauges":[],"depth_map":null}},"country":"DE","last_updated":"2026-05-05T19:56:43.435Z","error":false}