{"id":12426,"slug":"bade-teich","url":"https://www.hejfish.com/d/12426-bade-teich","name":"Bade Teich","description":"","water_size_ha":null,"fish":["KaulbarschHechtZanderWelsKarpfenSchleieDiv. Weißfische"],"techniques":["AnsitzangelnFliegenfischen… mehr"],"properties":["kein Boot\nNachtfischen\nTechniken:\nAnsitzangelnFliegenfischen… mehr"],"season":null,"water_type":null,"rules_text":"","mobile_ticket":false,"print_required":false,"tickets":[],"manager":null,"main_image":null,"location_info":["Niedersachsen","Region Hannover"],"lat":null,"lng":null,"geocode_source":null,"map_data":{"data":{"id":12426,"geojson":[],"locations":[{"lat":52.320127,"lng":9.772378}],"stations":[{"name":"Hannover Jugendgästehaus","lat":52.323412,"lng":9.767661,"lines":null,"url":null},{"name":"Hannover Wiehbergstraße","lat":52.328666,"lng":9.776689,"lines":null,"url":null},{"name":"Hannover Dorfstraße","lat":52.32765,"lng":9.779464,"lines":null,"url":null},{"name":"Hannover Claudiusstraße","lat":52.329012,"lng":9.782159,"lines":null,"url":null}],"gauges":[],"depth_map":null}},"country":"DE","last_updated":"2026-05-05T19:57:13.153Z","error":false}