{"id":12481,"slug":"weiher-3","url":"https://www.hejfish.com/d/12481-weiher-3","name":"Weiher 3","description":"","water_size_ha":null,"fish":["HechtZanderAalBarbeKarpfenSchleieNaseDiv. WeißfischeKaulbarschGiebel"],"techniques":["AnsitzangelnFliegenfischen… mehr"],"properties":["kein Boot\nKein Nachtfischen\nÖffis\nTechniken:\nAnsitzangelnFliegenfischen… mehr"],"season":null,"water_type":null,"rules_text":"","mobile_ticket":false,"print_required":true,"tickets":[],"manager":null,"main_image":null,"location_info":["Saarland","Regionalverband Saarbrücken"],"lat":null,"lng":null,"geocode_source":null,"map_data":{"data":{"id":12481,"geojson":[],"locations":[{"lat":49.223827,"lng":6.91225}],"stations":[{"name":"Annastr., Klarenthal Saarbrücken","lat":49.224964,"lng":6.903397,"lines":null,"url":null},{"name":"Neu-Aschbach, Gersweiler Saarbrücken","lat":49.231533,"lng":6.903504,"lines":null,"url":null},{"name":"Weidenstr., Klarenthal Saarbrücken","lat":49.22914,"lng":6.904498,"lines":null,"url":null},{"name":"Friedrichstr., Klarenthal Saarbrücken","lat":49.22591,"lng":6.907423,"lines":null,"url":null},{"name":"Am Ziegelhof, Klarenthal Saarbrücken","lat":49.226425,"lng":6.911508,"lines":null,"url":null},{"name":"Am Sprinkshaus, Gersweiler Saarbrücken","lat":49.22596,"lng":6.914687,"lines":null,"url":null},{"name":"K.-Weißgerber-Schule, Gersweiler Saarbrücken","lat":49.23055,"lng":6.921239,"lines":null,"url":null}],"gauges":[],"depth_map":null}},"country":"DE","last_updated":"2026-05-05T19:58:52.793Z","error":false}