{"id":12496,"slug":"ulmbach","url":"https://www.hejfish.com/d/12496-ulmbach","name":"Ulmbach","description":"","water_size_ha":null,"fish":["Bachforelle"],"techniques":["Fliegenfischen"],"properties":["kein Boot\nKein Nachtfischen\nÖffis\nTechniken:\nFliegenfischen"],"season":null,"water_type":null,"rules_text":"","mobile_ticket":false,"print_required":false,"tickets":[],"manager":null,"main_image":null,"location_info":["Hessen","Main-Kinzig-Kreis"],"lat":null,"lng":null,"geocode_source":null,"map_data":{"data":{"id":12496,"geojson":[],"locations":[{"lat":50.406351,"lng":9.395045},{"lat":50.350082,"lng":9.433786}],"stations":[{"name":"Freiensteinau-Fleschenbach DGH","lat":50.4043,"lng":9.39536,"lines":null,"url":null},{"name":"Steinau an der Straße-Sarrod Eichenwaldstraße","lat":50.350927,"lng":9.397755,"lines":null,"url":null},{"name":"Steinau an der Straße-Sarrod Huttengrundstraße","lat":50.352882,"lng":9.399232,"lines":null,"url":null},{"name":"Steinau an der Straße-Sarrod Falkenhof","lat":50.354907,"lng":9.40249,"lines":null,"url":null},{"name":"Freiensteinau-Holzmühl","lat":50.4147,"lng":9.41872,"lines":null,"url":null},{"name":"Steinau an der Straße-Ulmbach Gasthof Happ","lat":50.370487,"lng":9.42008,"lines":null,"url":null},{"name":"Steinau an der Straße-Ulmbach Umgehungsstraße","lat":50.370064,"lng":9.421543,"lines":null,"url":null},{"name":"Steinau an der Straße-Ulmbach Hollerstraße","lat":50.362451,"lng":9.422271,"lines":null,"url":null},{"name":"Steinau an der Straße-Ulmbach Hauptstraße","lat":50.368056,"lng":9.422467,"lines":null,"url":null},{"name":"Steinau an der Straße-Neustall Fleschenbacher Str.","lat":50.400485,"lng":9.424275,"lines":null,"url":null},{"name":"Steinau a.d.Str.-Ulmbach Bilzbergschule","lat":50.369246,"lng":9.425087,"lines":null,"url":null},{"name":"Steinau an der Straße-Neustall Am Heideküppel","lat":50.395589,"lng":9.42912,"lines":null,"url":null},{"name":"Steinau an der Straße-Uerzell Kirche","lat":50.393239,"lng":9.431593,"lines":null,"url":null},{"name":"Steinau an der Straße-Uerzell Ulmbacher Straße","lat":50.392014,"lng":9.432032,"lines":null,"url":null},{"name":"Steinau an der Straße-Uerzell Wannhof","lat":50.385991,"lng":9.43335,"lines":null,"url":null},{"name":"Steinau an der Straße-Uerzell Rodackerhaus","lat":50.388724,"lng":9.440419,"lines":null,"url":null}],"gauges":[],"depth_map":null}},"country":"DE","last_updated":"2026-05-05T19:59:04.596Z","error":false}