{"id":12516,"slug":"saar-bei-beckingen","url":"https://www.hejfish.com/d/12516-saar-bei-beckingen","name":"Saar bei Beckingen","description":"","water_size_ha":null,"fish":["AalWelsHechtZanderFlussbarschRapfenDöbelBarbeRotaugeKarpfenSchleieBrasse"],"techniques":["AnsitzangelnKarpfenangeln… mehr"],"properties":["kein Boot\nKein Nachtfischen\nTechniken:\nAnsitzangelnKarpfenangeln… mehr"],"season":null,"water_type":null,"rules_text":"","mobile_ticket":false,"print_required":true,"tickets":[],"manager":null,"main_image":null,"location_info":["Saarland","Kreis Merzig-Wadern"],"lat":null,"lng":null,"geocode_source":null,"map_data":{"data":{"id":12516,"geojson":[],"locations":[{"lat":49.375377,"lng":6.69919},{"lat":49.396417,"lng":6.665299}],"stations":[{"name":"Auf Dalen, Siersburg","lat":49.366823,"lng":6.65533,"lines":null,"url":null},{"name":"Abzw Eimersdorf, Siersburg","lat":49.369372,"lng":6.661683,"lines":null,"url":null},{"name":"Niedtalhalle, Siersburg","lat":49.366006,"lng":6.665176,"lines":null,"url":null},{"name":"Fliederstr., Saarfels Beckingen","lat":49.392066,"lng":6.671342,"lines":null,"url":null},{"name":"Kirche, Saarfels Beckingen","lat":49.394022,"lng":6.67198,"lines":null,"url":null},{"name":"Post, Saarfels Beckingen","lat":49.394479,"lng":6.672757,"lines":null,"url":null},{"name":"B51, Saarfels Beckingen","lat":49.389383,"lng":6.676127,"lines":null,"url":null},{"name":"Fischerstr., Rehlingen","lat":49.37963,"lng":6.676959,"lines":null,"url":null},{"name":"Poststr., Rehlingen","lat":49.377351,"lng":6.679037,"lines":null,"url":null},{"name":"Wallerfanger Str., Rehlingen","lat":49.374266,"lng":6.681772,"lines":null,"url":null},{"name":"Lothar-Kahn-Schule, Rehlingen","lat":49.377821,"lng":6.682748,"lines":null,"url":null},{"name":"Trewa-Sport, Rehlingen","lat":49.372528,"lng":6.683948,"lines":null,"url":null},{"name":"Grundschule, Rehlingen","lat":49.379819,"lng":6.685052,"lines":null,"url":null},{"name":"Industriegebiet, Rehlingen","lat":49.367299,"lng":6.686962,"lines":null,"url":null},{"name":"Bahnhof, Beckingen","lat":49.386625,"lng":6.688894,"lines":null,"url":null},{"name":"Beckingen (Saar)","lat":49.386778,"lng":6.690223,"lines":null,"url":null},{"name":"Bahnhofstr., Beckingen","lat":49.388026,"lng":6.694588,"lines":null,"url":null},{"name":"Fontaine, Beckingen","lat":49.385985,"lng":6.700968,"lines":null,"url":null},{"name":"Rathaus, Beckingen","lat":49.388,"lng":6.700998,"lines":null,"url":null},{"name":"Grundschule, Beckingen","lat":49.387572,"lng":6.701183,"lines":null,"url":null},{"name":"Brückenstr., Beckingen","lat":49.393394,"lng":6.701256,"lines":null,"url":null},{"name":"Gottlieb, Beckingen","lat":49.394086,"lng":6.701651,"lines":null,"url":null},{"name":"Sekundarschule/Kiga, Beckingen","lat":49.387675,"lng":6.702736,"lines":null,"url":null},{"name":"Orannastr., Beckingen","lat":49.391572,"lng":6.706454,"lines":null,"url":null},{"name":"Felsmühle, Beckingen","lat":49.381132,"lng":6.707106,"lines":null,"url":null},{"name":"Nikolausstr., Beckingen","lat":49.385369,"lng":6.708479,"lines":null,"url":null},{"name":"Jungmann, Beckingen","lat":49.39786,"lng":6.709166,"lines":null,"url":null}],"gauges":[{"id":232,"name":"Fremersdorf","lat":49.408935,"lng":6.648424},{"id":233,"name":"Rehlingen UP","lat":49.376259,"lng":6.699107},{"id":234,"name":"Lisdorf UP","lat":49.298685,"lng":6.764638}],"depth_map":null}},"country":"DE","last_updated":"2026-05-05T19:59:44.123Z","error":false}