{"id":12537,"slug":"sechs-seen-platte","url":"https://www.hejfish.com/d/12537-sechs-seen-platte","name":"Sechs Seen Platte","description":"","water_size_ha":null,"fish":["AalHechtZanderKarpfenFlussbarschDiv. WeißfischeWels"],"techniques":["AnsitzangelnKarpfenangeln… mehr"],"properties":["kein Boot\nNachtfischen\nTechniken:\nAnsitzangelnKarpfenangeln… mehr"],"season":null,"water_type":null,"rules_text":"","mobile_ticket":false,"print_required":false,"tickets":[],"manager":null,"main_image":null,"location_info":["Nordrhein-Westfalen","Duisburg"],"lat":null,"lng":null,"geocode_source":null,"map_data":{"data":{"id":12537,"geojson":[],"locations":[{"lat":51.3822,"lng":6.790885}],"stations":[{"name":"DU-Gesamtsch. Großenbaum","lat":51.376369,"lng":6.780888,"lines":null,"url":null},{"name":"Duisburg Unfallklinik","lat":51.380187,"lng":6.781723,"lines":null,"url":null},{"name":"Duisburg Neuapostol. Kirche","lat":51.387218,"lng":6.78175,"lines":null,"url":null},{"name":"Duisburg Neidenburger Straße","lat":51.388221,"lng":6.784454,"lines":null,"url":null},{"name":"Duisburg Am Golfplatz","lat":51.372679,"lng":6.784823,"lines":null,"url":null},{"name":"Duisburg Großenbaumer Allee","lat":51.391142,"lng":6.787086,"lines":null,"url":null},{"name":"Duisburg Am See","lat":51.390138,"lng":6.79403,"lines":null,"url":null},{"name":"Duisburg Wolfssee","lat":51.38548,"lng":6.799699,"lines":null,"url":null}],"gauges":[],"depth_map":null}},"country":"DE","last_updated":"2026-05-05T20:00:16.377Z","error":false}