{"id":12537,"slug":"sechs-seen-platte","url":"https://www.hejfish.com/d/12537-sechs-seen-platte","name":"Sechs Seen Platte","description":"Deutschland, Österreich, Niederlande","water_size_ha":null,"fish":[],"techniques":["Aal","Aal","Hecht","Hecht","Zander","Zander","Karpfen","Karpfen","Flussbarsch","Flussbarsch","Div. Weißfische","Div. Weißfische","Wels","Wels"],"properties":["Aal","Aal","Hecht","Hecht","Zander","Zander","Karpfen","Karpfen","Flussbarsch","Flussbarsch","Div. Weißfische","Div. Weißfische","Wels","Wels"],"tickets":[{"name":"Stadtverband der Sportfischer 1954 e.V. Duisburg","price":"ANGELKARTEN AB 13,00 €"},{"name":"49,00 €","price":"49,00 €"},{"name":"49,00 €","price":"statt 79,00 €"}],"manager":null,"lat":51.3822,"lng":6.790885,"geocode_source":"hejfish_api_map","map_data":{"id":12537,"geojson":[],"locations":[{"lat":51.3822,"lng":6.790885}],"stations":[{"name":"DU-Gesamtsch. Großenbaum","lat":51.376369,"lng":6.780888,"lines":null,"url":null},{"name":"Duisburg Unfallklinik","lat":51.380187,"lng":6.781723,"lines":null,"url":null},{"name":"Duisburg Neuapostol. Kirche","lat":51.387218,"lng":6.78175,"lines":null,"url":null},{"name":"Duisburg Neidenburger Straße","lat":51.388221,"lng":6.784454,"lines":null,"url":null},{"name":"Duisburg Am Golfplatz","lat":51.372679,"lng":6.784823,"lines":null,"url":null},{"name":"Duisburg Großenbaumer Allee","lat":51.391142,"lng":6.787086,"lines":null,"url":null},{"name":"Duisburg Am See","lat":51.390138,"lng":6.79403,"lines":null,"url":null},{"name":"Duisburg Wolfssee","lat":51.38548,"lng":6.799699,"lines":null,"url":null}],"gauges":[],"depth_map":null},"last_updated":"2026-05-06T18:12:42.438Z","error":false}