{"id":12597,"slug":"stadlander-siele","url":"https://www.hejfish.com/d/12597-stadlander-siele","name":"Stadlander Siele","description":"","water_size_ha":null,"fish":["AalHechtKarpfenSchleieZanderRapfenBrasseGiebelDiv. WeißfischeFlussbarsch"],"techniques":["AnsitzangelnFeedernSpinnangeln"],"properties":["kein Boot\nNachtfischen\nÖffis\nTechniken:\nAnsitzangelnFeedernSpinnangeln"],"season":null,"water_type":null,"rules_text":"","mobile_ticket":false,"print_required":false,"tickets":[],"manager":null,"main_image":null,"location_info":["Niedersachsen","Kreis Wesermarsch"],"lat":null,"lng":null,"geocode_source":null,"map_data":{"data":{"id":12597,"geojson":[],"locations":[{"lat":53.4572,"lng":8.36774},{"lat":53.433033,"lng":8.397113},{"lat":53.440682,"lng":8.341424},{"lat":53.439487,"lng":8.391781},{"lat":53.440236,"lng":8.360335},{"lat":53.404536,"lng":8.360507},{"lat":53.4214,"lng":8.362159},{"lat":53.416393,"lng":8.392162},{"lat":53.411389,"lng":8.361251},{"lat":53.411198,"lng":8.372937},{"lat":53.420973,"lng":8.37676},{"lat":53.402438,"lng":8.373707},{"lat":53.397687,"lng":8.334528},{"lat":53.408694,"lng":8.46777},{"lat":53.409092,"lng":8.467097},{"lat":53.433031,"lng":8.397158},{"lat":53.433007,"lng":8.397133},{"lat":53.404506,"lng":8.408379},{"lat":53.404234,"lng":8.40999},{"lat":53.363924,"lng":8.424542},{"lat":53.363873,"lng":8.424606},{"lat":53.369648,"lng":8.468829},{"lat":53.368884,"lng":8.466261},{"lat":53.353136,"lng":8.464965},{"lat":53.373097,"lng":8.42471},{"lat":53.362416,"lng":8.38905},{"lat":53.392825,"lng":8.405705},{"lat":53.395699,"lng":8.457075},{"lat":53.392243,"lng":8.40557},{"lat":53.39384,"lng":8.328978},{"lat":53.386257,"lng":8.337752},{"lat":53.37734,"lng":8.343358}],"stations":[{"name":"Ovelgönne(Kr Wesermarsch) Grundschule","lat":53.343781,"lng":8.426263,"lines":null,"url":null},{"name":"Ovelgönne-Neustadt Neustädter Straße 109","lat":53.344482,"lng":8.319378,"lines":null,"url":null},{"name":"Ovelgönne-Neustadt Neustädter Straße 103","lat":53.345627,"lng":8.323372,"lines":null,"url":null},{"name":"Ovelgönne-Neustadt Neustädter Straße 68","lat":53.345724,"lng":8.348036,"lines":null,"url":null},{"name":"Ovelgönne-Neustadt Kramer","lat":53.345885,"lng":8.357475,"lines":null,"url":null},{"name":"Ovelgönne-Neustadt Neustädter Straße 95","lat":53.345947,"lng":8.32676,"lines":null,"url":null},{"name":"Ovelgönne-Neustadt Neustädter Straße 88","lat":53.345966,"lng":8.33157,"lines":null,"url":null},{"name":"Ovelgönne-Neustadt Siedlung","lat":53.347686,"lng":8.363029,"lines":null,"url":null},{"name":"Golzwarden Buschweg","lat":53.348226,"lng":8.468576,"lines":null,"url":null},{"name":"Süder-Frieschenmoor Lüdemann","lat":53.348873,"lng":8.382529,"lines":null,"url":null},{"name":"Süder-Frieschenmoor Lindenbaum","lat":53.349889,"lng":8.38168,"lines":null,"url":null},{"name":"Ovelgönne-Neustadt Neustädter Straße 4","lat":53.350312,"lng":8.375597,"lines":null,"url":null},{"name":"Finkenburg(Brake)","lat":53.351221,"lng":8.45148,"lines":null,"url":null},{"name":"Golzwarden Schlehenweg","lat":53.351248,"lng":8.45724,"lines":null,"url":null},{"name":"Golzwarden Kirche","lat":53.351498,"lng":8.466137,"lines":null,"url":null},{"name":"Golzwarden Schule","lat":53.353457,"lng":8.469425,"lines":null,"url":null},{"name":"Süder-Frieschenmoor Birkenweg","lat":53.358552,"lng":8.38998,"lines":null,"url":null},{"name":"Süder-Frieschenmoor Harbers","lat":53.361418,"lng":8.393427,"lines":null,"url":null},{"name":"Golzwarden Wurp","lat":53.362278,"lng":8.444371,"lines":null,"url":null},{"name":"Norder-Frieschenmoor Feuerwehr","lat":53.364755,"lng":8.398394,"lines":null,"url":null},{"name":"Schmalenfleth","lat":53.365174,"lng":8.460626,"lines":null,"url":null},{"name":"Schmalenfleth Wurp","lat":53.368332,"lng":8.443917,"lines":null,"url":null},{"name":"Rockenmoor Kötermoorer Querweg","lat":53.37082,"lng":8.341149,"lines":null,"url":null},{"name":"Kötermoor Renken","lat":53.374197,"lng":8.350818,"lines":null,"url":null},{"name":"Norder-Frieschenmoor Lerchenheide","lat":53.374677,"lng":8.368763,"lines":null,"url":null},{"name":"Norder-Frieschenmoor Nordpol","lat":53.374832,"lng":8.392857,"lines":null,"url":null},{"name":"Norder-Frieschenmoor Kiebitzhörne","lat":53.376377,"lng":8.377141,"lines":null,"url":null},{"name":"Kötermoor Abzw. Schwarzer Weg","lat":53.376783,"lng":8.359336,"lines":null,"url":null},{"name":"Sürwürden Kaliwoda","lat":53.378275,"lng":8.452132,"lines":null,"url":null},{"name":"Kötermoor Kötermoorer Straße 35","lat":53.380505,"lng":8.356863,"lines":null,"url":null},{"name":"Alse Ponyhof","lat":53.381817,"lng":8.448139,"lines":null,"url":null},{"name":"Kötermoor Kötermoorer Straße 26","lat":53.382946,"lng":8.356315,"lines":null,"url":null},{"name":"Alserwurp Blohm","lat":53.385651,"lng":8.433944,"lines":null,"url":null},{"name":"Kötermoor Burenreege","lat":53.387156,"lng":8.357094,"lines":null,"url":null},{"name":"Alserfeld","lat":53.390162,"lng":8.451259,"lines":null,"url":null},{"name":"Alserwurp Wulf","lat":53.390612,"lng":8.433436,"lines":null,"url":null},{"name":"Kötermoor Kötermoorer Straße 8","lat":53.392495,"lng":8.357825,"lines":null,"url":null},{"name":"Rodenkirchen(Stadland) Stellwerkstraße","lat":53.397208,"lng":8.451979,"lines":null,"url":null},{"name":"Schwei West Olympiastraße","lat":53.398868,"lng":8.326376,"lines":null,"url":null},{"name":"Hakendorferwurp","lat":53.399031,"lng":8.420244,"lines":null,"url":null},{"name":"Süderschwei","lat":53.39937,"lng":8.333315,"lines":null,"url":null},{"name":"Schwei Abzw. Seefeld","lat":53.399377,"lng":8.355781,"lines":null,"url":null},{"name":"Rodenkirchen(Stadland) Schulzentrum","lat":53.400236,"lng":8.450377,"lines":null,"url":null},{"name":"Rodenkirchen(Stadland) Bahnhof","lat":53.400568,"lng":8.454127,"lines":null,"url":null},{"name":"Rodenkirchen(Stadland) Rodenkircherwurp","lat":53.40072,"lng":8.419481,"lines":null,"url":null},{"name":"Rodenkircherfeld","lat":53.40072,"lng":8.441438,"lines":null,"url":null},{"name":"Schweierfeld Warrelmann","lat":53.401261,"lng":8.384871,"lines":null,"url":null},{"name":"Rodenkirchen(Oldb)","lat":53.401456,"lng":8.45525,"lines":null,"url":null},{"name":"Schwei Ort","lat":53.401857,"lng":8.355888,"lines":null,"url":null},{"name":"Schwei West","lat":53.403067,"lng":8.325929,"lines":null,"url":null},{"name":"Schwei Grundschule","lat":53.403618,"lng":8.360185,"lines":null,"url":null},{"name":"Hartwarderwurp Meyer","lat":53.406006,"lng":8.419012,"lines":null,"url":null},{"name":"Schwei Olymipagelände","lat":53.408919,"lng":8.329899,"lines":null,"url":null},{"name":"Hartwarden Denkmal","lat":53.409527,"lng":8.460876,"lines":null,"url":null},{"name":"Schwei Norderschweier Straße","lat":53.413671,"lng":8.336928,"lines":null,"url":null},{"name":"Hiddingen(Stadland)","lat":53.414226,"lng":8.45628,"lines":null,"url":null},{"name":"Hayenwärf","lat":53.416443,"lng":8.425686,"lines":null,"url":null},{"name":"Nordschwei Ahtingsweg","lat":53.416732,"lng":8.352631,"lines":null,"url":null},{"name":"Hiddingen","lat":53.418909,"lng":8.448545,"lines":null,"url":null},{"name":"Nordschwei Osinga","lat":53.419262,"lng":8.35482,"lines":null,"url":null},{"name":"Hayenwärf Alte Kanzlei","lat":53.420341,"lng":8.421666,"lines":null,"url":null},{"name":"Niederbeckum Rogge","lat":53.424844,"lng":8.445854,"lines":null,"url":null},{"name":"Schwei Alter Schulweg","lat":53.426027,"lng":8.340429,"lines":null,"url":null},{"name":"Beckum(Stadland) Abzw. Beckum","lat":53.428602,"lng":8.419458,"lines":null,"url":null},{"name":"Schweieraußendeich","lat":53.428664,"lng":8.357054,"lines":null,"url":null},{"name":"Reitland Heidemann","lat":53.43048,"lng":8.320048,"lines":null,"url":null},{"name":"Schwei Außendeich/Müller","lat":53.43244,"lng":8.357002,"lines":null,"url":null},{"name":"Binnenau(Stadland) Becker","lat":53.433148,"lng":8.396575,"lines":null,"url":null},{"name":"Messpunkt B437/B212","lat":53.433882,"lng":8.446222,"lines":null,"url":null},{"name":"Reitland Feuerwehr","lat":53.43489,"lng":8.329582,"lines":null,"url":null},{"name":"Neuenhoben(Stadland) Meier","lat":53.439601,"lng":8.391874,"lines":null,"url":null},{"name":"Reitland Hartmann","lat":53.440178,"lng":8.341001,"lines":null,"url":null},{"name":"Reitland Herrenweg","lat":53.440206,"lng":8.347577,"lines":null,"url":null},{"name":"Havendorf","lat":53.441805,"lng":8.441863,"lines":null,"url":null},{"name":"Seefeld(Stadland) Abzw. Reitland","lat":53.442787,"lng":8.342815,"lines":null,"url":null},{"name":"Havendorfersande","lat":53.443906,"lng":8.463106,"lines":null,"url":null},{"name":"Kleinensiel","lat":53.444294,"lng":8.476119,"lines":null,"url":null},{"name":"Kleinensiel Am Kanal","lat":53.444663,"lng":8.471231,"lines":null,"url":null},{"name":"Kleinensiel Bahnhof","lat":53.444768,"lng":8.475913,"lines":null,"url":null},{"name":"Seefeld(Stadland) Norderaußendeich","lat":53.445831,"lng":8.342646,"lines":null,"url":null},{"name":"Esenshammer Oberdeich","lat":53.446005,"lng":8.418501,"lines":null,"url":null},{"name":"Morgenland(Stadland) Kämena","lat":53.447434,"lng":8.385547,"lines":null,"url":null},{"name":"Esenshamm Kindergarten","lat":53.448486,"lng":8.441152,"lines":null,"url":null},{"name":"Esenshamm Schule","lat":53.44974,"lng":8.442178,"lines":null,"url":null},{"name":"Esenshamm Ort","lat":53.45008,"lng":8.439497,"lines":null,"url":null},{"name":"Seefelderaußendeich","lat":53.452103,"lng":8.344227,"lines":null,"url":null},{"name":"Esenshamm Morgenländer Weg","lat":53.452791,"lng":8.405554,"lines":null,"url":null},{"name":"Morgenland(Stadland) Barre","lat":53.452957,"lng":8.378854,"lines":null,"url":null},{"name":"Esenshamm Helios Klinik Wesermarsch","lat":53.455619,"lng":8.440743,"lines":null,"url":null},{"name":"Seefeld(Stadland) Mühle","lat":53.456724,"lng":8.345757,"lines":null,"url":null},{"name":"Seefeld(Stadland) Kirche","lat":53.457124,"lng":8.357277,"lines":null,"url":null},{"name":"Seefeld(Stadland) Abzw. Morgenland","lat":53.457661,"lng":8.363412,"lines":null,"url":null},{"name":"Nordenham Hoffe","lat":53.457986,"lng":8.444384,"lines":null,"url":null},{"name":"Seefeld(Stadland) Schule","lat":53.45942,"lng":8.358284,"lines":null,"url":null},{"name":"Seefeld(Stadland) Schaart","lat":53.45947,"lng":8.362757,"lines":null,"url":null},{"name":"Augustgroden Reitländer Zoll","lat":53.460307,"lng":8.328151,"lines":null,"url":null},{"name":"Augustgroden Grimm","lat":53.462462,"lng":8.328861,"lines":null,"url":null},{"name":"Esenshammergroden","lat":53.462709,"lng":8.403983,"lines":null,"url":null},{"name":"Norderseefeld Schaaf","lat":53.466155,"lng":8.350373,"lines":null,"url":null}],"gauges":[],"depth_map":null}},"country":"DE","last_updated":"2026-05-05T20:01:23.799Z","error":false}