{"id":12640,"slug":"donau-altisheim","url":"https://www.hejfish.com/d/12640-donau-altisheim","name":"Donau Altisheim","description":"","water_size_ha":null,"fish":["HuchenHechtQuappeAalZanderWelsForelleDiv. WeißfischeFlussbarschBarbe"],"techniques":["FliegenfischenPosenangeln… mehr"],"properties":["kein Boot\nNachtfischen\nÖffisFangmeldung erforderlich\nTechniken:\nFliegenfischenPosenangeln… mehr"],"season":null,"water_type":null,"rules_text":"","mobile_ticket":false,"print_required":true,"tickets":[],"manager":null,"main_image":null,"location_info":["Bayern","Kreis Donau-Ries"],"lat":null,"lng":null,"geocode_source":null,"map_data":{"data":{"id":12640,"geojson":[],"locations":[{"lat":48.724889,"lng":10.854528},{"lat":48.734972,"lng":10.892528}],"stations":[{"name":"Donauwörth, Schweizerhof","lat":48.71898,"lng":10.848082,"lines":null,"url":null},{"name":"Schäfstall, Feuerwehr","lat":48.725973,"lng":10.849529,"lines":null,"url":null},{"name":"Schäfstall, Staatsstr. 2215","lat":48.726115,"lng":10.853787,"lines":null,"url":null},{"name":"Schäfstall, Eckhofweg","lat":48.726317,"lng":10.844947,"lines":null,"url":null},{"name":"Riedelbergerhof, St2215","lat":48.73447,"lng":10.861081,"lines":null,"url":null},{"name":"Altisheim, Donaustr.","lat":48.736626,"lng":10.875454,"lines":null,"url":null},{"name":"Leitheim","lat":48.742337,"lng":10.884132,"lines":null,"url":null}],"gauges":[{"id":1377,"name":"Grabmühle","lat":48.6201987,"lng":11.1774936},{"id":1376,"name":"Pöttmes","lat":48.5812665,"lng":11.1143805},{"id":1248,"name":"Neuburg","lat":48.7391009,"lng":11.1780431},{"id":1247,"name":"Bertoldsheim OW","lat":48.7360865,"lng":11.0211158},{"id":1246,"name":"Donauwörth","lat":48.7108683,"lng":10.8015616}],"depth_map":null}},"country":"DE","last_updated":"2026-05-05T20:02:16.518Z","error":false}