{"id":12652,"slug":"leine-northeim","url":"https://www.hejfish.com/d/12652-leine-northeim","name":"Leine (Northeim)","description":"","water_size_ha":null,"fish":["AalBachforelleHechtRegenbogenforelleSchleieKarpfenZanderWels"],"techniques":["AnsitzangelnFliegenfischen… mehr"],"properties":["kein Boot\nNachtfischen\nÖffis\nTechniken:\nAnsitzangelnFliegenfischen… mehr"],"season":null,"water_type":null,"rules_text":"","mobile_ticket":false,"print_required":false,"tickets":[],"manager":null,"main_image":null,"location_info":["Niedersachsen","Kreis Northeim"],"lat":null,"lng":null,"geocode_source":null,"map_data":{"data":{"id":12652,"geojson":[],"locations":[{"lat":51.705184,"lng":9.966362},{"lat":51.72346,"lng":9.949669}],"stations":[{"name":"Höckelheim Radolphshäuser Straße","lat":51.69666,"lng":9.957303,"lines":null,"url":null},{"name":"Höckelheim Bergstraße","lat":51.698006,"lng":9.961519,"lines":null,"url":null},{"name":"Höckelheim An der Schule","lat":51.701854,"lng":9.962358,"lines":null,"url":null},{"name":"Höckelheim Mitte","lat":51.702376,"lng":9.961388,"lines":null,"url":null},{"name":"Höckelheim Torstraße","lat":51.703343,"lng":9.960786,"lines":null,"url":null},{"name":"Höckelheim Am Hasselberg","lat":51.703388,"lng":9.960011,"lines":null,"url":null},{"name":"Leineturm(Northeim)","lat":51.705036,"lng":9.96695,"lines":null,"url":null},{"name":"Northeim Am Nordhafen","lat":51.727692,"lng":9.967274,"lines":null,"url":null}],"gauges":[],"depth_map":null}},"country":"DE","last_updated":"2026-05-06T06:41:17.906Z","error":false}