{"id":12660,"slug":"untreusee","url":"https://www.hejfish.com/d/12660-untreusee","name":"Untreusee","description":"","water_size_ha":null,"fish":["KarpfenSchleieAalZanderHechtFlussbarschDiv. WeißfischeRenkeWelsBachsaiblingÄscheBachforelleRegenbogenforelleSeeforelleRotauge"],"techniques":["AnsitzangelnNaturköderangeln… mehr"],"properties":["Boot\nNachtfischen\nÖffis\nTechniken:\nAnsitzangelnNaturköderangeln… mehr"],"season":null,"water_type":null,"rules_text":"","mobile_ticket":false,"print_required":true,"tickets":[],"manager":null,"main_image":null,"location_info":["Bayern","Hof"],"lat":null,"lng":null,"geocode_source":null,"map_data":{"data":{"id":12660,"geojson":[],"locations":[{"lat":50.279956,"lng":11.909991},{"lat":50.284217,"lng":11.933421}],"stations":[{"name":"Oberkotzau, Fickenscher","lat":50.271774,"lng":11.925737,"lines":null,"url":null},{"name":"Hof, Landratsamt","lat":50.284157,"lng":11.923447,"lines":null,"url":null},{"name":"Lindenbuehl,Hof (Saale)","lat":50.285253,"lng":11.921901,"lines":null,"url":null},{"name":"Hof (Saale), Am Lindenbühl","lat":50.286011,"lng":11.916224,"lines":null,"url":null},{"name":"Hof (Saale), Moschendorf","lat":50.286229,"lng":11.931064,"lines":null,"url":null},{"name":"Hof (Saale), Untreusee","lat":50.287044,"lng":11.913017,"lines":null,"url":null},{"name":"Hof (Saale) Schaumbergstr.","lat":50.287228,"lng":11.917338,"lines":null,"url":null},{"name":"Hof (Saale) Frankenbergweg","lat":50.288353,"lng":11.915892,"lines":null,"url":null},{"name":"Hof (Saale), Kroetenbrucker Str.","lat":50.288961,"lng":11.925306,"lines":null,"url":null},{"name":"Hof (Saale), Krötenbrucker Str. Tankstelle","lat":50.289363,"lng":11.92483,"lines":null,"url":null},{"name":"Hof (Saale), Epprechtsteinstr.","lat":50.290206,"lng":11.921246,"lines":null,"url":null},{"name":"Hof (Saale) Schneebergstr.","lat":50.291107,"lng":11.924812,"lines":null,"url":null},{"name":"Hof (Saale), Koesseinestr.","lat":50.292359,"lng":11.92324,"lines":null,"url":null},{"name":"Luisenburgstr.,Hof (Saale)","lat":50.292669,"lng":11.920392,"lines":null,"url":null},{"name":"Hof (Saale), Ostpreussenstr.","lat":50.293369,"lng":11.928818,"lines":null,"url":null},{"name":"Suedring 100,Hof (Saale)","lat":50.293564,"lng":11.913134,"lines":null,"url":null}],"gauges":[],"depth_map":null}},"country":"DE","last_updated":"2026-05-05T20:02:43.097Z","error":false}