{"id":12739,"slug":"broel-hauptlauf","url":"https://www.hejfish.com/d/12739-broel-hauptlauf","name":"Bröl (Hauptlauf)","description":"","water_size_ha":null,"fish":["BachforelleNaseDöbelBarbeFlussbarschAalÄsche"],"techniques":["AnsitzangelnFliegenfischen… mehr"],"properties":["kein Boot\nKein Nachtfischen\nÖffis\nTechniken:\nAnsitzangelnFliegenfischen… mehr"],"season":null,"water_type":null,"rules_text":"","mobile_ticket":false,"print_required":true,"tickets":[],"manager":null,"main_image":null,"location_info":["Nordrhein-Westfalen","Rhein-Sieg-Kreis"],"lat":null,"lng":null,"geocode_source":null,"map_data":{"data":{"id":12739,"geojson":[],"locations":[{"lat":50.800278,"lng":7.336639},{"lat":50.8375,"lng":7.414278}],"stations":[{"name":"Bröl Dorfplatz,Hennef (Sieg)","lat":50.790302,"lng":7.329624,"lines":null,"url":null},{"name":"Hennef Bröl Dorfplatz","lat":50.790302,"lng":7.329624,"lines":null,"url":null},{"name":"Hennef Bröl Kirche","lat":50.791329,"lng":7.32869,"lines":null,"url":null},{"name":"Happerschoßer Str.,Hennef (Sieg)","lat":50.792374,"lng":7.327127,"lines":null,"url":null},{"name":"Derenbachtal Abzw.,Hennef (Sieg)","lat":50.79535,"lng":7.337313,"lines":null,"url":null},{"name":"Ruppichteroth Winterscheid Stockum Abzw.","lat":50.799171,"lng":7.387269,"lines":null,"url":null},{"name":"Hennef Bröl Katharinental","lat":50.799926,"lng":7.336137,"lines":null,"url":null},{"name":"Ruppichteroth Winterscheid Schreckenberg Abzw.","lat":50.803401,"lng":7.359331,"lines":null,"url":null},{"name":"Ruppichteroth Winterscheid Litterscheid","lat":50.803406,"lng":7.382669,"lines":null,"url":null},{"name":"Ruppichteroth Winterscheid Fußhollen","lat":50.805944,"lng":7.393764,"lines":null,"url":null},{"name":"Ruppichteroth Winterscheid Pfaffensteg Abzw.","lat":50.806432,"lng":7.36606,"lines":null,"url":null},{"name":"Ruppichteroth Winterscheid Schmitzdörfgen Abzw.","lat":50.809634,"lng":7.410634,"lines":null,"url":null},{"name":"Ruppichteroth Winterscheid Bechlingen","lat":50.809691,"lng":7.403699,"lines":null,"url":null},{"name":"Ruppichteroth Winterscheid Haus Tanneck","lat":50.810122,"lng":7.39998,"lines":null,"url":null},{"name":"Ruppichteroth Winterscheid Holenfeld Abzw.","lat":50.81019,"lng":7.415772,"lines":null,"url":null},{"name":"Winterscheider Mühle,Ruppichteroth","lat":50.811093,"lng":7.378735,"lines":null,"url":null},{"name":"Ruppichteroth Winterscheid Schreckenberg Ort","lat":50.812722,"lng":7.36252,"lines":null,"url":null},{"name":"Ruppichteroth Winterscheid Hatterscheid Ort","lat":50.814771,"lng":7.400528,"lines":null,"url":null},{"name":"Ruppichteroth Winterscheid Kirche","lat":50.814845,"lng":7.376354,"lines":null,"url":null},{"name":"Ruppichteroth Winterscheid Weiher","lat":50.815543,"lng":7.370937,"lines":null,"url":null},{"name":"Ruppichteroth Winterscheid Hatterscheid Abzw.","lat":50.819067,"lng":7.403591,"lines":null,"url":null},{"name":"Ruppichteroth Winterscheid Berg Abzw.","lat":50.819936,"lng":7.422626,"lines":null,"url":null},{"name":"Neunkirchen-Seelscheid Neunkirchen Ingersau","lat":50.82283,"lng":7.356331,"lines":null,"url":null},{"name":"Ruppichteroth Winterscheid Kuchem","lat":50.824283,"lng":7.421872,"lines":null,"url":null},{"name":"Ruppichteroth Schönenberg Beiert Abzw.","lat":50.827665,"lng":7.383837,"lines":null,"url":null},{"name":"Ruppichteroth Schönenberg Herrnstein","lat":50.829946,"lng":7.390503,"lines":null,"url":null},{"name":"Bröler Hof,Ruppichteroth","lat":50.834439,"lng":7.3991,"lines":null,"url":null},{"name":"Neunkirchen-Seelscheid Wolperath Wolperather Weg","lat":50.834592,"lng":7.329175,"lines":null,"url":null},{"name":"Ruppichteroth Schönenberg Hänscheid","lat":50.835449,"lng":7.42427,"lines":null,"url":null},{"name":"Ruppichteroth Schönenberg Büchel","lat":50.836266,"lng":7.404013,"lines":null,"url":null},{"name":"Neunkirchen-Seelscheid Neunkirchen Franziskushaus","lat":50.83655,"lng":7.330711,"lines":null,"url":null},{"name":"Neunkirchen-Seelscheid Neunkirchen Antoniusplatz","lat":50.839573,"lng":7.333945,"lines":null,"url":null},{"name":"Ruppichteroth Schönenberg Bröleck","lat":50.839846,"lng":7.416814,"lines":null,"url":null},{"name":"Neunkirchen-Seelscheid Neunkirchen Kirche","lat":50.841275,"lng":7.334565,"lines":null,"url":null},{"name":"Neunkirchen-Seelscheid Neunkirchen Dahlerhof","lat":50.845796,"lng":7.339946,"lines":null,"url":null}],"gauges":[],"depth_map":null}},"country":"DE","last_updated":"2026-05-05T20:03:39.857Z","error":false}