{"id":12751,"slug":"inn-fluss-km-19-10-38-20","url":"https://www.hejfish.com/d/12751-inn-fluss-km-19-10-38-20","name":"Inn (Fluss-Km 19,10 - 38,20)","description":"","water_size_ha":null,"fish":["BrasseNaseKarpfenWelsHechtZanderRotaugeAalRapfenBarbeDiv. WeißfischeForelle"],"techniques":["AnsitzangelnFeedern… mehr"],"properties":["kein Boot\nNachtfischen\nTechniken:\nAnsitzangelnFeedern… mehr"],"season":null,"water_type":null,"rules_text":"","mobile_ticket":false,"print_required":false,"tickets":[],"manager":null,"main_image":null,"location_info":["Bayern","Kreis Passau"],"lat":null,"lng":null,"geocode_source":null,"map_data":{"data":{"id":12751,"geojson":[],"locations":[{"lat":48.43265,"lng":13.43744},{"lat":48.30779,"lng":13.28612}],"stations":[{"name":"Waldstadt, Kaserne, Abzw","lat":48.368491,"lng":13.276839,"lines":null,"url":null},{"name":"Eggersham, Abzw. Ausbach/Reith","lat":48.404238,"lng":13.277459,"lines":null,"url":null},{"name":"Holzhäuser bei Aigen(Inn)","lat":48.324584,"lng":13.277468,"lines":null,"url":null},{"name":"Osterholzen, Abzw","lat":48.363615,"lng":13.281969,"lines":null,"url":null},{"name":"Hofgarten, Schnapsmuseum","lat":48.347444,"lng":13.28302,"lines":null,"url":null},{"name":"Taubenhub, Abzw","lat":48.429923,"lng":13.284565,"lines":null,"url":null},{"name":"Kirchham, Jagdhof","lat":48.354268,"lng":13.284861,"lines":null,"url":null},{"name":"Felding","lat":48.380115,"lng":13.286676,"lines":null,"url":null},{"name":"Heinriching","lat":48.41958,"lng":13.287727,"lines":null,"url":null},{"name":"Zell bei Pocking","lat":48.396067,"lng":13.287934,"lines":null,"url":null},{"name":"Berg bei Pocking","lat":48.406015,"lng":13.291329,"lines":null,"url":null},{"name":"Kirchham, Haslinger Hof","lat":48.349856,"lng":13.291563,"lines":null,"url":null},{"name":"Kreuzkeller","lat":48.424653,"lng":13.293404,"lines":null,"url":null},{"name":"Dürnöd","lat":48.356034,"lng":13.295075,"lines":null,"url":null},{"name":"Steinreuth","lat":48.360237,"lng":13.3006,"lines":null,"url":null},{"name":"Bad Füssing, Hofgartenweg/Aldi","lat":48.348244,"lng":13.301247,"lines":null,"url":null},{"name":"Pocking, Friedhof","lat":48.401262,"lng":13.301947,"lines":null,"url":null},{"name":"Ainsen","lat":48.363173,"lng":13.302253,"lines":null,"url":null},{"name":"Aumühle bei Pocking","lat":48.411453,"lng":13.302594,"lines":null,"url":null},{"name":"Bad Füssing, Friedhof","lat":48.355276,"lng":13.303537,"lines":null,"url":null},{"name":"Bad Füssing, Pappelallee/Friedhof","lat":48.353193,"lng":13.304984,"lines":null,"url":null},{"name":"Safferstetten, Bachstraße","lat":48.347151,"lng":13.305801,"lines":null,"url":null},{"name":"Bad Füssing, Seniorenheim","lat":48.348763,"lng":13.305981,"lines":null,"url":null},{"name":"Bad Füssing, Pappelallee","lat":48.351808,"lng":13.306232,"lines":null,"url":null},{"name":"Haid, Gärtnerei","lat":48.381028,"lng":13.306493,"lines":null,"url":null},{"name":"Bad Füssing, Camping Holmernhof","lat":48.357939,"lng":13.30661,"lines":null,"url":null},{"name":"Haid, Hs.-Nr.12","lat":48.377167,"lng":13.307319,"lines":null,"url":null},{"name":"Bad Füssing, Sonnenstrasse","lat":48.354375,"lng":13.308182,"lines":null,"url":null},{"name":"Bad Füssing, Lindenstrasse","lat":48.351712,"lng":13.309107,"lines":null,"url":null},{"name":"Safferstetten, Riedlhof","lat":48.345814,"lng":13.309421,"lines":null,"url":null},{"name":"Angering 10-12","lat":48.371075,"lng":13.310023,"lines":null,"url":null},{"name":"Safferstetten, Dorfplatz","lat":48.34576,"lng":13.310266,"lines":null,"url":null},{"name":"Bad Füssing, Wirt z´Füssing","lat":48.356643,"lng":13.310311,"lines":null,"url":null},{"name":"Pocking, Rathaus","lat":48.399711,"lng":13.310463,"lines":null,"url":null},{"name":"Pocking, OBI","lat":48.393108,"lng":13.310769,"lines":null,"url":null},{"name":"Egglfing, Pichlstr.","lat":48.329225,"lng":13.310778,"lines":null,"url":null},{"name":"Pocking, Zentrum","lat":48.40156,"lng":13.310895,"lines":null,"url":null},{"name":"Bad Füssing, Hotel Panland","lat":48.352692,"lng":13.311011,"lines":null,"url":null},{"name":"Bad Füssing, Füssinger Hof","lat":48.353903,"lng":13.311209,"lines":null,"url":null},{"name":"Egglfing, Mineralienhaus","lat":48.325313,"lng":13.311245,"lines":null,"url":null},{"name":"Safferstetten, Haus Alexandra","lat":48.346662,"lng":13.311281,"lines":null,"url":null},{"name":"Angering bei Bad Füssing","lat":48.365907,"lng":13.311353,"lines":null,"url":null},{"name":"Bad Füssing, Getränkemarkt","lat":48.360881,"lng":13.312053,"lines":null,"url":null},{"name":"Bad Füssing, Therme I /Saunahof","lat":48.354268,"lng":13.312467,"lines":null,"url":null},{"name":"Safferstetten, Feuerwehrhaus","lat":48.343581,"lng":13.312916,"lines":null,"url":null},{"name":"Pocking","lat":48.406223,"lng":13.313167,"lines":null,"url":null},{"name":"Egglfing, Sparkasse","lat":48.32784,"lng":13.313877,"lines":null,"url":null},{"name":"Egglfing","lat":48.328049,"lng":13.313994,"lines":null,"url":null},{"name":"Safferstetten, Schuhh. Huber","lat":48.348196,"lng":13.314102,"lines":null,"url":null},{"name":"Safferstetten, Birkenallee","lat":48.347975,"lng":13.314308,"lines":null,"url":null},{"name":"Bad Füssing, Thermalres. Köck","lat":48.356303,"lng":13.314308,"lines":null,"url":null},{"name":"Egglfing, Egglfinger Hof","lat":48.328043,"lng":13.314371,"lines":null,"url":null},{"name":"Bad Füssing, Andreas-Hofer-Str.","lat":48.357957,"lng":13.314766,"lines":null,"url":null},{"name":"Egglfing, Treidlerweg","lat":48.324119,"lng":13.315144,"lines":null,"url":null},{"name":"Egglfing, Campingplatz","lat":48.333137,"lng":13.315251,"lines":null,"url":null},{"name":"Bad Füssing, Kath. Kirche","lat":48.35053,"lng":13.315548,"lines":null,"url":null},{"name":"Pocking, Hauptschule","lat":48.401649,"lng":13.315826,"lines":null,"url":null},{"name":"Pocking, Süd","lat":48.392565,"lng":13.316257,"lines":null,"url":null},{"name":"Bad Füssing, Kurplatz/Geml","lat":48.352698,"lng":13.31632,"lines":null,"url":null},{"name":"Egglfing, Alte Innstraße","lat":48.327111,"lng":13.316994,"lines":null,"url":null},{"name":"Egglfing, Schopperweg","lat":48.330312,"lng":13.317066,"lines":null,"url":null},{"name":"Obernberg/Inn Grub/Kapsnerkapelle","lat":48.3082218,"lng":13.3172097,"lines":"845","url":"https://verkehrsauskunft.ooevv.at/#P|SQ!evaId|Obernberg/Inn%20Grub/Kapsnerkapelle!start|1"},{"name":"Bad Füssing, Europa-Therme","lat":48.351044,"lng":13.318961,"lines":null,"url":null},{"name":"Pocking, Förderschule","lat":48.408311,"lng":13.319348,"lines":null,"url":null},{"name":"Bad Füssing, Spielbank/Großes Kurhaus","lat":48.353635,"lng":13.319375,"lines":null,"url":null},{"name":"Pocking,Passauer-Str./Förd.sch","lat":48.407207,"lng":13.320273,"lines":null,"url":null},{"name":"Schöchlöd","lat":48.360798,"lng":13.3203,"lines":null,"url":null},{"name":"Bad Füssing, Ludwig-Thoma-Weg","lat":48.348942,"lng":13.320713,"lines":null,"url":null},{"name":"Zwicklarn","lat":48.37021,"lng":13.320911,"lines":null,"url":null},{"name":"Riedenburg, Schloßtaverne","lat":48.344506,"lng":13.321279,"lines":null,"url":null},{"name":"Pram","lat":48.385443,"lng":13.323561,"lines":null,"url":null},{"name":"Wies b. Egglfing","lat":48.334451,"lng":13.324172,"lines":null,"url":null},{"name":"Riedenburg, Badehaus Kranzmann","lat":48.34456,"lng":13.324648,"lines":null,"url":null},{"name":"Pocking, Gymnasium","lat":48.400552,"lng":13.325196,"lines":null,"url":null},{"name":"Ruhstorf, Pfarrkirchner Str.","lat":48.427628,"lng":13.325959,"lines":null,"url":null},{"name":"Rotthof, Pfarrkirchener-Str. 43,Anger/Ruhstorf a.d.R","lat":48.427634,"lng":13.325986,"lines":null,"url":null},{"name":"Obernberg/Inn Salzburger Straße","lat":48.3163231,"lng":13.3264983,"lines":"845, 841","url":"https://verkehrsauskunft.ooevv.at/#P|SQ!evaId|Obernberg/Inn%20Salzburger%20Straße!start|1"},{"name":"Egglfing, Recyclinghof,Aichmühle (Ndb)","lat":48.33795,"lng":13.327702,"lines":null,"url":null},{"name":"Bad Füssing, Johannesbad","lat":48.348113,"lng":13.328223,"lines":null,"url":null},{"name":"Obernberg/Inn Weilguny","lat":48.3187485,"lng":13.3283578,"lines":"845, 841","url":"https://verkehrsauskunft.ooevv.at/#P|SQ!evaId|Obernberg/Inn%20Weilguny!start|1"},{"name":"Pocking, Rottwerk/Sportplatz","lat":48.414065,"lng":13.328519,"lines":null,"url":null},{"name":"Ruhstorf, Hans-Loher-Str.27","lat":48.437266,"lng":13.328654,"lines":null,"url":null},{"name":"Bad Füssing, Abzw Johannesbad","lat":48.346859,"lng":13.328798,"lines":null,"url":null},{"name":"St. Georgen b.Obernberg Hub","lat":48.3075108,"lng":13.3289866,"lines":"841","url":"https://verkehrsauskunft.ooevv.at/#P|SQ!evaId|St.%20Georgen%20b.Obernberg%20Hub!start|1"},{"name":"Neuindling","lat":48.410082,"lng":13.329535,"lines":null,"url":null},{"name":"Bad Füssing, Hochhaus Schwarz","lat":48.347671,"lng":13.331008,"lines":null,"url":null},{"name":"Bad Füssing, Wohnbau Schwarz","lat":48.350172,"lng":13.331331,"lines":null,"url":null},{"name":"Schlupfing, Kieswerk","lat":48.403504,"lng":13.332059,"lines":null,"url":null},{"name":"Reindlöd, Abzw","lat":48.376427,"lng":13.332292,"lines":null,"url":null},{"name":"Ruhstorf","lat":48.433648,"lng":13.334951,"lines":null,"url":null},{"name":"Obernberg/Inn Gemeindeamt","lat":48.3218905,"lng":13.3354634,"lines":"845, 841","url":"https://verkehrsauskunft.ooevv.at/#P|SQ!evaId|Obernberg/Inn%20Gemeindeamt!start|1"},{"name":"Obernberg/Inn Mittelschule","lat":48.3234077,"lng":13.3356251,"lines":"845, 841","url":"https://verkehrsauskunft.ooevv.at/#P|SQ!evaId|Obernberg/Inn%20Mittelschule!start|1"},{"name":"Ruhstorf, Metzgerei Steer","lat":48.436443,"lng":13.335877,"lines":null,"url":null},{"name":"Ruhstorf, Passauerstr. Nr 5","lat":48.439047,"lng":13.336883,"lines":null,"url":null},{"name":"Ruhstorf, Kino","lat":48.439053,"lng":13.336901,"lines":null,"url":null},{"name":"Würding, Martinweg","lat":48.34979,"lng":13.337799,"lines":null,"url":null},{"name":"Würding, Weidach","lat":48.366145,"lng":13.338033,"lines":null,"url":null},{"name":"Pfaffing","lat":48.383593,"lng":13.339587,"lines":null,"url":null},{"name":"Ruhstorf, Schule","lat":48.436556,"lng":13.339892,"lines":null,"url":null},{"name":"Hub, Abzw","lat":48.362344,"lng":13.341545,"lines":null,"url":null},{"name":"Würding, U.Inntalstr./Hochrainstr.","lat":48.35191,"lng":13.341608,"lines":null,"url":null},{"name":"Obernberg/Inn Vormarkt/Gurten","lat":48.324895,"lng":13.3424613,"lines":"845, 841","url":"https://verkehrsauskunft.ooevv.at/#P|SQ!evaId|Obernberg/Inn%20Vormarkt/Gurten!start|1"},{"name":"Rottau","lat":48.425661,"lng":13.342704,"lines":null,"url":null},{"name":"Rottau, Abzw. B 388","lat":48.425386,"lng":13.343692,"lines":null,"url":null},{"name":"Königswiese","lat":48.420623,"lng":13.344132,"lines":null,"url":null},{"name":"Würding, Raiffeisenbank","lat":48.352715,"lng":13.345776,"lines":null,"url":null},{"name":"Oberindling","lat":48.407052,"lng":13.346082,"lines":null,"url":null},{"name":"Würding, Am Gänseacker","lat":48.355205,"lng":13.347986,"lines":null,"url":null},{"name":"Würding, Thalerstr.","lat":48.355187,"lng":13.348085,"lines":null,"url":null},{"name":"Würding, Kirche","lat":48.353671,"lng":13.350941,"lines":null,"url":null},{"name":"Prenzing","lat":48.396651,"lng":13.35343,"lines":null,"url":null},{"name":"Oberreuthen","lat":48.363412,"lng":13.359386,"lines":null,"url":null},{"name":"Mörschwang Schalchham","lat":48.3145608,"lng":13.3595652,"lines":"841","url":"https://verkehrsauskunft.ooevv.at/#P|SQ!evaId|Mörschwang%20Schalchham!start|1"},{"name":"Reichersberg/Inn Ortsmitte","lat":48.3330594,"lng":13.3601581,"lines":"845, 841","url":"https://verkehrsauskunft.ooevv.at/#P|SQ!evaId|Reichersberg/Inn%20Ortsmitte!start|1"},{"name":"Mitterreuthen","lat":48.366313,"lng":13.363024,"lines":null,"url":null},{"name":"Unterreuthen","lat":48.369505,"lng":13.36491,"lines":null,"url":null},{"name":"Reichersberg/Inn Ost","lat":48.3357467,"lng":13.3652695,"lines":"845, 841","url":"https://verkehrsauskunft.ooevv.at/#P|SQ!evaId|Reichersberg/Inn%20Ost!start|1"},{"name":"Mörschwang Ort","lat":48.304571,"lng":13.3656289,"lines":"841","url":"https://verkehrsauskunft.ooevv.at/#P|SQ!evaId|Mörschwang%20Ort!start|1"},{"name":"Niederindling","lat":48.40685,"lng":13.365889,"lines":null,"url":null},{"name":"Voglöd bei Würding","lat":48.371994,"lng":13.369303,"lines":null,"url":null},{"name":"Gögging","lat":48.366915,"lng":13.372492,"lines":null,"url":null},{"name":"Reichersberg/Inn Minaberg","lat":48.3414852,"lng":13.3759685,"lines":"845","url":"https://verkehrsauskunft.ooevv.at/#P|SQ!evaId|Reichersberg/Inn%20Minaberg!start|1"},{"name":"Beham, Abzw","lat":48.379864,"lng":13.377756,"lines":null,"url":null},{"name":"Haar bei Pocking","lat":48.390012,"lng":13.378286,"lines":null,"url":null},{"name":"Hartkirchen, Raiffeisenbank","lat":48.404393,"lng":13.385536,"lines":null,"url":null},{"name":"Hartkirchen, Mariensäule","lat":48.402985,"lng":13.389299,"lines":null,"url":null},{"name":"Hartkirchen, Schule","lat":48.400498,"lng":13.390243,"lines":null,"url":null},{"name":"Hartkirchen, Keltenschanze","lat":48.407571,"lng":13.390889,"lines":null,"url":null},{"name":"Hartkirchen, Baggersee","lat":48.411095,"lng":13.391042,"lines":null,"url":null},{"name":"Afham bei Hartkirchen","lat":48.432426,"lng":13.391581,"lines":null,"url":null},{"name":"Mittich, Post","lat":48.436819,"lng":13.395902,"lines":null,"url":null},{"name":"Mittich, Kirchplatz","lat":48.441413,"lng":13.397789,"lines":null,"url":null},{"name":"Mittich, Dorfplatz","lat":48.440502,"lng":13.397941,"lines":null,"url":null},{"name":"Antiesenhofen Reichersberger Straße","lat":48.343575,"lng":13.3983186,"lines":"845","url":"https://verkehrsauskunft.ooevv.at/#P|SQ!evaId|Antiesenhofen%20Reichersberger%20Straße!start|1"},{"name":"Antiesenhofen Viehausener Straße","lat":48.3441542,"lng":13.3987587,"lines":"845, 840","url":"https://verkehrsauskunft.ooevv.at/#P|SQ!evaId|Antiesenhofen%20Viehausener%20Straße!start|1"},{"name":"Reding","lat":48.42671,"lng":13.399397,"lines":null,"url":null},{"name":"Antiesenhofen Rieder Straße","lat":48.3433242,"lng":13.3998637,"lines":"840","url":"https://verkehrsauskunft.ooevv.at/#P|SQ!evaId|Antiesenhofen%20Rieder%20Straße!start|1"},{"name":"Inzing, Obere Römerstr.","lat":48.403886,"lng":13.400241,"lines":null,"url":null},{"name":"Antiesenhofen Gemeindeamt","lat":48.3460647,"lng":13.400762,"lines":"845, 840","url":"https://verkehrsauskunft.ooevv.at/#P|SQ!evaId|Antiesenhofen%20Gemeindeamt!start|1"},{"name":"Antiesenhofen Bahnhof","lat":48.3473424,"lng":13.4018579,"lines":"R 3470, R 3475, R 3480, R 3467, R 3473, 845, R 3481, R 3484, R 3474, R 3485, R 3463, R 3483, R 3478, R 3476, R 3482, 840, R 3479, R 3461, R 3468, R 3466, R 3462, R 3471, R 3477, R 3465, R 3464","url":"https://verkehrsauskunft.ooevv.at/#P|SQ!evaId|Antiesenhofen%20Bahnhof!start|1"},{"name":"Hart im Innkreis Bahnhst","lat":48.3160065,"lng":13.4153416,"lines":"R 3470, R 3475, R 3480, R 3467, R 3473, R 3481, R 3484, R 3474, R 3485, R 3483, R 3463, R 3478, R 3482, R 3476, R 3479, R 3461, R 3468, R 3466, R 3462, R 3471, R 3477, R 3465, R 3464","url":"https://verkehrsauskunft.ooevv.at/#P|SQ!evaId|Hart%20im%20Innkreis%20Bahnhst!start|1"},{"name":"Dietrichshofen Bahnhst","lat":48.3700843,"lng":13.422079,"lines":"R 3470, R 3475, R 3480, R 3467, R 3473, R 3481, R 3484, R 3474, R 3485, R 3483, R 3463, R 3478, R 3482, R 3476, R 3479, R 3461, R 3468, R 3466, R 3462, R 3471, R 3477, R 3465, R 3464","url":"https://verkehrsauskunft.ooevv.at/#P|SQ!evaId|Dietrichshofen%20Bahnhst!start|1"},{"name":"Hart im Innkreis Abzw Ort","lat":48.3166218,"lng":13.4256453,"lines":"840","url":"https://verkehrsauskunft.ooevv.at/#P|SQ!evaId|Hart%20im%20Innkreis%20Abzw%20Ort!start|1"},{"name":"Suben Ortsmitte","lat":48.4112564,"lng":13.4304962,"lines":"826","url":"https://verkehrsauskunft.ooevv.at/#P|SQ!evaId|Suben%20Ortsmitte!start|1"},{"name":"Suben Volksschule","lat":48.4096046,"lng":13.4308376,"lines":"826","url":"https://verkehrsauskunft.ooevv.at/#P|SQ!evaId|Suben%20Volksschule!start|1"},{"name":"Suben Bahnhof","lat":48.4034564,"lng":13.4334517,"lines":"R 3470, R 3475, R 3480, R 3467, R 3473, R 3481, R 3484, R 3474, R 3485, R 3483, R 3463, R 3478, R 3482, R 3476, R 3479, R 3461, R 3468, R 3466, R 3462, R 3471, R 3477, R 3465, R 3464","url":"https://verkehrsauskunft.ooevv.at/#P|SQ!evaId|Suben%20Bahnhof!start|1"},{"name":"Suben Abzw Bahnhof","lat":48.4059551,"lng":13.4334517,"lines":"826","url":"https://verkehrsauskunft.ooevv.at/#P|SQ!evaId|Suben%20Abzw%20Bahnhof!start|1"},{"name":"Ort im Innkreis Ortsmitte","lat":48.3160961,"lng":13.4339727,"lines":"840","url":"https://verkehrsauskunft.ooevv.at/#P|SQ!evaId|Ort%20im%20Innkreis%20Ortsmitte!start|1"},{"name":"Suben Nord","lat":48.4147564,"lng":13.4340356,"lines":"826","url":"https://verkehrsauskunft.ooevv.at/#P|SQ!evaId|Suben%20Nord!start|1"},{"name":"Etzelshofen Ost","lat":48.4022577,"lng":13.43594,"lines":"826","url":"https://verkehrsauskunft.ooevv.at/#P|SQ!evaId|Etzelshofen%20Ost!start|1"},{"name":"Schnelldorf b.Suben","lat":48.4205635,"lng":13.4392997,"lines":"826","url":"https://verkehrsauskunft.ooevv.at/#P|SQ!evaId|Schnelldorf%20b.Suben!start|1"},{"name":"Ort im Innkreis Stött","lat":48.3125474,"lng":13.4403957,"lines":"840","url":"https://verkehrsauskunft.ooevv.at/#P|SQ!evaId|Ort%20im%20Innkreis%20Stött!start|1"},{"name":"St.Florian/Inn Gemeindeamt","lat":48.442498,"lng":13.4416174,"lines":"824, 828, 826, 820, 822","url":"https://verkehrsauskunft.ooevv.at/#P|SQ!evaId|St.Florian/Inn%20Gemeindeamt!start|1"},{"name":"Badhöring b.St.Florian/Inn","lat":48.4336419,"lng":13.4440248,"lines":"824, 826","url":"https://verkehrsauskunft.ooevv.at/#P|SQ!evaId|Badhöring%20b.St.Florian/Inn!start|1"},{"name":"Niederham b.St.Marienkirchen","lat":48.3944205,"lng":13.4443393,"lines":"826","url":"https://verkehrsauskunft.ooevv.at/#P|SQ!evaId|Niederham%20b.St.Marienkirchen!start|1"}],"gauges":[{"id":845,"name":"Schärding","lat":48.456203,"lng":13.428256}],"depth_map":null}},"country":"DE","last_updated":"2026-05-05T20:03:47.110Z","error":false}