{"id":12775,"slug":"hunte","url":"https://www.hejfish.com/d/12775-hunte","name":"Hunte","description":"","water_size_ha":null,"fish":["AalHechtZanderFlussbarschWelsSchleieKarpfenBrasseForelle"],"techniques":["AnsitzangelnNaturköderangeln… mehr"],"properties":["kein Boot\nNachtfischen\nÖffis\nTechniken:\nAnsitzangelnNaturköderangeln… mehr"],"season":null,"water_type":null,"rules_text":"","mobile_ticket":false,"print_required":true,"tickets":[],"manager":null,"main_image":null,"location_info":["Niedersachsen","Kreis Diepholz"],"lat":null,"lng":null,"geocode_source":null,"map_data":{"data":{"id":12775,"geojson":[],"locations":[{"lat":52.66684,"lng":8.465735},{"lat":52.702299,"lng":8.503616},{"lat":52.709791,"lng":8.504243},{"lat":52.746058,"lng":8.46816}],"stations":[{"name":"Cornau Niedermeyer","lat":52.668082,"lng":8.457193,"lines":null,"url":null},{"name":"Cornau Logemann","lat":52.671025,"lng":8.456552,"lines":null,"url":null},{"name":"Dreeke(Kr Diepholz)","lat":52.675897,"lng":8.48639,"lines":null,"url":null},{"name":"Dreeke(Kr Diepholz) Überführung","lat":52.683413,"lng":8.480979,"lines":null,"url":null},{"name":"Mäkel Denkmal","lat":52.691398,"lng":8.467589,"lines":null,"url":null},{"name":"Barnstorf(Kr Diepholz) Rasthaus/Peperweg","lat":52.696321,"lng":8.483536,"lines":null,"url":null},{"name":"Barnstorf(Kr Diepholz) Rasthaus","lat":52.696618,"lng":8.484562,"lines":null,"url":null},{"name":"Barnstorf(Kr Diepholz) An der Schöte","lat":52.698,"lng":8.503922,"lines":null,"url":null},{"name":"Barnstorf(Kr Diepholz) Osnabrücker Straße","lat":52.70733,"lng":8.496485,"lines":null,"url":null},{"name":"Barnstorf(Kr Diepholz)","lat":52.707587,"lng":8.510462,"lines":null,"url":null},{"name":"Barnstorf(Kr Diepholz) Bahnhof","lat":52.707937,"lng":8.510395,"lines":null,"url":null},{"name":"Barnstorf(Kr Diepholz) Markt","lat":52.710686,"lng":8.505835,"lines":null,"url":null},{"name":"Barnstorf(Kr Diepholz) Am Kampe","lat":52.711886,"lng":8.509961,"lines":null,"url":null},{"name":"Vogelsang(Barnstorf)","lat":52.712272,"lng":8.475169,"lines":null,"url":null},{"name":"Barnstorf(Kr Diepholz) Oberschule","lat":52.71288,"lng":8.499851,"lines":null,"url":null},{"name":"Barnstorf(Kr Diepholz) Schulzentrum","lat":52.714266,"lng":8.50059,"lines":null,"url":null},{"name":"Barnstorf(Kr Diepholz) Walsen","lat":52.716735,"lng":8.496362,"lines":null,"url":null},{"name":"Rödenbeck","lat":52.731332,"lng":8.474538,"lines":null,"url":null},{"name":"Aldorf","lat":52.733236,"lng":8.504356,"lines":null,"url":null},{"name":"Goldenstedt Rethwisch","lat":52.73648,"lng":8.46926,"lines":null,"url":null}],"gauges":[],"depth_map":null}},"country":"DE","last_updated":"2026-05-05T20:04:07.083Z","error":false}