{"id":12776,"slug":"wagenfelder-aue","url":"https://www.hejfish.com/d/12776-wagenfelder-aue","name":"Wagenfelder Aue","description":"","water_size_ha":null,"fish":["AalHechtZanderFlussbarschWelsSchleieKarpfenBrasseForelle"],"techniques":["AnsitzangelnNaturköderangeln… mehr"],"properties":["kein Boot\nNachtfischen\nÖffis\nTechniken:\nAnsitzangelnNaturköderangeln… mehr"],"season":null,"water_type":null,"rules_text":"","mobile_ticket":false,"print_required":true,"tickets":[],"manager":null,"main_image":null,"location_info":["Niedersachsen","Kreis Diepholz"],"lat":null,"lng":null,"geocode_source":null,"map_data":{"data":{"id":12776,"geojson":[],"locations":[{"lat":52.637219,"lng":8.543491},{"lat":52.686157,"lng":8.531304}],"stations":[{"name":"Herkamp Aufurth","lat":52.666686,"lng":8.531572,"lines":null,"url":null},{"name":"Düste Wilke","lat":52.677941,"lng":8.532826,"lines":null,"url":null},{"name":"Düste Freye","lat":52.686157,"lng":8.534929,"lines":null,"url":null},{"name":"Eydelstedt Molkerei","lat":52.688523,"lng":8.544199,"lines":null,"url":null},{"name":"Donstorf","lat":52.668158,"lng":8.547317,"lines":null,"url":null},{"name":"Donstorf Abzw. L 344","lat":52.668666,"lng":8.548644,"lines":null,"url":null},{"name":"Eydelstedt Schule","lat":52.693408,"lng":8.549739,"lines":null,"url":null},{"name":"Klausing","lat":52.642614,"lng":8.551951,"lines":null,"url":null},{"name":"Donstorf Siedlung","lat":52.657513,"lng":8.552774,"lines":null,"url":null}],"gauges":[],"depth_map":null}},"country":"DE","last_updated":"2026-05-05T20:04:08.612Z","error":false}