{"id":12790,"slug":"leine-bei-nordstemmen","url":"https://www.hejfish.com/d/12790-leine-bei-nordstemmen","name":"Leine bei Nordstemmen","description":"","water_size_ha":null,"fish":["AalLachsZanderForelleQuappeFlussbarschHechtWelsKarpfenBarbeÄscheDiv. WeißfischeMeerforelle"],"techniques":["AnsitzangelnFliegenfischen… mehr"],"properties":["kein Boot\nNachtfischen\nÖffis\nTechniken:\nAnsitzangelnFliegenfischen… mehr"],"season":null,"water_type":null,"rules_text":"","mobile_ticket":false,"print_required":false,"tickets":[],"manager":null,"main_image":null,"location_info":["Niedersachsen","Kreis Hildesheim"],"lat":null,"lng":null,"geocode_source":null,"map_data":{"data":{"id":12790,"geojson":[],"locations":[{"lat":52.170639,"lng":9.769167},{"lat":52.226222,"lng":9.81625}],"stations":[{"name":"Schulenb./Abzw. Marienburg","lat":52.187654,"lng":9.761615,"lines":null,"url":null},{"name":"Vardegötzen","lat":52.215094,"lng":9.764373,"lines":null,"url":null},{"name":"Schloss Marienburg","lat":52.175392,"lng":9.76634,"lines":null,"url":null},{"name":"Nordstemmen Schloss Landeplatz","lat":52.171134,"lng":9.768568,"lines":null,"url":null},{"name":"Schulenburg Kurze Straße","lat":52.191448,"lng":9.772089,"lines":null,"url":null},{"name":"Schulenburg Denkmal","lat":52.193067,"lng":9.774838,"lines":null,"url":null},{"name":"Schulenburg Mitte","lat":52.195413,"lng":9.779473,"lines":null,"url":null},{"name":"Nordstemmen/Rathaus","lat":52.161436,"lng":9.783246,"lines":null,"url":null},{"name":"Schulenburg Hausgut Calenberg","lat":52.199812,"lng":9.784935,"lines":null,"url":null},{"name":"Nordstemmen/Stellwerk","lat":52.165338,"lng":9.786597,"lines":null,"url":null},{"name":"Nordstemmen/Schlingweg","lat":52.160896,"lng":9.786813,"lines":null,"url":null},{"name":"Nordstemmen Marienbergschule","lat":52.16078,"lng":9.787477,"lines":null,"url":null},{"name":"Jeinsen An der Schmiede","lat":52.216316,"lng":9.789705,"lines":null,"url":null},{"name":"Nordstemmen Bahnhof","lat":52.167453,"lng":9.791268,"lines":null,"url":null},{"name":"Nordstemmen Berliner Straße","lat":52.162963,"lng":9.793137,"lines":null,"url":null},{"name":"Jeinsen Garvestraße","lat":52.213998,"lng":9.793703,"lines":null,"url":null},{"name":"Jeinsen Raiffeisenstraße","lat":52.21625,"lng":9.794224,"lines":null,"url":null},{"name":"Nordstemmen/Heyersumer Str.","lat":52.163745,"lng":9.794835,"lines":null,"url":null},{"name":"Rössing/Am Denkmal","lat":52.183705,"lng":9.809621,"lines":null,"url":null},{"name":"Rössing/Alte Schule","lat":52.182686,"lng":9.809818,"lines":null,"url":null},{"name":"Rössing/Abzweig Barnten","lat":52.19158,"lng":9.810483,"lines":null,"url":null},{"name":"Rössing/Bahnhofstraße","lat":52.187389,"lng":9.812253,"lines":null,"url":null},{"name":"Barnten/Bahnhof","lat":52.195121,"lng":9.814355,"lines":null,"url":null},{"name":"Barnten Kriegerdenkmal","lat":52.200704,"lng":9.815505,"lines":null,"url":null},{"name":"Barnten/Siedlung","lat":52.200005,"lng":9.81643,"lines":null,"url":null},{"name":"Barnten/Thie","lat":52.20257,"lng":9.81714,"lines":null,"url":null},{"name":"Rössing/Kirchstraße","lat":52.182427,"lng":9.817149,"lines":null,"url":null},{"name":"Schliekum/Trafostation","lat":52.233913,"lng":9.818092,"lines":null,"url":null}],"gauges":[{"id":48,"name":"Herrenhausen","lat":52.388068,"lng":9.676062}],"depth_map":null}},"country":"DE","last_updated":"2026-05-05T20:04:24.308Z","error":false}