{"id":12835,"slug":"waldsee-bei-dormagen-hackenbroich","url":"https://www.hejfish.com/d/12835-waldsee-bei-dormagen-hackenbroich","name":"Waldsee bei Dormagen - Hackenbroich","description":"","water_size_ha":null,"fish":["HechtFlussbarschKarpfenRotaugeRotfederBrasseSchleie"],"techniques":["AnsitzangelnPosenangelnSpinnangeln"],"properties":["kein Boot\nKein Nachtfischen\nÖffisFangmeldung erforderlich\nTechniken:\nAnsitzangelnPosenangelnSpinnangeln"],"season":null,"water_type":null,"rules_text":"","mobile_ticket":false,"print_required":false,"tickets":[],"manager":null,"main_image":null,"location_info":["Nordrhein-Westfalen","Rhein-Kreis Neuss"],"lat":null,"lng":null,"geocode_source":null,"map_data":{"data":{"id":12835,"geojson":[],"locations":[{"lat":51.067294,"lng":6.804549}],"stations":[{"name":"Dormagen Gärtnerei Peters","lat":51.071827,"lng":6.79748,"lines":null,"url":null},{"name":"Dormagen Dr-Geldmacher-Str.","lat":51.06756,"lng":6.806032,"lines":null,"url":null},{"name":"Dormagen Kreiskrankenhaus","lat":51.073425,"lng":6.806634,"lines":null,"url":null},{"name":"Dormagen Elsa-Brandström-Str.","lat":51.069919,"lng":6.8072,"lines":null,"url":null},{"name":"Dormagen Schulzentrum","lat":51.075225,"lng":6.808862,"lines":null,"url":null},{"name":"Dormagen Neckarstr.","lat":51.063738,"lng":6.808871,"lines":null,"url":null},{"name":"Dormagen Mainstr.","lat":51.060548,"lng":6.810946,"lines":null,"url":null}],"gauges":[],"depth_map":null}},"country":"DE","last_updated":"2026-05-05T20:04:44.505Z","error":false}