{"id":12837,"slug":"gruener-see","url":"https://www.hejfish.com/d/12837-gruener-see","name":"Grüner See","description":"","water_size_ha":null,"fish":["AalKarpfenHechtFlussbarschZanderWelsDiv. Weißfische"],"techniques":["AnsitzangelnFliegenfischen… mehr"],"properties":["kein Boot\nNachtfischen\nTechniken:\nAnsitzangelnFliegenfischen… mehr"],"season":null,"water_type":null,"rules_text":"","mobile_ticket":false,"print_required":true,"tickets":[],"manager":null,"main_image":null,"location_info":["Nordrhein-Westfalen","Kreis Mettmann"],"lat":null,"lng":null,"geocode_source":null,"map_data":{"data":{"id":12837,"geojson":[],"locations":[{"lat":51.285246,"lng":6.822901}],"stations":[{"name":"Ratingen Erfurter Straße","lat":51.290104,"lng":6.81329,"lines":null,"url":null},{"name":"Ratingen Brandenburger Straße","lat":51.293474,"lng":6.814063,"lines":null,"url":null},{"name":"Ratingen Nösenberg","lat":51.286839,"lng":6.816892,"lines":null,"url":null},{"name":"Ratingen Dieselstraße","lat":51.294963,"lng":6.817755,"lines":null,"url":null},{"name":"Ratingen Einsteinstraße","lat":51.294289,"lng":6.82425,"lines":null,"url":null},{"name":"Ratingen Eckampstraße","lat":51.289637,"lng":6.828121,"lines":null,"url":null},{"name":"Ratingen Breslauer Straße","lat":51.293721,"lng":6.828894,"lines":null,"url":null},{"name":"Ratingen Bachstraße","lat":51.287823,"lng":6.83149,"lines":null,"url":null}],"gauges":[],"depth_map":null}},"country":"DE","last_updated":"2026-05-05T20:04:48.178Z","error":false}