{"id":12854,"slug":"grosser-hemminger-teich","url":"https://www.hejfish.com/d/12854-grosser-hemminger-teich","name":"Großer Hemminger Teich","description":"","water_size_ha":null,"fish":["AalHechtZanderKarpfenBrasseSchleieWels"],"techniques":["AnsitzangelnFliegenfischen… mehr"],"properties":["kein Boot\nNachtfischen\nTechniken:\nAnsitzangelnFliegenfischen… mehr"],"season":null,"water_type":null,"rules_text":"","mobile_ticket":false,"print_required":false,"tickets":[],"manager":null,"main_image":null,"location_info":["Niedersachsen","Region Hannover"],"lat":null,"lng":null,"geocode_source":null,"map_data":{"data":{"id":12854,"geojson":[],"locations":[{"lat":52.331123,"lng":9.744159}],"stations":[{"name":"Hemmingen Dorfstraße","lat":52.324279,"lng":9.746379,"lines":null,"url":null},{"name":"Hemmingen Börie","lat":52.325218,"lng":9.74346,"lines":null,"url":null},{"name":"Hemmingen KGS","lat":52.325427,"lng":9.744215,"lines":null,"url":null},{"name":"Hemmingen Am Sportfeld","lat":52.325674,"lng":9.73719,"lines":null,"url":null},{"name":"Hemmingen Döhrener Straße","lat":52.327359,"lng":9.750314,"lines":null,"url":null}],"gauges":[],"depth_map":null}},"country":"DE","last_updated":"2026-05-05T20:05:16.963Z","error":false}