{"id":12854,"slug":"grosser-hemminger-teich","url":"https://www.hejfish.com/d/12854-grosser-hemminger-teich","name":"Großer Hemminger Teich","description":"Deutschland, Österreich, Niederlande","water_size_ha":null,"fish":[],"techniques":["Aal","Aal","Hecht","Hecht","Zander","Zander","Karpfen","Karpfen","Brasse","Brasse","Schleie","Schleie","Wels","Wels"],"properties":["Aal","Aal","Hecht","Hecht","Zander","Zander","Karpfen","Karpfen","Brasse","Brasse","Schleie","Schleie","Wels","Wels"],"tickets":[{"name":"Fischereiverein Hannover e.V.","price":"ANGELKARTEN AB 18,00 €"}],"manager":null,"lat":52.331123,"lng":9.744159,"geocode_source":"hejfish_api_map","map_data":{"id":12854,"geojson":[],"locations":[{"lat":52.331123,"lng":9.744159}],"stations":[{"name":"Hemmingen Dorfstraße","lat":52.324279,"lng":9.746379,"lines":null,"url":null},{"name":"Hemmingen Börie","lat":52.325218,"lng":9.74346,"lines":null,"url":null},{"name":"Hemmingen KGS","lat":52.325427,"lng":9.744215,"lines":null,"url":null},{"name":"Hemmingen Am Sportfeld","lat":52.325674,"lng":9.73719,"lines":null,"url":null},{"name":"Hemmingen Döhrener Straße","lat":52.327359,"lng":9.750314,"lines":null,"url":null}],"gauges":[],"depth_map":null},"last_updated":"2026-05-06T18:13:52.866Z","error":false}