{"id":12880,"slug":"wondreb-hundsbach-schloppach","url":"https://www.hejfish.com/d/12880-wondreb-hundsbach-schloppach","name":"Wondreb Hundsbach - Schloppach","description":"","water_size_ha":null,"fish":["AalHechtFlussbarschDiv. WeißfischeBachforelle"],"techniques":["AnsitzangelnFliegenfischen… mehr"],"properties":["kein Boot\nKein Nachtfischen\nÖffisFangmeldung erforderlich\nTechniken:\nAnsitzangelnFliegenfischen… mehr"],"season":null,"water_type":null,"rules_text":"","mobile_ticket":false,"print_required":false,"tickets":[],"manager":null,"main_image":null,"location_info":["Bayern","Kreis Tirschenreuth"],"lat":null,"lng":null,"geocode_source":null,"map_data":{"data":{"id":12880,"geojson":[],"locations":[{"lat":50.01105,"lng":12.317557},{"lat":50.024676,"lng":12.362252}],"stations":[{"name":"Waldsassen, Basilikaplatz,Egerteich","lat":50.003702,"lng":12.308231,"lines":null,"url":null},{"name":"Mitterhof","lat":50.013909,"lng":12.318615,"lines":null,"url":null},{"name":"Mammersreuth","lat":50.01612,"lng":12.360046,"lines":null,"url":null},{"name":"Hundsbach, Siedlung","lat":50.021499,"lng":12.323098,"lines":null,"url":null},{"name":"Schloppach","lat":50.023121,"lng":12.343696,"lines":null,"url":null},{"name":"Hundsbach","lat":50.024022,"lng":12.329494,"lines":null,"url":null},{"name":"Waldsassen, Abzw Neusorg","lat":50.02749,"lng":12.307818,"lines":null,"url":null},{"name":"Egerteich","lat":50.028708,"lng":12.345682,"lines":null,"url":null}],"gauges":[],"depth_map":null}},"country":"DE","last_updated":"2026-05-05T20:06:17.678Z","error":false}