{"id":12898,"slug":"vils-strecke-3","url":"https://www.hejfish.com/d/12898-vils-strecke-3","name":"Vils Strecke 3","description":"","water_size_ha":null,"fish":["HechtZanderKarpfenSchleieBrasseRotaugeQuappeBachforelleRapfenGiebelGüsterLaubeDöbelFlussbarschNaseBarbeAland"],"techniques":["NaturköderangelnPosenangeln… mehr"],"properties":["kein Boot\nNachtfischen\nÖffisFangmeldung erforderlich\nTechniken:\nNaturköderangelnPosenangeln… mehr"],"season":null,"water_type":null,"rules_text":"","mobile_ticket":false,"print_required":false,"tickets":[],"manager":null,"main_image":null,"location_info":["Bayern","Kreis Landshut"],"lat":null,"lng":null,"geocode_source":null,"map_data":{"data":{"id":12898,"geojson":[],"locations":[{"lat":48.393779,"lng":12.297269},{"lat":48.409335,"lng":12.320598},{"lat":48.409237,"lng":12.322598}],"stations":[{"name":"Mariaberg","lat":48.387453,"lng":12.290085,"lines":null,"url":null},{"name":"Bachmühle","lat":48.39003,"lng":12.296876,"lines":null,"url":null},{"name":"Vilssöhl","lat":48.399025,"lng":12.301008,"lines":null,"url":null},{"name":"Haselbach bei Vilsbiburg","lat":48.395602,"lng":12.308006,"lines":null,"url":null},{"name":"Tattendorf","lat":48.411298,"lng":12.312902,"lines":null,"url":null},{"name":"Motting","lat":48.417028,"lng":12.316019,"lines":null,"url":null},{"name":"Stadl bei Vilsbiburg","lat":48.400767,"lng":12.316918,"lines":null,"url":null},{"name":"Unterlanding","lat":48.417899,"lng":12.324499,"lines":null,"url":null},{"name":"Landesberg, Abzw","lat":48.406277,"lng":12.327284,"lines":null,"url":null},{"name":"Johanneskirchen","lat":48.408072,"lng":12.32953,"lines":null,"url":null}],"gauges":[{"id":1625,"name":"Dietelskirchen","lat":48.4958127,"lng":12.3440698},{"id":1617,"name":"Aham","lat":48.5274193,"lng":12.4723312},{"id":1623,"name":"Vilsbiburg","lat":48.4532142,"lng":12.3656716}],"depth_map":null}},"country":"DE","last_updated":"2026-05-05T20:06:33.989Z","error":false}