{"id":12903,"slug":"waldnaab-bei-weiden-f04","url":"https://www.hejfish.com/d/12903-waldnaab-bei-weiden-f04","name":"Waldnaab bei Weiden (F04)","description":"","water_size_ha":null,"fish":["AalHechtKarpfenSchleieWelsRapfenZanderDiv. Weißfische"],"techniques":["AnsitzangelnFliegenfischen… mehr"],"properties":["Boot\nNachtfischen\nÖffisFangmeldung erforderlich\nTechniken:\nAnsitzangelnFliegenfischen… mehr"],"season":null,"water_type":null,"rules_text":"","mobile_ticket":false,"print_required":true,"tickets":[],"manager":null,"main_image":null,"location_info":["Bayern","Kreis Neustadt an der Waldnaab"],"lat":null,"lng":null,"geocode_source":null,"map_data":{"data":{"id":12903,"geojson":[],"locations":[{"lat":49.628526,"lng":12.143382},{"lat":49.606505,"lng":12.137513}],"stations":[{"name":"Oberwildenau, Naabweg","lat":49.598335,"lng":12.128218,"lines":null,"url":null},{"name":"Haselhöhe","lat":49.611667,"lng":12.133967,"lines":null,"url":null},{"name":"Unterwildenau","lat":49.599733,"lng":12.135108,"lines":null,"url":null},{"name":"Rothenstadt, Schule","lat":49.637585,"lng":12.138872,"lines":null,"url":null},{"name":"Rothenstadt Kriegerdenkmal","lat":49.629364,"lng":12.138988,"lines":null,"url":null},{"name":"Rothenstadt Sparkasse","lat":49.632454,"lng":12.139869,"lines":null,"url":null},{"name":"Rothenstadt Schloss","lat":49.62873,"lng":12.141881,"lines":null,"url":null},{"name":"Au,Au","lat":49.608727,"lng":12.147082,"lines":null,"url":null},{"name":"Pirkmühle","lat":49.637364,"lng":12.152795,"lines":null,"url":null}],"gauges":[],"depth_map":null}},"country":"DE","last_updated":"2026-05-05T20:06:43.935Z","error":false}