{"id":12902,"slug":"flutkanal-bei-weiden-f03","url":"https://www.hejfish.com/d/12902-flutkanal-bei-weiden-f03","name":"Flutkanal bei Weiden (F03)","description":"Deutschland, Österreich, Niederlande","water_size_ha":null,"fish":[],"techniques":["Aal","Aal","Hecht","Hecht","Karpfen","Karpfen","Zander","Zander","Döbel","Döbel","Brasse","Brasse","Quappe","Quappe"],"properties":["Aal","Aal","Hecht","Hecht","Karpfen","Karpfen","Zander","Zander","Döbel","Döbel","Brasse","Brasse","Quappe","Quappe"],"tickets":[],"manager":null,"lat":49.676578,"lng":12.168473,"geocode_source":"hejfish_api_map","map_data":{"id":12902,"geojson":[],"locations":[{"lat":49.676578,"lng":12.168473},{"lat":49.635584,"lng":12.149435}],"stations":[{"name":"Weiden Frühlingstraße","lat":49.681536,"lng":12.139455,"lines":null,"url":null},{"name":"Rothenstadt Sparkasse","lat":49.632454,"lng":12.139869,"lines":null,"url":null},{"name":"Rothenstadt Steinige Äcker","lat":49.64043,"lng":12.14012,"lines":null,"url":null},{"name":"Ullersricht Wendeplatte","lat":49.647038,"lng":12.14021,"lines":null,"url":null},{"name":"Weiden Joseph-Haas-Straße","lat":49.685883,"lng":12.140336,"lines":null,"url":null},{"name":"Weiden Kaserne","lat":49.672229,"lng":12.140578,"lines":null,"url":null},{"name":"Ullersricht Neubaustraße","lat":49.64484,"lng":12.141575,"lines":null,"url":null},{"name":"Weiden Aichingerstraße","lat":49.681408,"lng":12.141629,"lines":null,"url":null},{"name":"Weiden, Fichtenbühl","lat":49.65325,"lng":12.1418,"lines":null,"url":null},{"name":"Rothenstadt Schloss","lat":49.62873,"lng":12.141881,"lines":null,"url":null},{"name":"Weiden Rehbühlsiedlung","lat":49.685476,"lng":12.142941,"lines":null,"url":null},{"name":"Weiden Jägerstraße","lat":49.655669,"lng":12.143264,"lines":null,"url":null},{"name":"Weiden Berufsschule/Sporthalle","lat":49.68035,"lng":12.143282,"lines":null,"url":null},{"name":"Weiden Westfalenstraße","lat":49.667526,"lng":12.143345,"lines":null,"url":null},{"name":"Weiden Danziger Straße","lat":49.673252,"lng":12.143534,"lines":null,"url":null},{"name":"Weiden Breslauer Straße","lat":49.675049,"lng":12.143633,"lines":null,"url":null},{"name":"Weiden Berliner Straße","lat":49.670037,"lng":12.14366,"lines":null,"url":null},{"name":"Weiden Stockerhutweg","lat":49.67213,"lng":12.144028,"lines":null,"url":null},{"name":"Weiden, Polizeidirektion","lat":49.658309,"lng":12.145762,"lines":null,"url":null},{"name":"Weiden Elisabethkirche","lat":49.684796,"lng":12.146768,"lines":null,"url":null},{"name":"Weiden Berliner-/Leimbergerstr.","lat":49.665747,"lng":12.146831,"lines":null,"url":null},{"name":"Weiden Berufsschule","lat":49.676107,"lng":12.146885,"lines":null,"url":null},{"name":"Weiden, Mühlweg","lat":49.669607,"lng":12.147208,"lines":null,"url":null},{"name":"Weiden Firma Seltmann","lat":49.680832,"lng":12.147495,"lines":null,"url":null},{"name":"Weiden Nikolaus-Otto-Str.","lat":49.665566,"lng":12.148187,"lines":null,"url":null},{"name":"Weiden Hagebaumarkt","lat":49.660804,"lng":12.148744,"lines":null,"url":null},{"name":"Weiden Ermersrichter Straße","lat":49.668165,"lng":12.148897,"lines":null,"url":null},{"name":"Weiden Ackerstraße","lat":49.672828,"lng":12.149184,"lines":null,"url":null},{"name":"Weiden Pestalozzistr.","lat":49.671264,"lng":12.150056,"lines":null,"url":null},{"name":"Weiden Schweiger-/Frauenrichter Str.","lat":49.673432,"lng":12.150972,"lines":null,"url":null},{"name":"Weiden Königsberger Straße","lat":49.675729,"lng":12.151717,"lines":null,"url":null},{"name":"Weiden Rehbachstraße","lat":49.686319,"lng":12.151735,"lines":null,"url":null},{"name":"Weiden Schweiger-/Königsberger Str.","lat":49.675886,"lng":12.152283,"lines":null,"url":null},{"name":"Weiden Rehbühl-/Behaimstraße","lat":49.682994,"lng":12.152283,"lines":null,"url":null},{"name":"Pirkmühle","lat":49.637364,"lng":12.152795,"lines":null,"url":null},{"name":"Weiden, Untere Bauscherstr.","lat":49.66281,"lng":12.152903,"lines":null,"url":null},{"name":"Weiden Jugendzentrum","lat":49.677316,"lng":12.153074,"lines":null,"url":null},{"name":"Weiden Moosbürg","lat":49.659909,"lng":12.153352,"lines":null,"url":null},{"name":"Weiden, Maistraße","lat":49.67195,"lng":12.153388,"lines":null,"url":null},{"name":"Weiden Keplerstraße","lat":49.67978,"lng":12.153577,"lines":null,"url":null},{"name":"Weiden (Oberpf)","lat":49.670491,"lng":12.153837,"lines":null,"url":null},{"name":"Weiden Heimgarten","lat":49.68221,"lng":12.153945,"lines":null,"url":null},{"name":"Weiden Firma Bauscher","lat":49.667386,"lng":12.154673,"lines":null,"url":null},{"name":"Weiden Behaimstraße","lat":49.685232,"lng":12.154736,"lines":null,"url":null},{"name":"Weiden Rehbühlstraße","lat":49.681507,"lng":12.155877,"lines":null,"url":null},{"name":"Weiden, Stadtsparkasse","lat":49.673461,"lng":12.156155,"lines":null,"url":null},{"name":"Weiden, Stadtsparkasse","lat":49.673711,"lng":12.156299,"lines":null,"url":null},{"name":"Weiden, Weigelstraße","lat":49.672334,"lng":12.15647,"lines":null,"url":null},{"name":"Weiden, Ring Kino","lat":49.677164,"lng":12.157835,"lines":null,"url":null},{"name":"Weiden, Fa. Witt","lat":49.676949,"lng":12.157889,"lines":null,"url":null},{"name":"Pirk, Siedlung","lat":49.634909,"lng":12.159587,"lines":null,"url":null},{"name":"Weiden ZOB","lat":49.673554,"lng":12.160099,"lines":null,"url":null},{"name":"Weiden Naabwiesen","lat":49.670427,"lng":12.160503,"lines":null,"url":null},{"name":"Weiden Neues Rathaus","lat":49.673165,"lng":12.160728,"lines":null,"url":null},{"name":"Weiden, Nikolaistraße","lat":49.679687,"lng":12.16097,"lines":null,"url":null},{"name":"Weiden Josefskirche","lat":49.676635,"lng":12.161051,"lines":null,"url":null},{"name":"Weiden Maria-Seltmann-Haus","lat":49.677752,"lng":12.162821,"lines":null,"url":null},{"name":"Pirk b. Weiden, Rathaus","lat":49.634578,"lng":12.163548,"lines":null,"url":null},{"name":"Pirk, Erlenstraße","lat":49.638161,"lng":12.164213,"lines":null,"url":null},{"name":"Weiden Ulrich-Schönberger-Straße","lat":49.683756,"lng":12.164294,"lines":null,"url":null},{"name":"Weiden Stadtfriedhof","lat":49.682192,"lng":12.166351,"lines":null,"url":null},{"name":"Pirk, Feuerwehrhaus","lat":49.634432,"lng":12.166414,"lines":null,"url":null},{"name":"Weiden Justizgebäude/Klinikum","lat":49.678647,"lng":12.166585,"lines":null,"url":null},{"name":"Weiden, Sebastianstr.","lat":49.67792,"lng":12.166899,"lines":null,"url":null},{"name":"Pirk, Trebsauer Straße","lat":49.635404,"lng":12.16698,"lines":null,"url":null},{"name":"Schirmitz, Schule","lat":49.65058,"lng":12.167088,"lines":null,"url":null},{"name":"Weiden Finanzamt","lat":49.676944,"lng":12.167276,"lines":null,"url":null},{"name":"Schirmitz, Rathaus","lat":49.652645,"lng":12.168148,"lines":null,"url":null},{"name":"Pirk, Hangstraße","lat":49.635823,"lng":12.170124,"lines":null,"url":null},{"name":"Schirmitz, Blütenstraße","lat":49.655204,"lng":12.170914,"lines":null,"url":null},{"name":"Weiden Kepler-Gymnasium","lat":49.676688,"lng":12.172172,"lines":null,"url":null},{"name":"Pirk, Ringstraße","lat":49.636009,"lng":12.172334,"lines":null,"url":null},{"name":"Schirmitz, Bachstraße","lat":49.658222,"lng":12.172657,"lines":null,"url":null},{"name":"Schirmitz, Habichtweg","lat":49.661333,"lng":12.174112,"lines":null,"url":null},{"name":"Weiden OTH/FOS","lat":49.670811,"lng":12.174894,"lines":null,"url":null},{"name":"Pirkerziegelhütte","lat":49.637458,"lng":12.176736,"lines":null,"url":null},{"name":"Weiden Waterloostraße","lat":49.673212,"lng":12.177544,"lines":null,"url":null}],"gauges":[],"depth_map":null},"last_updated":"2026-05-06T18:14:13.177Z","error":false}