{"id":12942,"slug":"butjadinger-zuwaesserungskanal","url":"https://www.hejfish.com/d/12942-butjadinger-zuwaesserungskanal","name":"Butjadinger Zuwässerungskanal","description":"","water_size_ha":null,"fish":["AalHechtKarpfenSchleieZanderFlussbarsch"],"techniques":["AnsitzangelnPosenangeln… mehr"],"properties":["kein Boot\nNachtfischenFangmeldung erforderlich\nTechniken:\nAnsitzangelnPosenangeln… mehr"],"season":null,"water_type":null,"rules_text":"","mobile_ticket":false,"print_required":false,"tickets":[],"manager":null,"main_image":null,"location_info":["Niedersachsen","Kreis Wesermarsch"],"lat":null,"lng":null,"geocode_source":null,"map_data":{"data":{"id":12942,"geojson":[],"locations":[{"lat":53.562211,"lng":8.278216},{"lat":53.509711,"lng":8.457256},{"lat":53.461285,"lng":8.461282},{"lat":53.425023,"lng":8.472115}],"stations":[{"name":"Norderschweiburg Wilksen","lat":53.416104,"lng":8.285329,"lines":null,"url":null},{"name":"Hayenwärf","lat":53.416443,"lng":8.425686,"lines":null,"url":null},{"name":"Nordschwei Ahtingsweg","lat":53.416732,"lng":8.352631,"lines":null,"url":null},{"name":"Hiddingen","lat":53.418909,"lng":8.448545,"lines":null,"url":null},{"name":"Nordschwei Osinga","lat":53.419262,"lng":8.35482,"lines":null,"url":null},{"name":"Hayenwärf Alte Kanzlei","lat":53.420341,"lng":8.421666,"lines":null,"url":null},{"name":"Niederbeckum Rogge","lat":53.424844,"lng":8.445854,"lines":null,"url":null},{"name":"Augusthausen Gaststätte","lat":53.42512,"lng":8.310655,"lines":null,"url":null},{"name":"Augusthausen Fasanenweg","lat":53.425573,"lng":8.306711,"lines":null,"url":null},{"name":"Schwei Alter Schulweg","lat":53.426027,"lng":8.340429,"lines":null,"url":null},{"name":"Augusthausen Molkereistraße 64","lat":53.426163,"lng":8.298349,"lines":null,"url":null},{"name":"Augusthausen Norderschweiburg","lat":53.426296,"lng":8.296474,"lines":null,"url":null},{"name":"Beckum(Stadland) Abzw. Beckum","lat":53.428602,"lng":8.419458,"lines":null,"url":null},{"name":"Schweieraußendeich","lat":53.428664,"lng":8.357054,"lines":null,"url":null},{"name":"Reitland Bröske","lat":53.428993,"lng":8.317195,"lines":null,"url":null},{"name":"Reitland Heidemann","lat":53.43048,"lng":8.320048,"lines":null,"url":null},{"name":"Schwei Außendeich/Müller","lat":53.43244,"lng":8.357002,"lines":null,"url":null},{"name":"Binnenau(Stadland) Becker","lat":53.433148,"lng":8.396575,"lines":null,"url":null},{"name":"Messpunkt B437/B212","lat":53.433882,"lng":8.446222,"lines":null,"url":null},{"name":"Reitland Feuerwehr","lat":53.43489,"lng":8.329582,"lines":null,"url":null},{"name":"Jade-Sehestedt Strandbad","lat":53.436385,"lng":8.306527,"lines":null,"url":null},{"name":"Neuenhoben(Stadland) Meier","lat":53.439601,"lng":8.391874,"lines":null,"url":null},{"name":"Reitland Hartmann","lat":53.440178,"lng":8.341001,"lines":null,"url":null},{"name":"Reitland Herrenweg","lat":53.440206,"lng":8.347577,"lines":null,"url":null},{"name":"Havendorf","lat":53.441805,"lng":8.441863,"lines":null,"url":null},{"name":"Seefeld(Stadland) Abzw. Reitland","lat":53.442787,"lng":8.342815,"lines":null,"url":null},{"name":"Havendorfersande","lat":53.443906,"lng":8.463106,"lines":null,"url":null},{"name":"Kleinensiel","lat":53.444294,"lng":8.476119,"lines":null,"url":null},{"name":"Kleinensiel Am Kanal","lat":53.444663,"lng":8.471231,"lines":null,"url":null},{"name":"Kleinensiel Bahnhof","lat":53.444768,"lng":8.475913,"lines":null,"url":null},{"name":"Jade-Sehestedt Abzw. Moorweg","lat":53.445499,"lng":8.315966,"lines":null,"url":null},{"name":"Seefeld(Stadland) Norderaußendeich","lat":53.445831,"lng":8.342646,"lines":null,"url":null},{"name":"Esenshammer Oberdeich","lat":53.446005,"lng":8.418501,"lines":null,"url":null},{"name":"Morgenland(Stadland) Kämena","lat":53.447434,"lng":8.385547,"lines":null,"url":null},{"name":"Esenshamm Kindergarten","lat":53.448486,"lng":8.441152,"lines":null,"url":null},{"name":"Esenshamm Schule","lat":53.44974,"lng":8.442178,"lines":null,"url":null},{"name":"Esenshamm Ort","lat":53.45008,"lng":8.439497,"lines":null,"url":null},{"name":"Seefelderaußendeich","lat":53.452103,"lng":8.344227,"lines":null,"url":null},{"name":"Esenshamm Morgenländer Weg","lat":53.452791,"lng":8.405554,"lines":null,"url":null},{"name":"Morgenland(Stadland) Barre","lat":53.452957,"lng":8.378854,"lines":null,"url":null},{"name":"Esenshamm Helios Klinik Wesermarsch","lat":53.455619,"lng":8.440743,"lines":null,"url":null},{"name":"Seefeld(Stadland) Mühle","lat":53.456724,"lng":8.345757,"lines":null,"url":null},{"name":"Seefeld(Stadland) Kirche","lat":53.457124,"lng":8.357277,"lines":null,"url":null},{"name":"Seefeld(Stadland) Abzw. Morgenland","lat":53.457661,"lng":8.363412,"lines":null,"url":null},{"name":"Nordenham Hoffe","lat":53.457986,"lng":8.444384,"lines":null,"url":null},{"name":"Seefeld(Stadland) Schule","lat":53.45942,"lng":8.358284,"lines":null,"url":null},{"name":"Seefeld(Stadland) Schaart","lat":53.45947,"lng":8.362757,"lines":null,"url":null},{"name":"Augustgroden Reitländer Zoll","lat":53.460307,"lng":8.328151,"lines":null,"url":null},{"name":"Augustgroden Grimm","lat":53.462462,"lng":8.328861,"lines":null,"url":null},{"name":"Esenshammergroden","lat":53.462709,"lng":8.403983,"lines":null,"url":null},{"name":"Norderseefeld Schaaf","lat":53.466155,"lng":8.350373,"lines":null,"url":null},{"name":"Abbehausergroden","lat":53.468067,"lng":8.397595,"lines":null,"url":null},{"name":"Großensiel Ecke Hansingstraße","lat":53.468306,"lng":8.474621,"lines":null,"url":null},{"name":"Großensiel Königsfelder Straße","lat":53.468534,"lng":8.471319,"lines":null,"url":null},{"name":"Großensiel Am Sieltief","lat":53.468902,"lng":8.467195,"lines":null,"url":null},{"name":"Großensiel Kuboth","lat":53.469708,"lng":8.458382,"lines":null,"url":null},{"name":"Ellwürden Kreuzung","lat":53.471001,"lng":8.451494,"lines":null,"url":null},{"name":"Nordenham Pommernstraße","lat":53.472282,"lng":8.4765,"lines":null,"url":null},{"name":"Nordenham Wartfelder Straße","lat":53.474441,"lng":8.477817,"lines":null,"url":null},{"name":"Ellwürden Siedlung","lat":53.474936,"lng":8.453036,"lines":null,"url":null},{"name":"Abbehauser Hörne","lat":53.47586,"lng":8.384818,"lines":null,"url":null},{"name":"Augustgroden Onnen","lat":53.477278,"lng":8.333282,"lines":null,"url":null},{"name":"Nordenham Südschule","lat":53.477567,"lng":8.474732,"lines":null,"url":null},{"name":"Nordenham Hochhaus/Aldi","lat":53.477595,"lng":8.470335,"lines":null,"url":null},{"name":"Ellwürden Stadländer Straße","lat":53.477745,"lng":8.453966,"lines":null,"url":null},{"name":"Nordenham Bernhardstraße","lat":53.477915,"lng":8.4799,"lines":null,"url":null},{"name":"Norderseefeld Schwarting","lat":53.478314,"lng":8.35408,"lines":null,"url":null},{"name":"Nordenham Oststraße","lat":53.479642,"lng":8.480921,"lines":null,"url":null},{"name":"Abbehausen Infelder Weg","lat":53.480834,"lng":8.444876,"lines":null,"url":null},{"name":"Abbehauser Wehl","lat":53.481449,"lng":8.393265,"lines":null,"url":null},{"name":"Nordenham Von-Helmholtz-Straße","lat":53.482318,"lng":8.470628,"lines":null,"url":null},{"name":"Norderseefeld Dollerschell","lat":53.482485,"lng":8.355451,"lines":null,"url":null},{"name":"Norderahn Onken","lat":53.482585,"lng":8.334841,"lines":null,"url":null},{"name":"Abbehausen Venema","lat":53.482957,"lng":8.440585,"lines":null,"url":null},{"name":"Nordenham Kindergarten Mitte","lat":53.483438,"lng":8.466503,"lines":null,"url":null},{"name":"Abbehausen Schule","lat":53.483871,"lng":8.437468,"lines":null,"url":null},{"name":"Nordenham Bremer Straße","lat":53.484677,"lng":8.474841,"lines":null,"url":null},{"name":"Nordenham Jahnstraße/Kreiszeitung","lat":53.485272,"lng":8.481214,"lines":null,"url":null},{"name":"Abbehausen Butjadinger/Sarver Straße","lat":53.485554,"lng":8.435639,"lines":null,"url":null},{"name":"Nordenham Amtsgericht/Gymnasium","lat":53.486043,"lng":8.477645,"lines":null,"url":null},{"name":"Nordenham Laubenkolonie","lat":53.48735,"lng":8.473311,"lines":null,"url":null},{"name":"Abbehausen Eduard-Krüger-Straße","lat":53.488808,"lng":8.438306,"lines":null,"url":null},{"name":"Nordenham Wasserwerk","lat":53.488872,"lng":8.462907,"lines":null,"url":null},{"name":"Nordenham Hermann-Ehlers-Siedlung","lat":53.488973,"lng":8.470833,"lines":null,"url":null},{"name":"Nordenham Rathaus","lat":53.489586,"lng":8.478577,"lines":null,"url":null},{"name":"Heering Klosterweg","lat":53.490347,"lng":8.408062,"lines":null,"url":null},{"name":"Moorsee(Nordenham) Mühle","lat":53.490563,"lng":8.427804,"lines":null,"url":null},{"name":"Nordenham Oldenburger Straße","lat":53.4907,"lng":8.468286,"lines":null,"url":null},{"name":"Nordenham Atens-Friedeburg","lat":53.491435,"lng":8.469982,"lines":null,"url":null},{"name":"Nordenham St.-Willehadstraße","lat":53.492926,"lng":8.481568,"lines":null,"url":null},{"name":"Moorsee(Nordenham) Abzw. Seefeld","lat":53.492965,"lng":8.420847,"lines":null,"url":null},{"name":"Nordenham Wehrdeich","lat":53.49342,"lng":8.472616,"lines":null,"url":null},{"name":"Nordenham Hallenbad Atens","lat":53.494737,"lng":8.473518,"lines":null,"url":null},{"name":"Abbehausen Marschenversuchsstation","lat":53.494825,"lng":8.44338,"lines":null,"url":null},{"name":"Ahndeich Burhop","lat":53.496444,"lng":8.364569,"lines":null,"url":null},{"name":"Nordenham Viktoriastraße/Friedhof","lat":53.496918,"lng":8.474941,"lines":null,"url":null},{"name":"Hobendeich Rennies","lat":53.497431,"lng":8.339041,"lines":null,"url":null},{"name":"Moorsee(Nordenham) Renken","lat":53.497877,"lng":8.418308,"lines":null,"url":null},{"name":"Ahndeich Fitje","lat":53.498136,"lng":8.347384,"lines":null,"url":null},{"name":"Nordenham Sielstraße/Atens","lat":53.499532,"lng":8.477064,"lines":null,"url":null},{"name":"Nordenham Schule am Siel","lat":53.49994,"lng":8.475713,"lines":null,"url":null},{"name":"Moorsee(Nordenham) Westmoorsee","lat":53.500697,"lng":8.405689,"lines":null,"url":null},{"name":"Nordenham Wendeplatz/Sielstraße","lat":53.501277,"lng":8.478164,"lines":null,"url":null},{"name":"Nordenham McDonald's","lat":53.503792,"lng":8.474335,"lines":null,"url":null},{"name":"Nordenham Nordsee Center","lat":53.504532,"lng":8.47866,"lines":null,"url":null},{"name":"Stollhamm Wischweg","lat":53.510194,"lng":8.378142,"lines":null,"url":null},{"name":"Stollhamm Seniorenheim","lat":53.510801,"lng":8.374002,"lines":null,"url":null},{"name":"Stollhamm Bahnhof","lat":53.511722,"lng":8.36757,"lines":null,"url":null},{"name":"Stollhamm Bahnhofsstraße","lat":53.512458,"lng":8.366719,"lines":null,"url":null},{"name":"Stollhamm Kirche","lat":53.513688,"lng":8.360587,"lines":null,"url":null},{"name":"Stollhammerdeich","lat":53.514315,"lng":8.334861,"lines":null,"url":null},{"name":"Stollhamm Nordpol","lat":53.517781,"lng":8.360449,"lines":null,"url":null},{"name":"Phiesewarden Burgstraße","lat":53.519623,"lng":8.479274,"lines":null,"url":null},{"name":"Phiesewarden Dritte-Bult-Straße","lat":53.520343,"lng":8.475313,"lines":null,"url":null},{"name":"Phiesewarden Feuerwehr","lat":53.52161,"lng":8.477225,"lines":null,"url":null},{"name":"Stollhamm Beckmannsfeld","lat":53.522588,"lng":8.331988,"lines":null,"url":null},{"name":"Nordenham Phiesewarden","lat":53.522983,"lng":8.474977,"lines":null,"url":null},{"name":"Stollhamm Iffens","lat":53.53174,"lng":8.330486,"lines":null,"url":null},{"name":"Nordenham-Schweewarden Ort","lat":53.533004,"lng":8.467742,"lines":null,"url":null},{"name":"Schweewarden Mehrings","lat":53.533713,"lng":8.46305,"lines":null,"url":null},{"name":"Nordenham-Schweewarden Widders","lat":53.534362,"lng":8.458894,"lines":null,"url":null},{"name":"Eckwarden Ort","lat":53.534395,"lng":8.269495,"lines":null,"url":null},{"name":"Nordenham Boving","lat":53.541189,"lng":8.445514,"lines":null,"url":null},{"name":"Eckwarden Bollwerk","lat":53.541196,"lng":8.288015,"lines":null,"url":null},{"name":"Roddens Roddenser Straße","lat":53.543949,"lng":8.292475,"lines":null,"url":null},{"name":"Stollhamm Mitteldeich","lat":53.54397,"lng":8.359921,"lines":null,"url":null},{"name":"Waddens Husumer Weg","lat":53.544376,"lng":8.434543,"lines":null,"url":null},{"name":"Waddens Abzw. Waddensersiel","lat":53.546683,"lng":8.425283,"lines":null,"url":null},{"name":"Roddens","lat":53.547638,"lng":8.3016,"lines":null,"url":null},{"name":"Stollhamm Pumpe","lat":53.548476,"lng":8.311136,"lines":null,"url":null},{"name":"Roddens Abzw. Seeverns","lat":53.54853,"lng":8.307902,"lines":null,"url":null},{"name":"Waddens Turnhalle/Sportplatz","lat":53.549141,"lng":8.416209,"lines":null,"url":null},{"name":"Waddens Oegenser Weg","lat":53.554399,"lng":8.405789,"lines":null,"url":null},{"name":"Seeverns","lat":53.558013,"lng":8.301408,"lines":null,"url":null},{"name":"Waddens Isenser Burgweg","lat":53.558743,"lng":8.395324,"lines":null,"url":null},{"name":"Waddens-Sillens Ringweg","lat":53.562645,"lng":8.381186,"lines":null,"url":null},{"name":"Burhave Hollwarden","lat":53.565678,"lng":8.363367,"lines":null,"url":null},{"name":"Burhave Abzw. Burhaversiel","lat":53.566587,"lng":8.38004,"lines":null,"url":null},{"name":"Tossens Alte Reithalle","lat":53.568832,"lng":8.269053,"lines":null,"url":null},{"name":"Burhave Rüstringer Straße","lat":53.57204,"lng":8.367049,"lines":null,"url":null},{"name":"Burhave Schule","lat":53.572052,"lng":8.362977,"lines":null,"url":null}],"gauges":[],"depth_map":null}},"country":"DE","last_updated":"2026-05-05T20:07:54.581Z","error":false}