{"id":12947,"slug":"modellboothafen","url":"https://www.hejfish.com/d/12947-modellboothafen","name":"Modellboothafen","description":"","water_size_ha":null,"fish":["AalHechtKarpfenSchleieZanderFlussbarsch"],"techniques":["AnsitzangelnPosenangelnSpinnangeln"],"properties":["kein Boot\nKein Nachtfischen\nÖffisFangmeldung erforderlich\nTechniken:\nAnsitzangelnPosenangelnSpinnangeln"],"season":null,"water_type":null,"rules_text":"","mobile_ticket":false,"print_required":false,"tickets":[],"manager":null,"main_image":null,"location_info":["Niedersachsen","Kreis Wesermarsch"],"lat":null,"lng":null,"geocode_source":null,"map_data":{"data":{"id":12947,"geojson":[],"locations":[{"lat":53.492567,"lng":8.473892}],"stations":[{"name":"Nordenham Kindergarten Mitte","lat":53.483438,"lng":8.466503,"lines":null,"url":null},{"name":"Nordenham Museum/Karlstraße","lat":53.483508,"lng":8.483267,"lines":null,"url":null},{"name":"Nordenham Bremer Straße","lat":53.484677,"lng":8.474841,"lines":null,"url":null},{"name":"Nordenham Jahnstraße/Kreiszeitung","lat":53.485272,"lng":8.481214,"lines":null,"url":null},{"name":"Nordenham Amtsgericht/Gymnasium","lat":53.486043,"lng":8.477645,"lines":null,"url":null},{"name":"Nordenham Laubenkolonie","lat":53.48735,"lng":8.473311,"lines":null,"url":null},{"name":"Nordenham Hermann-Ehlers-Siedlung","lat":53.488973,"lng":8.470833,"lines":null,"url":null},{"name":"Nordenham Rathaus","lat":53.489586,"lng":8.478577,"lines":null,"url":null},{"name":"Nordenham Oldenburger Straße","lat":53.4907,"lng":8.468286,"lines":null,"url":null},{"name":"Nordenham Atens-Friedeburg","lat":53.491435,"lng":8.469982,"lines":null,"url":null},{"name":"Nordenham St.-Willehadstraße","lat":53.492926,"lng":8.481568,"lines":null,"url":null},{"name":"Nordenham Wehrdeich","lat":53.49342,"lng":8.472616,"lines":null,"url":null},{"name":"Nordenham Viktoriastraße/Walther-Rathenau-Straße","lat":53.494535,"lng":8.483184,"lines":null,"url":null},{"name":"Nordenham Hallenbad Atens","lat":53.494737,"lng":8.473518,"lines":null,"url":null},{"name":"Nordenham Viktoriastraße/Friedhof","lat":53.496918,"lng":8.474941,"lines":null,"url":null},{"name":"Nordenham Sielstraße/Atens","lat":53.499532,"lng":8.477064,"lines":null,"url":null},{"name":"Nordenham Schule am Siel","lat":53.49994,"lng":8.475713,"lines":null,"url":null},{"name":"Nordenham Wendeplatz/Sielstraße","lat":53.501277,"lng":8.478164,"lines":null,"url":null}],"gauges":[],"depth_map":null}},"country":"DE","last_updated":"2026-05-05T20:08:05.998Z","error":false}