{"id":12974,"slug":"wuemmegebiet-klueverweg-bis-kroops-wasseruhr","url":"https://www.hejfish.com/d/12974-wuemmegebiet-klueverweg-bis-kroops-wasseruhr","name":"Wümmegebiet (Klüverweg bis Kroops Wasseruhr)","description":"","water_size_ha":null,"fish":[],"techniques":["AnsitzangelnPosenangeln… mehr"],"properties":["kein Boot\nNachtfischen\nÖffisFangmeldung erforderlich\nTechniken:\nAnsitzangelnPosenangeln… mehr"],"season":null,"water_type":null,"rules_text":"","mobile_ticket":false,"print_required":false,"tickets":[],"manager":null,"main_image":null,"location_info":["Niedersachsen","Kreis Osterholz"],"lat":null,"lng":null,"geocode_source":null,"map_data":{"data":{"id":12974,"geojson":[],"locations":[{"lat":53.162305,"lng":8.826751},{"lat":53.156514,"lng":8.840358},{"lat":53.129759,"lng":8.864594},{"lat":53.134111,"lng":8.897056},{"lat":53.133904,"lng":8.89794},{"lat":53.12769,"lng":8.909355},{"lat":53.118298,"lng":8.944219}],"stations":[{"name":"Bremen Linzer Straße","lat":53.10848,"lng":8.861101,"lines":null,"url":null},{"name":"Bremen Kopernikusstraße","lat":53.109036,"lng":8.887189,"lines":null,"url":null},{"name":"Bremen Ohmstraße","lat":53.109118,"lng":8.891121,"lines":null,"url":null},{"name":"Bremen Celsiusstraße","lat":53.109664,"lng":8.848001,"lines":null,"url":null},{"name":"Bremen Oberste Kämpe","lat":53.109801,"lng":8.882018,"lines":null,"url":null},{"name":"Bremen Universität-Nord","lat":53.11064,"lng":8.854691,"lines":null,"url":null},{"name":"Bremen Ostwaldstraße","lat":53.111033,"lng":8.892938,"lines":null,"url":null},{"name":"Bremen Haferwende","lat":53.111887,"lng":8.878577,"lines":null,"url":null},{"name":"Bremen Wilhelm-Herbst-Straße","lat":53.111923,"lng":8.849904,"lines":null,"url":null},{"name":"Bremen Wetterungsweg","lat":53.11197,"lng":8.820089,"lines":null,"url":null},{"name":"Bremen Peter-Henlein-Straße","lat":53.113018,"lng":8.891596,"lines":null,"url":null},{"name":"Bremen Kuhgrabenweg","lat":53.113815,"lng":8.844014,"lines":null,"url":null},{"name":"Bremen Fultonstraße","lat":53.114441,"lng":8.89599,"lines":null,"url":null},{"name":"Bremen Stadtwaldsee","lat":53.114889,"lng":8.837954,"lines":null,"url":null},{"name":"Bremen Campingplatz","lat":53.115035,"lng":8.833152,"lines":null,"url":null},{"name":"Bremen Höger Weg","lat":53.115513,"lng":8.894018,"lines":null,"url":null},{"name":"Bremen Fraunhoferstraße","lat":53.116251,"lng":8.899534,"lines":null,"url":null},{"name":"Bremen Albert-Bischof-Straße","lat":53.117864,"lng":8.906101,"lines":null,"url":null},{"name":"Bremen Am Lehester Deich","lat":53.118618,"lng":8.897191,"lines":null,"url":null},{"name":"Bremen Louise-Böhm-Weg","lat":53.118985,"lng":8.908503,"lines":null,"url":null},{"name":"Bremen Borgfeld-Ost","lat":53.119653,"lng":8.912811,"lines":null,"url":null},{"name":"Bremen Vier Ruten","lat":53.119682,"lng":8.903581,"lines":null,"url":null},{"name":"Bremen Bürgermeister-Kaisen-Allee","lat":53.120951,"lng":8.899986,"lines":null,"url":null},{"name":"Bremen Katrepeler Landstraße","lat":53.121795,"lng":8.917363,"lines":null,"url":null},{"name":"Bremen Daniel-Jacobs-Allee","lat":53.123781,"lng":8.900069,"lines":null,"url":null},{"name":"Bremen Kiebitzbrink","lat":53.123849,"lng":8.911936,"lines":null,"url":null},{"name":"Bremen Borgfeld Ortsamt/Kirche","lat":53.126064,"lng":8.906898,"lines":null,"url":null},{"name":"Bremen Borgfeld-Mitte","lat":53.126798,"lng":8.902542,"lines":null,"url":null},{"name":"Bremen Borgfeld","lat":53.127033,"lng":8.898829,"lines":null,"url":null},{"name":"Lilienthal Truperdeich","lat":53.134455,"lng":8.894359,"lines":null,"url":null},{"name":"Lilienthal Truperdeich","lat":53.135267,"lng":8.898558,"lines":null,"url":null},{"name":"Lilienthal Trupe","lat":53.138093,"lng":8.899341,"lines":null,"url":null},{"name":"Lilienthal Feldhäuser Straße","lat":53.140108,"lng":8.905269,"lines":null,"url":null},{"name":"Lilienthal Lilienthal-Mitte","lat":53.143206,"lng":8.908811,"lines":null,"url":null},{"name":"Lilienthal Feldhausen","lat":53.143455,"lng":8.899627,"lines":null,"url":null},{"name":"Lilienthal Dr.-Sasse-Straße","lat":53.14535,"lng":8.909704,"lines":null,"url":null},{"name":"Lilienthal Moorhauser Landstraße","lat":53.147355,"lng":8.912158,"lines":null,"url":null},{"name":"Lilienthal Klinik","lat":53.1488,"lng":8.909375,"lines":null,"url":null},{"name":"Lilienthal Timkenweg","lat":53.150129,"lng":8.916955,"lines":null,"url":null},{"name":"Lilienthal Schulzentrum Schoofmoor","lat":53.151535,"lng":8.923639,"lines":null,"url":null},{"name":"Lilienthal Klosterweide","lat":53.152125,"lng":8.910796,"lines":null,"url":null},{"name":"Lilienthal-Moorhausen Grimmstraße","lat":53.152506,"lng":8.914823,"lines":null,"url":null},{"name":"Lilienthal Heideloge","lat":53.153052,"lng":8.920412,"lines":null,"url":null},{"name":"Lilienthal Schoofmoor","lat":53.153603,"lng":8.92211,"lines":null,"url":null},{"name":"Lilienthal Kutscher Behrens","lat":53.15378,"lng":8.938184,"lines":null,"url":null},{"name":"Lilienthal Auf dem Kamp","lat":53.154211,"lng":8.927745,"lines":null,"url":null},{"name":"Lilienthal Beim Neuen Damm","lat":53.15765,"lng":8.918116,"lines":null,"url":null},{"name":"Lilienthal","lat":53.15833,"lng":8.945083,"lines":null,"url":null},{"name":"Trupermoor Weißdornweg","lat":53.161943,"lng":8.938962,"lines":null,"url":null},{"name":"Lilienthal Falkenberg","lat":53.16206,"lng":8.947392,"lines":null,"url":null},{"name":"Lilienthal Grundschule Trupermoor","lat":53.162972,"lng":8.934577,"lines":null,"url":null},{"name":"Trupermoor Marienweg","lat":53.163906,"lng":8.929586,"lines":null,"url":null},{"name":"Kleinmoor(Lilienthal) Grube","lat":53.171015,"lng":8.923621,"lines":null,"url":null}],"gauges":[{"id":264,"name":"Borgfeld","lat":53.133971,"lng":8.894403},{"id":265,"name":"Niederblockland","lat":53.161504,"lng":8.826505}],"depth_map":null}},"country":"DE","last_updated":"2026-05-05T20:08:46.915Z","error":false}