{"id":12987,"slug":"holzbach-i","url":"https://www.hejfish.com/d/12987-holzbach-i","name":"Holzbach I","description":"","water_size_ha":null,"fish":["BachforelleDöbel"],"techniques":["Fliegenfischen"],"properties":["kein Boot\nKein Nachtfischen\nÖffisFangmeldung erforderlich\nTechniken:\nFliegenfischen"],"season":null,"water_type":null,"rules_text":"","mobile_ticket":false,"print_required":false,"tickets":[],"manager":null,"main_image":null,"location_info":["Rheinland-Pfalz","Kreis Neuwied"],"lat":null,"lng":null,"geocode_source":null,"map_data":{"data":{"id":12987,"geojson":[],"locations":[{"lat":50.62088,"lng":7.571577},{"lat":50.623267,"lng":7.560708}],"stations":[{"name":"Seifen Niederähren","lat":50.61924,"lng":7.57057,"lines":null,"url":null},{"name":"Seifen Abzw. Niederähren","lat":50.621098,"lng":7.571567,"lines":null,"url":null},{"name":"Seifen Alter Bahnhof","lat":50.624768,"lng":7.553682,"lines":null,"url":null},{"name":"Seifen Brunnen","lat":50.628421,"lng":7.5597,"lines":null,"url":null}],"gauges":[],"depth_map":null}},"country":"DE","last_updated":"2026-05-05T20:09:04.893Z","error":false}