{"id":13011,"slug":"ruhr-essen-bochum","url":"https://www.hejfish.com/d/13011-ruhr-essen-bochum","name":"Ruhr (Essen - Bochum)","description":"","water_size_ha":null,"fish":["AalBarbeBrasseHechtKarpfenRotaugeZanderSchleieBachforelleAlandWelsFlussbarschRapfen"],"techniques":["FeedernFliegenfischen… mehr"],"properties":["kein Boot\nNachtfischen\nÖffis\nTechniken:\nFeedernFliegenfischen… mehr"],"season":null,"water_type":null,"rules_text":"","mobile_ticket":false,"print_required":true,"tickets":[],"manager":null,"main_image":null,"location_info":["Nordrhein-Westfalen","Essen"],"lat":null,"lng":null,"geocode_source":null,"map_data":{"data":{"id":13011,"geojson":[],"locations":[{"lat":51.398003,"lng":7.079507},{"lat":51.430737,"lng":7.123896}],"stations":[{"name":"Essen Memelstr.","lat":51.406543,"lng":7.069768,"lines":null,"url":null},{"name":"Essen Sonderfeld","lat":51.426471,"lng":7.069975,"lines":null,"url":null},{"name":"Essen Springhoffsfeld","lat":51.428017,"lng":7.072984,"lines":null,"url":null},{"name":"Essen Lehmanns Brink","lat":51.423144,"lng":7.073119,"lines":null,"url":null},{"name":"Essen Rote Mühle","lat":51.407826,"lng":7.073793,"lines":null,"url":null},{"name":"Essen Rüpingsweg              ","lat":51.420057,"lng":7.073811,"lines":null,"url":null},{"name":"Essen Holthausen Bf","lat":51.41767,"lng":7.074781,"lines":null,"url":null},{"name":"Essen Kampmannbrücke","lat":51.400323,"lng":7.075679,"lines":null,"url":null},{"name":"Essen Schulte-Hinsel-Str.","lat":51.430783,"lng":7.077467,"lines":null,"url":null},{"name":"Essen Kevelohstr.","lat":51.43355,"lng":7.077673,"lines":null,"url":null},{"name":"Essen Bulkersteig","lat":51.413385,"lng":7.078051,"lines":null,"url":null},{"name":"Essen Hinseler Hof","lat":51.425143,"lng":7.078257,"lines":null,"url":null},{"name":"Essen Prinz-Friedrich-Str.","lat":51.393631,"lng":7.078455,"lines":null,"url":null},{"name":"Essen Langenberger Str.","lat":51.438237,"lng":7.078563,"lines":null,"url":null},{"name":"Essen Realschule Überruhr","lat":51.419906,"lng":7.079515,"lines":null,"url":null},{"name":"Essen Schaffelhofer Weg","lat":51.417883,"lng":7.080458,"lines":null,"url":null},{"name":"Essen Holthuser Tal","lat":51.410802,"lng":7.080916,"lines":null,"url":null},{"name":"Essen Kupferdreh","lat":51.39085,"lng":7.081141,"lines":null,"url":null},{"name":"Essen Poststr.","lat":51.39284,"lng":7.082345,"lines":null,"url":null},{"name":"Essen Deipenbecktal","lat":51.40656,"lng":7.082929,"lines":null,"url":null},{"name":"Essen Heuweg","lat":51.42614,"lng":7.083,"lines":null,"url":null},{"name":"Essen Schwermannstr.","lat":51.393227,"lng":7.084213,"lines":null,"url":null},{"name":"Essen Hinsbecker Löh","lat":51.395189,"lng":7.084249,"lines":null,"url":null},{"name":"Essen Klapperstr.","lat":51.423368,"lng":7.085812,"lines":null,"url":null},{"name":"Essen Fahrenberg","lat":51.400474,"lng":7.086118,"lines":null,"url":null},{"name":"Essen Kupferdreh Krankenhaus","lat":51.391287,"lng":7.086432,"lines":null,"url":null},{"name":"Essen Nöckersberg","lat":51.405075,"lng":7.088148,"lines":null,"url":null},{"name":"Essen Grotestr.","lat":51.394006,"lng":7.088669,"lines":null,"url":null},{"name":"Essen Wisthoff","lat":51.439783,"lng":7.090007,"lines":null,"url":null},{"name":"Essen Dellmannsfeld","lat":51.42069,"lng":7.091013,"lines":null,"url":null},{"name":"Essen Kupferdreh Friedhof","lat":51.393003,"lng":7.091301,"lines":null,"url":null},{"name":"Essen Marienbergstr.","lat":51.395839,"lng":7.092837,"lines":null,"url":null},{"name":"Essen Eisenwerk","lat":51.439923,"lng":7.093106,"lines":null,"url":null},{"name":"Essen Endemannhöhe","lat":51.406033,"lng":7.093547,"lines":null,"url":null},{"name":"Essen Beisemannhang","lat":51.393653,"lng":7.094939,"lines":null,"url":null},{"name":"E-Marienbergstr. Schl","lat":51.396528,"lng":7.095352,"lines":null,"url":null},{"name":"Essen Horster Str.","lat":51.438002,"lng":7.096242,"lines":null,"url":null},{"name":"Essen Ruhrblick","lat":51.418937,"lng":7.096287,"lines":null,"url":null},{"name":"Essen Abzweig Breloher Steig","lat":51.434244,"lng":7.098137,"lines":null,"url":null},{"name":"Essen Beulestr.","lat":51.431506,"lng":7.098694,"lines":null,"url":null},{"name":"Essen Byfang","lat":51.405747,"lng":7.098775,"lines":null,"url":null},{"name":"Essen Waldschlößchen","lat":51.41237,"lng":7.099116,"lines":null,"url":null},{"name":"Essen Schliepersberg","lat":51.394348,"lng":7.1012,"lines":null,"url":null},{"name":"Essen H.-Kämpchen-Str.","lat":51.416847,"lng":7.101991,"lines":null,"url":null},{"name":"Essen Horst","lat":51.43122,"lng":7.102359,"lines":null,"url":null},{"name":"Essen Breloher Steig","lat":51.437022,"lng":7.104578,"lines":null,"url":null},{"name":"Essen Kleinheide","lat":51.402727,"lng":7.105503,"lines":null,"url":null},{"name":"Essen Worringstr.","lat":51.41627,"lng":7.105809,"lines":null,"url":null},{"name":"Düschenhofer Wald","lat":51.394034,"lng":7.107057,"lines":null,"url":null},{"name":"Essen Von-Ossietzky-Ring","lat":51.436703,"lng":7.107551,"lines":null,"url":null},{"name":"Essen Brauksiepe","lat":51.414836,"lng":7.107596,"lines":null,"url":null},{"name":"Essen Geschwi.-Scholl-Str.","lat":51.43402,"lng":7.110148,"lines":null,"url":null},{"name":"Essen Abzweig Dahlhausen","lat":51.437627,"lng":7.110318,"lines":null,"url":null},{"name":"Hattingen Engels","lat":51.404503,"lng":7.112914,"lines":null,"url":null},{"name":"Essen Burgaltendorf Kirche","lat":51.415267,"lng":7.11392,"lines":null,"url":null},{"name":"Hattingen Kohlenstr.","lat":51.405865,"lng":7.114163,"lines":null,"url":null},{"name":"Essen Carl-Wolf-Str.","lat":51.43406,"lng":7.11437,"lines":null,"url":null},{"name":"Hattingen Breddestr.","lat":51.399684,"lng":7.115304,"lines":null,"url":null},{"name":"Essen Baumschule","lat":51.408275,"lng":7.115457,"lines":null,"url":null},{"name":"Essen Hörsterfeld","lat":51.436893,"lng":7.116876,"lines":null,"url":null},{"name":"Hattingen Nasse","lat":51.396943,"lng":7.117316,"lines":null,"url":null},{"name":"Essen Am Hang","lat":51.413799,"lng":7.118861,"lines":null,"url":null},{"name":"Essen Gemeindehaus","lat":51.416494,"lng":7.119104,"lines":null,"url":null},{"name":"Hattingen Essenberg","lat":51.39747,"lng":7.121628,"lines":null,"url":null},{"name":"Essen Burgaltendorf Burgr.","lat":51.416645,"lng":7.123173,"lines":null,"url":null},{"name":"Hattingen Im Tal","lat":51.399258,"lng":7.125886,"lines":null,"url":null},{"name":"Bochum Eisenbahnmuseum D'hsn","lat":51.433348,"lng":7.126191,"lines":null,"url":null},{"name":"Essen Vaestestr.","lat":51.41962,"lng":7.12629,"lines":null,"url":null},{"name":"Essen Im Rosental","lat":51.413709,"lng":7.128329,"lines":null,"url":null},{"name":"Hattingen Hilgenweg","lat":51.408213,"lng":7.129785,"lines":null,"url":null},{"name":"Hattingen Eichholzstr.","lat":51.401567,"lng":7.131222,"lines":null,"url":null},{"name":"Hattingen Hombergsegge","lat":51.408633,"lng":7.132435,"lines":null,"url":null}],"gauges":[{"id":223,"name":"Hattingen","lat":51.39975,"lng":7.161034}],"depth_map":null}},"country":"DE","last_updated":"2026-05-05T20:09:23.996Z","error":false}