{"id":13038,"slug":"rottspeichersee-hochwasserspeicher-postmuenster","url":"https://www.hejfish.com/d/13038-rottspeichersee-hochwasserspeicher-postmuenster","name":"Rottspeichersee (Hochwasserspeicher) Postmünster","description":"","water_size_ha":null,"fish":["SchleieBarbeKarpfenAalHechtZanderBrasseGiebelRotauge"],"techniques":["AnsitzangelnFeedern… mehr"],"properties":["kein Boot\nKein NachtfischenFangmeldung erforderlich\nTechniken:\nAnsitzangelnFeedern… mehr"],"season":null,"water_type":null,"rules_text":"","mobile_ticket":false,"print_required":true,"tickets":[],"manager":null,"main_image":null,"location_info":["Bayern","Kreis Rottal-Inn"],"lat":null,"lng":null,"geocode_source":null,"map_data":{"data":{"id":13038,"geojson":[],"locations":[{"lat":48.422254,"lng":12.89305}],"stations":[{"name":"Lenzhub","lat":48.429392,"lng":12.887716,"lines":null,"url":null},{"name":"Wolfsberg, Abzw b.Postmünster","lat":48.41571,"lng":12.890447,"lines":null,"url":null},{"name":"Schalldorf","lat":48.427151,"lng":12.901586,"lines":null,"url":null},{"name":"Postmünster, Schule","lat":48.418578,"lng":12.90244,"lines":null,"url":null}],"gauges":[{"id":823,"name":"Jahrsdorf","lat":48.252744,"lng":13.071573}],"depth_map":null}},"country":"DE","last_updated":"2026-05-05T20:10:16.163Z","error":false}