{"id":13038,"slug":"rottspeichersee-hochwasserspeicher-postmuenster","url":"https://www.hejfish.com/d/13038-rottspeichersee-hochwasserspeicher-postmuenster","name":"Rottspeichersee (Hochwasserspeicher) Postmünster","description":"Deutschland, Österreich, Niederlande","water_size_ha":null,"fish":[],"techniques":["Schleie","Schleie","Barbe","Barbe","Karpfen","Karpfen","Aal","Aal","Hecht","Hecht","Zander","Zander","Brasse","Brasse","Giebel","Giebel","Rotauge","Rotauge"],"properties":["Schleie","Schleie","Barbe","Barbe","Karpfen","Karpfen","Aal","Aal","Hecht","Hecht","Zander","Zander","Brasse","Brasse","Giebel","Giebel","Rotauge","Rotauge"],"tickets":[{"name":"Kreisfischereiverein Pfarrkirchen e.V.","price":"ANGELKARTEN AB 10,00 €"}],"manager":null,"lat":48.422254,"lng":12.89305,"geocode_source":"hejfish_api_map","map_data":{"id":13038,"geojson":[],"locations":[{"lat":48.422254,"lng":12.89305}],"stations":[{"name":"Lenzhub","lat":48.429392,"lng":12.887716,"lines":null,"url":null},{"name":"Wolfsberg, Abzw b.Postmünster","lat":48.41571,"lng":12.890447,"lines":null,"url":null},{"name":"Schalldorf","lat":48.427151,"lng":12.901586,"lines":null,"url":null},{"name":"Postmünster, Schule","lat":48.418578,"lng":12.90244,"lines":null,"url":null}],"gauges":[{"id":823,"name":"Jahrsdorf","lat":48.252744,"lng":13.071573}],"depth_map":null},"last_updated":"2026-05-06T18:15:05.852Z","error":false}