{"id":13206,"slug":"unterwasser-rmd-kanal-von-schleuse-dietfurt-bis-kanal-km-142-0-bei-meihern","url":"https://www.hejfish.com/d/13206-unterwasser-rmd-kanal-von-schleuse-dietfurt-bis-kanal-km-142-0-bei-meihern","name":"Unterwasser RMD - Kanal von Schleuse Dietfurt bis Kanal KM 142.0 bei Meihern","description":"","water_size_ha":null,"fish":["AalQuappeHechtZanderKarpfenBrasseNaseWelsAlandRotaugeRotfederRapfenBarbeRegenbogenforelleSchleie"],"techniques":["FeedernKarpfenangeln… mehr"],"properties":["kein Boot\nKein Nachtfischen\nÖffisFangmeldung erforderlich\nTechniken:\nFeedernKarpfenangeln… mehr"],"season":null,"water_type":null,"rules_text":"","mobile_ticket":false,"print_required":true,"tickets":[],"manager":null,"main_image":null,"location_info":["Bayern","Kreis Neumarkt in der Oberpfalz"],"lat":null,"lng":null,"geocode_source":null,"map_data":{"data":{"id":13206,"geojson":[],"locations":[{"lat":49.031264,"lng":11.565339},{"lat":48.996851,"lng":11.629705},{"lat":49.032343,"lng":11.563963},{"lat":48.99702,"lng":11.630676}],"stations":[{"name":"Abzw. Martlhof","lat":48.98874,"lng":11.595283,"lines":null,"url":null},{"name":"Meihern, Staatsstr.","lat":48.995949,"lng":11.631674,"lines":null,"url":null},{"name":"Vogelthal","lat":48.999697,"lng":11.564516,"lines":null,"url":null},{"name":"Arnsdorf","lat":49.001996,"lng":11.589983,"lines":null,"url":null},{"name":"Hallenhausen","lat":49.010281,"lng":11.589318,"lines":null,"url":null},{"name":"Schweinkofen","lat":49.015153,"lng":11.636614,"lines":null,"url":null},{"name":"Töging Sportplatz","lat":49.02095,"lng":11.561497,"lines":null,"url":null},{"name":"Mühlbach","lat":49.021775,"lng":11.616295,"lines":null,"url":null},{"name":"Töging Am Steig","lat":49.02548,"lng":11.562665,"lines":null,"url":null},{"name":"Griesstetten","lat":49.026158,"lng":11.581296,"lines":null,"url":null},{"name":"Dietfurt a.d.Altm. FWH","lat":49.032384,"lng":11.588312,"lines":null,"url":null},{"name":"Dietfurt a.d.Altm. Friedhof","lat":49.033467,"lng":11.592489,"lines":null,"url":null},{"name":"Dietfurt a.d.Altm. Bahnhofstr.","lat":49.034474,"lng":11.579985,"lines":null,"url":null},{"name":"Dietfurt a.d.Altm. Weiherstr.","lat":49.034875,"lng":11.584153,"lines":null,"url":null},{"name":"Dietfurt a.d.Altm. Rathaus","lat":49.035269,"lng":11.586785,"lines":null,"url":null},{"name":"Pestenrain","lat":49.039203,"lng":11.638384,"lines":null,"url":null},{"name":"Wildenstein","lat":49.039651,"lng":11.618082,"lines":null,"url":null}],"gauges":[],"depth_map":null}},"country":"DE","last_updated":"2026-05-05T20:14:54.495Z","error":false}