{"id":13208,"slug":"altwasser-griesstetten","url":"https://www.hejfish.com/d/13208-altwasser-griesstetten","name":"Altwasser Griesstetten","description":"","water_size_ha":null,"fish":["HechtZanderSchleieKarpfenBrasseRotaugeRotfederWelsAal"],"techniques":["AnsitzangelnKarpfenangeln… mehr"],"properties":["kein Boot\nKein Nachtfischen\nÖffisFangmeldung erforderlich\nTechniken:\nAnsitzangelnKarpfenangeln… mehr"],"season":null,"water_type":null,"rules_text":"","mobile_ticket":false,"print_required":true,"tickets":[],"manager":null,"main_image":null,"location_info":["Bayern","Kreis Neumarkt in der Oberpfalz"],"lat":null,"lng":null,"geocode_source":null,"map_data":{"data":{"id":13208,"geojson":[],"locations":[{"lat":49.025429,"lng":11.58264},{"lat":49.016928,"lng":11.595138}],"stations":[{"name":"Hallenhausen","lat":49.010281,"lng":11.589318,"lines":null,"url":null},{"name":"Griesstetten","lat":49.026158,"lng":11.581296,"lines":null,"url":null},{"name":"Dietfurt a.d.Altm. FWH","lat":49.032384,"lng":11.588312,"lines":null,"url":null},{"name":"Dietfurt a.d.Altm. Friedhof","lat":49.033467,"lng":11.592489,"lines":null,"url":null},{"name":"Dietfurt a.d.Altm. Bahnhofstr.","lat":49.034474,"lng":11.579985,"lines":null,"url":null},{"name":"Dietfurt a.d.Altm. Weiherstr.","lat":49.034875,"lng":11.584153,"lines":null,"url":null},{"name":"Dietfurt a.d.Altm. Rathaus","lat":49.035269,"lng":11.586785,"lines":null,"url":null}],"gauges":[],"depth_map":null}},"country":"DE","last_updated":"2026-05-05T20:15:01.423Z","error":false}