{"id":13224,"slug":"wuemme-oestlicher-verbindungsarm-oestlicher-suedarm-sportplatz-see","url":"https://www.hejfish.com/d/13224-wuemme-oestlicher-verbindungsarm-oestlicher-suedarm-sportplatz-see","name":"Wümme - Östlicher Verbindungsarm + östlicher Südarm + Sportplatz-See","description":"","water_size_ha":null,"fish":["KarpfenSchleieFlussbarschBrasseQuappeRotaugeAlandDöbelDiv. WeißfischeHechtZanderAal"],"techniques":["AnsitzangelnFeedern… mehr"],"properties":["kein Boot\nNachtfischen\nÖffisFangmeldung erforderlich\nTechniken:\nAnsitzangelnFeedern… mehr"],"season":null,"water_type":null,"rules_text":"","mobile_ticket":false,"print_required":false,"tickets":[],"manager":null,"main_image":null,"location_info":["Niedersachsen","Kreis Verden"],"lat":null,"lng":null,"geocode_source":null,"map_data":{"data":{"id":13224,"geojson":[],"locations":[{"lat":53.104139,"lng":9.093167},{"lat":53.098361,"lng":9.057306},{"lat":53.105056,"lng":9.09425},{"lat":53.110417,"lng":9.053944}],"stations":[{"name":"Backsberg","lat":53.098567,"lng":9.057187,"lines":null,"url":null},{"name":"Fischerhude(Ottersberg) Im krummen Ort","lat":53.116043,"lng":9.054847,"lines":null,"url":null},{"name":"Fischerhude(Ottersberg) Hoopskamp","lat":53.116846,"lng":9.048493,"lines":null,"url":null}],"gauges":[{"id":264,"name":"Borgfeld","lat":53.133971,"lng":8.894403},{"id":265,"name":"Niederblockland","lat":53.161504,"lng":8.826505}],"depth_map":null}},"country":"DE","last_updated":"2026-05-05T20:15:19.537Z","error":false}