{"id":13238,"slug":"leine-bei-hildesheim","url":"https://www.hejfish.com/d/13238-leine-bei-hildesheim","name":"Leine bei Hildesheim","description":"","water_size_ha":null,"fish":["AalBachsaiblingFlussbarschForelleHechtKarpfenSchleieDiv. WeißfischeZanderÄscheLachsMeerforelleWelsQuappe"],"techniques":["AnsitzangelnPosenangeln… mehr"],"properties":["kein Boot\nNachtfischen\nÖffis\nTechniken:\nAnsitzangelnPosenangeln… mehr"],"season":null,"water_type":null,"rules_text":"","mobile_ticket":false,"print_required":true,"tickets":[],"manager":null,"main_image":null,"location_info":["Niedersachsen","Kreis Hildesheim"],"lat":null,"lng":null,"geocode_source":null,"map_data":{"data":{"id":13238,"geojson":[],"locations":[{"lat":52.147201,"lng":9.767763},{"lat":52.170607,"lng":9.769211}],"stations":[{"name":"Poppenburg/Bahnhof","lat":52.146009,"lng":9.761777,"lines":null,"url":null},{"name":"Poppenburg Bahnübergang","lat":52.144642,"lng":9.762522,"lines":null,"url":null},{"name":"Schloss Marienburg","lat":52.175392,"lng":9.76634,"lines":null,"url":null},{"name":"Poppenburg/Siedlung","lat":52.149978,"lng":9.767921,"lines":null,"url":null},{"name":"Nordstemmen Schloss Landeplatz","lat":52.171134,"lng":9.768568,"lines":null,"url":null},{"name":"Burgstemmen B1","lat":52.144753,"lng":9.774748,"lines":null,"url":null},{"name":"Burgstemmen/Denkmal","lat":52.144846,"lng":9.774874,"lines":null,"url":null},{"name":"Burgstemmen/Nordstr.","lat":52.14591,"lng":9.775476,"lines":null,"url":null},{"name":"Burgstemmen/Bethelner Straße","lat":52.142095,"lng":9.775844,"lines":null,"url":null}],"gauges":[{"id":48,"name":"Herrenhausen","lat":52.388068,"lng":9.676062}],"depth_map":null}},"country":"DE","last_updated":"2026-05-05T20:15:48.505Z","error":false}