{"id":13261,"slug":"regen-heilinghausen","url":"https://www.hejfish.com/d/13261-regen-heilinghausen","name":"Regen Heilinghausen","description":"","water_size_ha":null,"fish":["AalAlandBarbeBrasseDöbelFlussbarschGiebelHechtKarpfenLaubeNaseRotaugeRotfederRapfenSchleieSchwarzmund-GrundelWelsZährteZander"],"techniques":["AnsitzangelnFeedern… mehr"],"properties":["kein Boot\nNachtfischen\nÖffisFangmeldung erforderlich\nTechniken:\nAnsitzangelnFeedern… mehr"],"season":null,"water_type":null,"rules_text":"","mobile_ticket":false,"print_required":false,"tickets":[],"manager":null,"main_image":null,"location_info":["Bayern","Kreis Schwandorf"],"lat":null,"lng":null,"geocode_source":null,"map_data":{"data":{"id":13261,"geojson":[],"locations":[{"lat":49.19296,"lng":12.16503},{"lat":49.17498,"lng":12.16255},{"lat":49.1933,"lng":12.1648},{"lat":49.17495,"lng":12.16128}],"stations":[{"name":"Kleinanglhof","lat":49.173487,"lng":12.162039,"lines":null,"url":null},{"name":"Hirschling Brücke","lat":49.191802,"lng":12.164366,"lines":null,"url":null},{"name":"Hinterberg (Regenstauf)","lat":49.200043,"lng":12.165794,"lines":null,"url":null},{"name":"Heilinghausen","lat":49.183124,"lng":12.166028,"lines":null,"url":null}],"gauges":[{"id":1469,"name":"Marienthal","lat":49.2228036,"lng":12.1747031},{"id":1468,"name":"Nittenau","lat":49.1988304,"lng":12.271486},{"id":1467,"name":"Kienhof","lat":49.1899559,"lng":12.4952381}],"depth_map":null}},"country":"DE","last_updated":"2026-05-05T20:16:40.920Z","error":false}