{"id":13273,"slug":"flosshafen","url":"https://www.hejfish.com/d/13273-flosshafen","name":"Floßhafen","description":"","water_size_ha":null,"fish":["AalZanderHechtRotaugeRotfederBrasseDöbelKarpfenSchleieFlussbarschWelsBarbeGründling"],"techniques":["AnsitzangelnFeedern… mehr"],"properties":["Boot\nNachtfischen\nÖffis\nTechniken:\nAnsitzangelnFeedern… mehr"],"season":null,"water_type":null,"rules_text":"","mobile_ticket":false,"print_required":true,"tickets":[],"manager":null,"main_image":null,"location_info":["Hessen","Wiesbaden"],"lat":null,"lng":null,"geocode_source":null,"map_data":{"data":{"id":13273,"geojson":[],"locations":[{"lat":50.003985,"lng":8.28373},{"lat":49.99906,"lng":8.303493}],"stations":[{"name":"Mainz, Ritterstraße","lat":49.99027,"lng":8.278784,"lines":null,"url":null},{"name":"Weisenau, Favorite-Parkhotel","lat":49.990524,"lng":8.289896,"lines":null,"url":null},{"name":"Mainz, Zitadellenw./Bf. Röm. T","lat":49.992632,"lng":8.279089,"lines":null,"url":null},{"name":"Mainz, Stadtpark","lat":49.993094,"lng":8.282188,"lines":null,"url":null},{"name":"Mainz, Römisches Theater","lat":49.993418,"lng":8.277984,"lines":null,"url":null},{"name":"Mainz, Eisgrubweg","lat":49.994786,"lng":8.273897,"lines":null,"url":null},{"name":"Mainz, Altstadt/Holzhof","lat":49.995451,"lng":8.275496,"lines":null,"url":null},{"name":"Mainz, Holzturm/Fort-Malakoff","lat":49.996675,"lng":8.278658,"lines":null,"url":null},{"name":"Mainz, Fischtor","lat":49.999164,"lng":8.277077,"lines":null,"url":null},{"name":"Wiesbaden-Mainz-Kostheim Mainbrücke","lat":50.00057,"lng":8.308202,"lines":null,"url":null},{"name":"Wiesbaden-Mainz-Kostheim Luisenstraße","lat":50.000952,"lng":8.301515,"lines":null,"url":null},{"name":"Mainz, Rheingoldhalle/Rathaus","lat":50.001358,"lng":8.275568,"lines":null,"url":null},{"name":"Wiesbaden-Mainz-Kostheim Winterstraße","lat":50.00158,"lng":8.30583,"lines":null,"url":null},{"name":"Mainz, Brückenplatz","lat":50.00298,"lng":8.274661,"lines":null,"url":null},{"name":"Wiesbaden-Mainz-Kostheim Viktoriastraße","lat":50.003006,"lng":8.301342,"lines":null,"url":null},{"name":"Wiesbaden-Mainz-Kostheim Am Lindequartier","lat":50.003107,"lng":8.29724,"lines":null,"url":null},{"name":"Wiesbaden-Mainz-Kostheim Klagenfurter Straße","lat":50.00478,"lng":8.290844,"lines":null,"url":null},{"name":"Wiesbaden-Mainz-Kostheim Kiefernstraße","lat":50.005786,"lng":8.308434,"lines":null,"url":null},{"name":"Wiesbaden-Mainz-Kostheim Hallgarter Straße","lat":50.006057,"lng":8.30119,"lines":null,"url":null},{"name":"Wiesbaden-Mainz-Kostheim Hochheimer Straße","lat":50.006679,"lng":8.288818,"lines":null,"url":null},{"name":"Wiesbaden-Mainz-Kastel Bahnhof","lat":50.007177,"lng":8.283537,"lines":null,"url":null},{"name":"Wiesbaden-Mainz-Kostheim Gartenweg","lat":50.007347,"lng":8.309388,"lines":null,"url":null},{"name":"Wiesbaden-Mainz-Kostheim Linzer Straße","lat":50.007654,"lng":8.29468,"lines":null,"url":null},{"name":"Wiesbaden-Mainz-Kostheim Sampelweg","lat":50.008035,"lng":8.3043,"lines":null,"url":null},{"name":"Wiesbaden-Mainz-Kastel Brückenkopf","lat":50.008068,"lng":8.280194,"lines":null,"url":null},{"name":"Wiesbaden-Mainz-Kastel Paulusplatz","lat":50.008069,"lng":8.287671,"lines":null,"url":null},{"name":"Wiesbaden-Mainz-Kostheim Steinern-Kreuz-Weg","lat":50.008715,"lng":8.311224,"lines":null,"url":null},{"name":"Wiesbaden-Mainz-Kostheim Steinernes Kreuz","lat":50.0088,"lng":8.31156,"lines":null,"url":null},{"name":"Wiesbaden-Mainz-Kostheim Sankt-Veiter-Platz","lat":50.008924,"lng":8.2996,"lines":null,"url":null},{"name":"Wiesbaden-Mainz-Kostheim Hallenbad","lat":50.009325,"lng":8.295967,"lines":null,"url":null},{"name":"Wiesbaden-Mainz-Kastel Roonstraße","lat":50.010247,"lng":8.283607,"lines":null,"url":null},{"name":"Wiesbaden-Mainz-Kastel Glacisweg","lat":50.010968,"lng":8.291269,"lines":null,"url":null},{"name":"Wiesbaden-Mainz-Kostheim Uthmannstraße","lat":50.011416,"lng":8.298364,"lines":null,"url":null},{"name":"Wiesbaden-Mainz-Kastel Eleonorenstraße","lat":50.011838,"lng":8.279189,"lines":null,"url":null},{"name":"Wiesbaden-Mainz-Kastel Ludwigsplatz","lat":50.012098,"lng":8.282003,"lines":null,"url":null},{"name":"Wiesbaden-Mainz-Kastel Gustav-Stresemann-Schule","lat":50.012742,"lng":8.281393,"lines":null,"url":null},{"name":"Wiesbaden-Mainz-Kastel Steinern Straße/WLeuSch","lat":50.012797,"lng":8.294842,"lines":null,"url":null}],"gauges":[],"depth_map":null}},"country":"DE","last_updated":"2026-05-05T20:16:54.032Z","error":false}