{"id":13287,"slug":"buergerweiher-in-schnaittach","url":"https://www.hejfish.com/d/13287-buergerweiher-in-schnaittach","name":"Bürgerweiher in Schnaittach","description":"","water_size_ha":null,"fish":["HechtAalZanderFlussbarschSchleieKarpfenAmurBrasseGiebelRotaugeDiv. Weißfische"],"techniques":["AnsitzangelnFeedern… mehr"],"properties":["kein Boot\nKein Nachtfischen\nÖffis\nTechniken:\nAnsitzangelnFeedern… mehr"],"season":null,"water_type":null,"rules_text":"","mobile_ticket":false,"print_required":false,"tickets":[],"manager":null,"main_image":null,"location_info":["Bayern","Kreis Nürnberger Land"],"lat":null,"lng":null,"geocode_source":null,"map_data":{"data":{"id":13287,"geojson":[],"locations":[{"lat":49.556452,"lng":11.337667}],"stations":[{"name":"Schnaittach Mittelschule","lat":49.555272,"lng":11.330702,"lines":null,"url":null},{"name":"Schnaittach Grundschule","lat":49.560266,"lng":11.334709,"lines":null,"url":null},{"name":"Schnaittach Raiffeisenb.","lat":49.558517,"lng":11.340072,"lines":null,"url":null},{"name":"Schnaittach Markt","lat":49.556979,"lng":11.344437,"lines":null,"url":null}],"gauges":[],"depth_map":null}},"country":"DE","last_updated":"2026-05-05T20:17:25.138Z","error":false}