{"id":13285,"slug":"puettlach","url":"https://www.hejfish.com/d/13285-puettlach","name":"Püttlach","description":"","water_size_ha":null,"fish":["BachforelleRegenbogenforelleBachsaiblingÄscheHecht"],"techniques":["FliegenfischenSpinnangeln"],"properties":["kein Boot\nKein NachtfischenFangmeldung erforderlich\nTechniken:\nFliegenfischenSpinnangeln"],"season":null,"water_type":null,"rules_text":"","mobile_ticket":false,"print_required":false,"tickets":[],"manager":null,"main_image":null,"location_info":["Bayern","Kreis Bayreuth"],"lat":null,"lng":null,"geocode_source":null,"map_data":{"data":{"id":13285,"geojson":[],"locations":[{"lat":49.778578,"lng":11.379112},{"lat":49.782312,"lng":11.366522}],"stations":[{"name":"Bösenbirkig Mitte","lat":49.770483,"lng":11.358775,"lines":null,"url":null},{"name":"Hühnerloh Gh Bayer","lat":49.773929,"lng":11.37083,"lines":null,"url":null},{"name":"Abzw. Weidmannsgesees","lat":49.778141,"lng":11.385329,"lines":null,"url":null},{"name":"Tüchersfeld","lat":49.78455,"lng":11.362305,"lines":null,"url":null},{"name":"Weidmannsgesees","lat":49.785188,"lng":11.388132,"lines":null,"url":null},{"name":"Abzw. Rackersberg","lat":49.790054,"lng":11.384233,"lines":null,"url":null}],"gauges":[{"id":1900,"name":"Pottenstein","lat":49.7730305,"lng":11.4019024}],"depth_map":null}},"country":"DE","last_updated":"2026-05-05T20:17:19.432Z","error":false}