{"id":13306,"slug":"baunach","url":"https://www.hejfish.com/d/13306-baunach","name":"Baunach","description":"","water_size_ha":null,"fish":["AalDöbelBachforelleBarbeBrasseFlussbarschQuappeGründlingGiebelHaselHechtNaseBachsaiblingKarpfenZanderÄsche"],"techniques":["AnsitzangelnPosenangeln… mehr"],"properties":["kein Boot\nNachtfischen\nÖffisFangmeldung erforderlich\nTechniken:\nAnsitzangelnPosenangeln… mehr"],"season":null,"water_type":null,"rules_text":"","mobile_ticket":false,"print_required":false,"tickets":[],"manager":null,"main_image":null,"location_info":["Bayern","Kreis Bamberg"],"lat":null,"lng":null,"geocode_source":null,"map_data":{"data":{"id":13306,"geojson":[],"locations":[{"lat":49.977758,"lng":10.85703},{"lat":49.989723,"lng":10.849852}],"stations":[{"name":"Baunach Schule","lat":49.984957,"lng":10.847013,"lines":null,"url":null},{"name":"Baunach Raiffeisenbank","lat":49.986603,"lng":10.850634,"lines":null,"url":null},{"name":"Baunach Haberhauer","lat":49.985361,"lng":10.850669,"lines":null,"url":null},{"name":"Baunach","lat":49.989092,"lng":10.854119,"lines":null,"url":null}],"gauges":[{"id":1846,"name":"Leucherhof","lat":50.0020859,"lng":10.8434916},{"id":1845,"name":"Lohr","lat":50.144561,"lng":10.7059184}],"depth_map":null}},"country":"DE","last_updated":"2026-05-05T20:18:06.088Z","error":false}