{"id":13313,"slug":"grosser-eggersdorferteich-winterweiher","url":"https://www.hejfish.com/d/13313-grosser-eggersdorferteich-winterweiher","name":"Großer-Eggersdorferteich (Winterweiher)","description":"","water_size_ha":null,"fish":["HechtKarpfenSchleieDiv. WeißfischeZander"],"techniques":["AnsitzangelnFeedern… mehr"],"properties":["kein Boot\nNachtfischen\nTechniken:\nAnsitzangelnFeedern… mehr"],"season":null,"water_type":null,"rules_text":"","mobile_ticket":false,"print_required":false,"tickets":[],"manager":null,"main_image":null,"location_info":["Bayern","Kreis Passau"],"lat":null,"lng":null,"geocode_source":null,"map_data":{"data":{"id":13313,"geojson":[],"locations":[{"lat":48.60297427045,"lng":13.557003009512}],"stations":[{"name":"Kellberg, Kirche","lat":48.593849,"lng":13.550314,"lines":null,"url":null},{"name":"Kellberg, Ort","lat":48.593677,"lng":13.551176,"lines":null,"url":null},{"name":"Kellberg, Klinik Prof. Schedel","lat":48.594158,"lng":13.564543,"lines":null,"url":null}],"gauges":[{"id":743,"name":"Pramerdorf","lat":48.431316,"lng":13.462392},{"id":790,"name":"Angsüß","lat":48.411016,"lng":13.62167},{"id":817,"name":"Achleiten","lat":48.581971,"lng":13.50325},{"id":845,"name":"Schärding","lat":48.456203,"lng":13.428256},{"id":846,"name":"Engelhartszell","lat":0,"lng":0},{"id":856,"name":"Alfersham","lat":48.402091,"lng":13.573707},{"id":857,"name":"Taufkirchen","lat":0,"lng":0},{"id":858,"name":"Oberkappel","lat":48.551316,"lng":13.769907},{"id":876,"name":"Diersbach","lat":48.414043,"lng":13.571532},{"id":878,"name":"Vorderanger","lat":48.699899,"lng":13.842016},{"id":60,"name":"Erlau","lat":48.567382,"lng":13.586813},{"id":61,"name":"Achleiten","lat":48.582047,"lng":13.503185},{"id":62,"name":"Passau Ilzstadt","lat":48.575198,"lng":13.478017},{"id":64,"name":"Passau Donau","lat":48.576133,"lng":13.459076},{"id":65,"name":"Kachlet Schleuse UP","lat":48.578228,"lng":13.41269}],"depth_map":null}},"country":"DE","last_updated":"2026-05-05T20:18:21.669Z","error":false}