{"id":13322,"slug":"sauteler-kanal-randkanal","url":"https://www.hejfish.com/d/13322-sauteler-kanal-randkanal","name":"Sauteler Kanal (Randkanal)","description":"","water_size_ha":null,"fish":["AalHechtFlussbarschKarpfenGiebelDiv. WeißfischeSchleieWelsZander"],"techniques":["AnsitzangelnFeedern… mehr"],"properties":["kein Boot\nNachtfischenFangmeldung erforderlich\nTechniken:\nAnsitzangelnFeedern… mehr"],"season":null,"water_type":null,"rules_text":"","mobile_ticket":false,"print_required":true,"tickets":[],"manager":null,"main_image":null,"location_info":["Niedersachsen","Kreis Aurich"],"lat":null,"lng":null,"geocode_source":null,"map_data":{"data":{"id":13322,"geojson":[],"locations":[{"lat":53.285333,"lng":7.408472},{"lat":53.345167,"lng":7.561861}],"stations":[{"name":"Meerhausen Nückestraße 9","lat":53.278193,"lng":7.560132,"lines":null,"url":null},{"name":"Altschwoog Altschwoogstraße/B70","lat":53.278962,"lng":7.454914,"lines":null,"url":null},{"name":"Kleihusen","lat":53.279942,"lng":7.405804,"lines":null,"url":null},{"name":"Altschwoog Uthuser/Altschwoogstraße","lat":53.280182,"lng":7.455749,"lines":null,"url":null},{"name":"Leer(Ostfriesl) Feldstraße 289","lat":53.280716,"lng":7.518356,"lines":null,"url":null},{"name":"Nücke Königstraße/Eichenweg","lat":53.282298,"lng":7.570282,"lines":null,"url":null},{"name":"Nücke Nückestraße/Eichenweg","lat":53.283565,"lng":7.562073,"lines":null,"url":null},{"name":"Leer(Ostfriesl) Veenhuser Weg","lat":53.284045,"lng":7.522103,"lines":null,"url":null},{"name":"Veenhusen Uthuser Straße/Hauptstraße","lat":53.285766,"lng":7.455046,"lines":null,"url":null},{"name":"Holtland Altenheim","lat":53.285795,"lng":7.563656,"lines":null,"url":null},{"name":"Nücke Nückestraße/Königstraße","lat":53.285908,"lng":7.561365,"lines":null,"url":null},{"name":"Veenhusen Alter Kirchpfad","lat":53.286708,"lng":7.463992,"lines":null,"url":null},{"name":"Veenhusen Hauptstraße/Kurzer Weg","lat":53.286889,"lng":7.465477,"lines":null,"url":null},{"name":"Veenhusen Grundschule FCSO","lat":53.288312,"lng":7.479756,"lines":null,"url":null},{"name":"Veenhusen Haupt-/Moormerlandstraße","lat":53.288861,"lng":7.482241,"lines":null,"url":null},{"name":"Veenhusen Gesamtschule FCSO","lat":53.288965,"lng":7.493679,"lines":null,"url":null},{"name":"Klein-Hesel Osterstraße/Norderstraße","lat":53.291091,"lng":7.559488,"lines":null,"url":null},{"name":"Veenhusen Uthuser Straße/Auf der Gaste","lat":53.291209,"lng":7.451481,"lines":null,"url":null},{"name":"Veenhusen Koloniestraße/Schule","lat":53.293095,"lng":7.492209,"lines":null,"url":null},{"name":"Veenhusen Schulstraße/Grundschule","lat":53.293795,"lng":7.494143,"lines":null,"url":null},{"name":"Klein-Hesel Trafo/Lindenhof","lat":53.29425,"lng":7.560777,"lines":null,"url":null},{"name":"Klein-Hesel Osterstraße 12","lat":53.296107,"lng":7.562005,"lines":null,"url":null},{"name":"Veenhusen Stöhr","lat":53.296618,"lng":7.491265,"lines":null,"url":null},{"name":"Klein-Hesel Dorfstraße/Osterstraße","lat":53.297257,"lng":7.563819,"lines":null,"url":null},{"name":"Veenhusen Koloniestraße/Veenpad","lat":53.298747,"lng":7.490839,"lines":null,"url":null},{"name":"Jheringsfehn Altebeek/Baumweg","lat":53.299968,"lng":7.535439,"lines":null,"url":null},{"name":"Klein-Hesel Dorfstraße Unterführung","lat":53.300346,"lng":7.566942,"lines":null,"url":null},{"name":"Neermoor Süderstraße","lat":53.300438,"lng":7.446511,"lines":null,"url":null},{"name":"Jheringsfehn Rudolfswieke/Logabirumer Straße","lat":53.30139,"lng":7.542202,"lines":null,"url":null},{"name":"Warsingsfehn Dr.-Warsing-/Erfurter Straße","lat":53.302108,"lng":7.507182,"lines":null,"url":null},{"name":"Jheringsfehn Verbindungsstraße/Mißgunsterweg","lat":53.302656,"lng":7.521993,"lines":null,"url":null},{"name":"Neermoor Bahnhofstraße/Bahnhof","lat":53.303415,"lng":7.439381,"lines":null,"url":null},{"name":"Jheringsfehn Altebeek 153","lat":53.303606,"lng":7.533514,"lines":null,"url":null},{"name":"Warsingsfehn Scharhörnstraße","lat":53.303736,"lng":7.487362,"lines":null,"url":null},{"name":"Neermoor Kirchstraße 30/59","lat":53.303766,"lng":7.428887,"lines":null,"url":null},{"name":"Jheringsfehn Mißgunster Weg/Memeler Straße","lat":53.304628,"lng":7.513274,"lines":null,"url":null},{"name":"Jheringsfehn Verbindungsstraße/Neuebeekswieke","lat":53.30486,"lng":7.525788,"lines":null,"url":null},{"name":"Jheringsfehn Rudolfswieke 182","lat":53.304957,"lng":7.53989,"lines":null,"url":null},{"name":"Neermoor Kirche","lat":53.305982,"lng":7.440103,"lines":null,"url":null},{"name":"Neermoor Lessingstraße/Neue Straße","lat":53.306215,"lng":7.432883,"lines":null,"url":null},{"name":"Warsingsfehn Neemann","lat":53.307888,"lng":7.505631,"lines":null,"url":null},{"name":"Neermoor Wilhelmstraße/Norderstraße","lat":53.308352,"lng":7.438456,"lines":null,"url":null},{"name":"Jheringsfehn Grundschule","lat":53.308416,"lng":7.52992,"lines":null,"url":null},{"name":"Warsingsfehn Dr. Warsing-Straße/Kirche","lat":53.308772,"lng":7.48101,"lines":null,"url":null},{"name":"Jheringsfehn Rudolfswieke 145","lat":53.308819,"lng":7.537882,"lines":null,"url":null},{"name":"Warsingsfehn Rinderhagenstraße","lat":53.308955,"lng":7.499592,"lines":null,"url":null},{"name":"Warsingsfehn Dr.-Warsing-/Gerhart-Hauptmann-Straße","lat":53.309079,"lng":7.503786,"lines":null,"url":null},{"name":"Warsingsfehn Rathaus","lat":53.309733,"lng":7.484516,"lines":null,"url":null},{"name":"Neermoor Industriestraße","lat":53.310174,"lng":7.421207,"lines":null,"url":null},{"name":"Warsingsfehn Dr.-von-Jhering-Str./Haselnussstraße","lat":53.310438,"lng":7.50854,"lines":null,"url":null},{"name":"Warsingsfehn Königsstr./Am Kirchweg","lat":53.310568,"lng":7.480946,"lines":null,"url":null},{"name":"Warsingsfehn Dr.-Warsing-/Kiefernstraße","lat":53.312368,"lng":7.499056,"lines":null,"url":null},{"name":"Jheringsfehn Verbindungsstraße/Rudolfswieke","lat":53.313561,"lng":7.536137,"lines":null,"url":null},{"name":"Jheringsfehn Neuebeek","lat":53.313864,"lng":7.512954,"lines":null,"url":null},{"name":"Neermoor König-/Edzardstraße","lat":53.314552,"lng":7.477059,"lines":null,"url":null},{"name":"Warsingsfehn Dr.-Warsing-Straße/Graf-Enno-Straße","lat":53.3146,"lng":7.495691,"lines":null,"url":null},{"name":"Jheringsfehn Verbindungsstraße/Georgswieke","lat":53.316913,"lng":7.540112,"lines":null,"url":null},{"name":"Beningafehn Kiefelder Straße/Beningastraße","lat":53.317167,"lng":7.568795,"lines":null,"url":null},{"name":"Jheringsfehn Saathoff","lat":53.31805,"lng":7.517102,"lines":null,"url":null},{"name":"Jheringsfehn Altebeek","lat":53.318337,"lng":7.517325,"lines":null,"url":null},{"name":"Warsingsfehn Grundschule/Kirche","lat":53.319045,"lng":7.488938,"lines":null,"url":null},{"name":"Warsingsfehn Kreuzung L14/Königsstraße","lat":53.320565,"lng":7.47141,"lines":null,"url":null},{"name":"Jheringsfehn Westerwieke/Boekzetler Straße","lat":53.320957,"lng":7.535999,"lines":null,"url":null},{"name":"Jheringsfehn Georgswieke/Neuenfehnstraße","lat":53.322418,"lng":7.533867,"lines":null,"url":null},{"name":"Warsingsfehn Combi-Markt","lat":53.32249,"lng":7.484215,"lines":null,"url":null},{"name":"Jheringsfehn Rudolfswieke","lat":53.322662,"lng":7.52158,"lines":null,"url":null},{"name":"Rorichmoor Rorichmoorer Str./Reiherstraße","lat":53.322679,"lng":7.469478,"lines":null,"url":null},{"name":"Jheringsfehn Hookswieke 147","lat":53.324666,"lng":7.535749,"lines":null,"url":null},{"name":"Neukamperfehn Könighoek/Alte Südwieke","lat":53.325377,"lng":7.542436,"lines":null,"url":null},{"name":"Rorichmoor 2. Süderwieke","lat":53.325855,"lng":7.463123,"lines":null,"url":null},{"name":"Warsingsfehn Hauptwieke/Alte Landstraße","lat":53.325882,"lng":7.478899,"lines":null,"url":null},{"name":"Jheringsfehn Hettinga","lat":53.32712,"lng":7.523842,"lines":null,"url":null},{"name":"Jheringsfehn Boekzeteler Straße","lat":53.327226,"lng":7.524694,"lines":null,"url":null},{"name":"Neuefehn Hauptstraße/Fabrikswieke","lat":53.327286,"lng":7.552294,"lines":null,"url":null},{"name":"Beningafehn Beningastraße/Bahnhofstraße","lat":53.327304,"lng":7.564867,"lines":null,"url":null},{"name":"Rorichmoor 1. Süderwieke","lat":53.327576,"lng":7.45641,"lines":null,"url":null},{"name":"Jheringsfehn Hookswieke II","lat":53.328459,"lng":7.533585,"lines":null,"url":null},{"name":"Boekzetelerfehn Pappelstraße/Unterende","lat":53.329008,"lng":7.518725,"lines":null,"url":null},{"name":"Rorichmoor Willmkeweg","lat":53.32932,"lng":7.449516,"lines":null,"url":null},{"name":"Jheringsfehn Westerwieke/Erlenb","lat":53.329363,"lng":7.527893,"lines":null,"url":null},{"name":"Boekzetelerfehn Pappelstraße/Blumenstraße","lat":53.33103,"lng":7.510795,"lines":null,"url":null},{"name":"Rorichmoor Meedlandstraße","lat":53.331914,"lng":7.447185,"lines":null,"url":null},{"name":"Jheringsfehn Hookswieke/Westerwieke","lat":53.332051,"lng":7.531465,"lines":null,"url":null},{"name":"Neuefehn Hauptstraße/Alte Südwieke","lat":53.333608,"lng":7.538292,"lines":null,"url":null},{"name":"Hatshausen Pappelstraße/Am Kloster","lat":53.334745,"lng":7.502039,"lines":null,"url":null},{"name":"Neuefehn Hauptstraße/Neue Süderwieke","lat":53.33495,"lng":7.542845,"lines":null,"url":null},{"name":"Hatshausen Reuter","lat":53.335616,"lng":7.490481,"lines":null,"url":null},{"name":"Stiekelkamperfehn Schule","lat":53.335661,"lng":7.563303,"lines":null,"url":null},{"name":"Neuefehn Hauptstraße/Fabrikswieke","lat":53.336003,"lng":7.547862,"lines":null,"url":null},{"name":"Hatshausen Pappelstraße/L14","lat":53.336808,"lng":7.491673,"lines":null,"url":null},{"name":"Neukamperfehn Hauptstraße/Neue Straße","lat":53.337019,"lng":7.570142,"lines":null,"url":null},{"name":"Stikelkamperfehn Hauptstraße/Hauptwieke","lat":53.337905,"lng":7.557092,"lines":null,"url":null},{"name":"Neukamperfehn Hauptstraße/Schwarzer Weg","lat":53.338063,"lng":7.566119,"lines":null,"url":null},{"name":"Neukamperfehn Baumann","lat":53.338788,"lng":7.556387,"lines":null,"url":null},{"name":"Ayenwolde Bindweg 4","lat":53.34071,"lng":7.442068,"lines":null,"url":null},{"name":"Hatshausen Hatshauser Straße L14","lat":53.342128,"lng":7.496254,"lines":null,"url":null},{"name":"Hatshausen Kleen","lat":53.342902,"lng":7.492365,"lines":null,"url":null},{"name":"Hatshausen Hatshauser Straße/Molkereistraße","lat":53.345739,"lng":7.492162,"lines":null,"url":null},{"name":"Ayenwolde Ayenwolder-/Küstenstraße","lat":53.346218,"lng":7.450232,"lines":null,"url":null},{"name":"Hatshausen Hatshauser Straße 62","lat":53.351518,"lng":7.473971,"lines":null,"url":null},{"name":"Ayenwolde Kielweg","lat":53.352487,"lng":7.461974,"lines":null,"url":null},{"name":"Hatshausen Ayenwolder Straße/Kirche","lat":53.354463,"lng":7.46593,"lines":null,"url":null}],"gauges":[],"depth_map":null}},"country":"DE","last_updated":"2026-05-05T20:18:42.315Z","error":false}