{"id":13330,"slug":"regenrueckhaltebecken-bassriede-1","url":"https://www.hejfish.com/d/13330-regenrueckhaltebecken-bassriede-1","name":"Regenrückhaltebecken Baßriede 1","description":"","water_size_ha":null,"fish":["HechtKarpfenRegenbogenforelleSchleieZanderWelsFlussbarschBrasseRotaugeRotfeder"],"techniques":["AnsitzangelnFeedern… mehr"],"properties":["kein Boot\nNachtfischen\nÖffisFangmeldung erforderlich\nTechniken:\nAnsitzangelnFeedern… mehr"],"season":null,"water_type":null,"rules_text":"","mobile_ticket":false,"print_required":true,"tickets":[],"manager":null,"main_image":null,"location_info":["Niedersachsen","Region Hannover"],"lat":null,"lng":null,"geocode_source":null,"map_data":{"data":{"id":13330,"geojson":[],"locations":[{"lat":52.423565,"lng":9.605103}],"stations":[{"name":"Garbsen-Mitte Rathaus","lat":52.426513,"lng":9.595445,"lines":null,"url":null},{"name":"Garbsen-Mitte Kastendamm","lat":52.430528,"lng":9.595606,"lines":null,"url":null},{"name":"Auf der Horst Uranushof","lat":52.420959,"lng":9.596064,"lines":null,"url":null},{"name":"Garbsen","lat":52.417534,"lng":9.596496,"lines":null,"url":null},{"name":"Garbsen-Mitte Hänselriede","lat":52.426437,"lng":9.599002,"lines":null,"url":null},{"name":"Auf der Horst Saturnring","lat":52.420312,"lng":9.599074,"lines":null,"url":null},{"name":"Altgarbsen Mühlenbergsweg","lat":52.413639,"lng":9.600933,"lines":null,"url":null},{"name":"Auf der Horst Marshof","lat":52.416734,"lng":9.603044,"lines":null,"url":null},{"name":"Auf der Horst Sperberhorst","lat":52.419627,"lng":9.60335,"lines":null,"url":null},{"name":"Garbsen-Mitte Märchenstraße","lat":52.426031,"lng":9.60361,"lines":null,"url":null},{"name":"Garbsen-Mitte Graf-Stauff.-Str","lat":52.427045,"lng":9.606611,"lines":null,"url":null},{"name":"Auf der Horst Schulzentrum I","lat":52.416351,"lng":9.607769,"lines":null,"url":null},{"name":"Garbsen-Mitte Walter-Koch-Str.","lat":52.424229,"lng":9.608084,"lines":null,"url":null},{"name":"Altgarbsen Sperrtor","lat":52.413989,"lng":9.608758,"lines":null,"url":null},{"name":"Auf der Horst Talkamp","lat":52.419967,"lng":9.608955,"lines":null,"url":null},{"name":"Auf der Horst Skorpiongasse","lat":52.41617,"lng":9.610186,"lines":null,"url":null},{"name":"Garbsen-Mitte Osteriede","lat":52.429767,"lng":9.611192,"lines":null,"url":null},{"name":"Berenbostel Weberstraße","lat":52.432473,"lng":9.611219,"lines":null,"url":null},{"name":"Auf der Horst Herkuleshof","lat":52.419534,"lng":9.614031,"lines":null,"url":null}],"gauges":[],"depth_map":null}},"country":"DE","last_updated":"2026-05-05T20:19:03.398Z","error":false}