{"id":13349,"slug":"westerwieke","url":"https://www.hejfish.com/d/13349-westerwieke","name":"Westerwieke","description":"","water_size_ha":null,"fish":["AalDiv. WeißfischeHechtFlussbarschSchleie"],"techniques":["AnsitzangelnFeedern… mehr"],"properties":["kein Boot\nNachtfischen\nÖffisFangmeldung erforderlich\nTechniken:\nAnsitzangelnFeedern… mehr"],"season":null,"water_type":null,"rules_text":"","mobile_ticket":false,"print_required":true,"tickets":[],"manager":null,"main_image":null,"location_info":["Niedersachsen","Kreis Leer"],"lat":null,"lng":null,"geocode_source":null,"map_data":{"data":{"id":13349,"geojson":[],"locations":[{"lat":53.322477,"lng":7.521274}],"stations":[{"name":"Jheringsfehn Neuebeek","lat":53.313864,"lng":7.512954,"lines":null,"url":null},{"name":"Jheringsfehn Saathoff","lat":53.31805,"lng":7.517102,"lines":null,"url":null},{"name":"Jheringsfehn Altebeek","lat":53.318337,"lng":7.517325,"lines":null,"url":null},{"name":"Jheringsfehn Rudolfswieke","lat":53.322662,"lng":7.52158,"lines":null,"url":null},{"name":"Jheringsfehn Hettinga","lat":53.32712,"lng":7.523842,"lines":null,"url":null},{"name":"Jheringsfehn Boekzeteler Straße","lat":53.327226,"lng":7.524694,"lines":null,"url":null},{"name":"Boekzetelerfehn Pappelstraße/Unterende","lat":53.329008,"lng":7.518725,"lines":null,"url":null},{"name":"Jheringsfehn Westerwieke/Erlenb","lat":53.329363,"lng":7.527893,"lines":null,"url":null}],"gauges":[],"depth_map":null}},"country":"DE","last_updated":"2026-05-05T20:19:33.550Z","error":false}