{"id":13392,"slug":"barner-stuecker-see-bei-barner-stueck","url":"https://www.hejfish.com/d/13392-barner-stuecker-see-bei-barner-stueck","name":"Barner Stücker See bei Barner Stück","description":"","water_size_ha":null,"fish":["HechtKarpfenSchleieFlussbarschRotaugeAal"],"techniques":["SpinnangelnFliegenfischen… mehr"],"properties":["Boot\nNachtfischen\nÖffis\nTechniken:\nSpinnangelnFliegenfischen… mehr"],"season":null,"water_type":null,"rules_text":"","mobile_ticket":false,"print_required":false,"tickets":[],"manager":null,"main_image":null,"location_info":["Mecklenburg-Vorpommern","Kreis Nordwestmecklenburg"],"lat":null,"lng":null,"geocode_source":null,"map_data":{"data":{"id":13392,"geojson":{"type":"FeatureCollection","features":[{"type":"Feature","properties":{"stroke":"#00c1d6","stroke-width":2,"stroke-opacity":1,"fill":"#00c1d6","fill-opacity":0.5,"name":"513 Barner Stücker See","styleUrl":"#IconStyle0070"},"geometry":{"type":"Point","coordinates":[11.394194,53.686806,0]}}],"name":"12362_placemark"},"locations":[{"lat":53.6868,"lng":11.3942}],"stations":[{"name":"Kirch Stück Kaserne","lat":53.684833,"lng":11.396971,"lines":null,"url":null},{"name":"Barner Stück","lat":53.685482,"lng":11.390359,"lines":null,"url":null},{"name":"Kirch Stück Abzweig Barner Stück","lat":53.689743,"lng":11.38806,"lines":null,"url":null},{"name":"Kirch Stück","lat":53.690541,"lng":11.395767,"lines":null,"url":null}],"gauges":[],"depth_map":null}},"country":"DE","last_updated":"2026-05-05T20:20:34.097Z","error":false}