{"id":13417,"slug":"crivitzer-see-bei-crivitz","url":"https://www.hejfish.com/d/13417-crivitzer-see-bei-crivitz","name":"Crivitzer See bei Crivitz","description":"","water_size_ha":null,"fish":["HechtKarpfenZanderSchleieBrasseRotaugeAalKarausche"],"techniques":["SpinnangelnFliegenfischen… mehr"],"properties":["Boot\nNachtfischen\nÖffis\nTechniken:\nSpinnangelnFliegenfischen… mehr"],"season":null,"water_type":null,"rules_text":"","mobile_ticket":false,"print_required":false,"tickets":[],"manager":null,"main_image":null,"location_info":["Mecklenburg-Vorpommern","Kreis Ludwigslust-Parchim"],"lat":null,"lng":null,"geocode_source":null,"map_data":{"data":{"id":13417,"geojson":{"type":"FeatureCollection","features":[{"type":"Feature","properties":{"stroke":"#00c1d6","stroke-width":2,"stroke-opacity":1,"fill":"#00c1d6","fill-opacity":0.5,"name":"222 Crivitzer See","styleUrl":"#IconStyle0070"},"geometry":{"type":"Point","coordinates":[11.641611,53.576778,0]}}],"name":"12309_placemark"},"locations":[{"lat":53.5768,"lng":11.6416}],"stations":[{"name":"Crivitz Seeblick","lat":53.579439,"lng":11.639435,"lines":null,"url":null},{"name":"Crivitz Am Gymnasium","lat":53.581082,"lng":11.645247,"lines":null,"url":null},{"name":"Crivitz","lat":53.572644,"lng":11.645553,"lines":null,"url":null},{"name":"Crivitz Stadtrandsiedlung","lat":53.585694,"lng":11.645625,"lines":null,"url":null},{"name":"Crivitz Trammer Str","lat":53.571641,"lng":11.649173,"lines":null,"url":null},{"name":"Crivitz Am Krankenhaus","lat":53.576148,"lng":11.649317,"lines":null,"url":null},{"name":"Crivitz Große Straße","lat":53.576719,"lng":11.65079,"lines":null,"url":null},{"name":"Crivitz Schulstraße","lat":53.579951,"lng":11.651383,"lines":null,"url":null}],"gauges":[],"depth_map":null}},"country":"DE","last_updated":"2026-05-05T20:21:36.571Z","error":false}