{"id":13473,"slug":"grosser-see-bei-schlagbruegge","url":"https://www.hejfish.com/d/13473-grosser-see-bei-schlagbruegge","name":"Großer See bei Schlagbrügge","description":"","water_size_ha":null,"fish":["HechtKarpfenSchleieBrasseRotaugeRotfederAal"],"techniques":["SpinnangelnFliegenfischen… mehr"],"properties":["kein Boot\nNachtfischen\nTechniken:\nSpinnangelnFliegenfischen… mehr"],"season":null,"water_type":null,"rules_text":"","mobile_ticket":false,"print_required":false,"tickets":[],"manager":null,"main_image":null,"location_info":["Mecklenburg-Vorpommern","Kreis Nordwestmecklenburg"],"lat":null,"lng":null,"geocode_source":null,"map_data":{"data":{"id":13473,"geojson":{"type":"FeatureCollection","features":[{"type":"Feature","properties":{"stroke":"#00c1d6","stroke-width":2,"stroke-opacity":1,"fill":"#00c1d6","fill-opacity":0.5,"name":"535 Großer See","styleUrl":"#IconStyle0070"},"geometry":{"type":"Point","coordinates":[10.853972,53.723806,0]}},{"type":"Feature","properties":{"stroke":"#00c1d6","stroke-width":2,"stroke-opacity":1,"fill":"#00c1d6","fill-opacity":0.5,"name":"Bitte Hinweise auf Detailseite im Verzeichnis beachten!","styleUrl":"#sn_noicon"},"geometry":{"type":"Point","coordinates":[10.85398941655143,53.72369819290226,0]}}],"name":"12230_placemark"},"locations":[{"lat":53.7238,"lng":10.854}],"stations":[{"name":"Schlagbrügge","lat":53.721861,"lng":10.844139,"lines":null,"url":null},{"name":"Groß Molzahn Abzweig","lat":53.731943,"lng":10.855206,"lines":null,"url":null},{"name":"Groß Molzahn Neubau","lat":53.732697,"lng":10.861728,"lines":null,"url":null},{"name":"Groß Molzahn Dorf","lat":53.732702,"lng":10.86171,"lines":null,"url":null}],"gauges":[],"depth_map":null}},"country":"DE","last_updated":"2026-05-05T20:23:51.508Z","error":false}