{"id":13489,"slug":"hellsoll-bei-neubrandenburg","url":"https://www.hejfish.com/d/13489-hellsoll-bei-neubrandenburg","name":"Hellsoll bei Neubrandenburg","description":"","water_size_ha":null,"fish":["HechtFlussbarschBrasseRotaugeKarausche"],"techniques":["SpinnangelnFliegenfischen… mehr"],"properties":["Boot\nNachtfischen\nÖffis\nTechniken:\nSpinnangelnFliegenfischen… mehr"],"season":null,"water_type":null,"rules_text":"","mobile_ticket":false,"print_required":false,"tickets":[],"manager":null,"main_image":null,"location_info":["Mecklenburg-Vorpommern","Kreis Mecklenburgische Seenplatte"],"lat":null,"lng":null,"geocode_source":null,"map_data":{"data":{"id":13489,"geojson":{"type":"FeatureCollection","features":[{"type":"Feature","properties":{"stroke":"#00c1d6","stroke-width":2,"stroke-opacity":1,"fill":"#00c1d6","fill-opacity":0.5,"name":"1255 Hellsoll","styleUrl":"#m_ylw-pushpin"},"geometry":{"type":"Point","coordinates":[13.22027731401211,53.56163018625388,0]}}],"name":"13602_placemark"},"locations":[{"lat":53.5615,"lng":13.2201}],"stations":[{"name":"Neubrandg Gewerbepark Weitin","lat":53.56685,"lng":13.210616,"lines":null,"url":null},{"name":"Neubrandenburg Otto-v-Guericke","lat":53.570974,"lng":13.21349,"lines":null,"url":null},{"name":"Neubrandenburg Am Reitplatz","lat":53.56366,"lng":13.218979,"lines":null,"url":null},{"name":"Neubrandenburg Klosterstraße","lat":53.554306,"lng":13.226552,"lines":null,"url":null},{"name":"Neubrandenburg, An der B192","lat":53.554631,"lng":13.226839,"lines":null,"url":null},{"name":"Neubrandenburg, An der Weitine","lat":53.560565,"lng":13.2271,"lines":null,"url":null},{"name":"Neubrandenburg H.-Schütz-Weg","lat":53.552486,"lng":13.228708,"lines":null,"url":null}],"gauges":[],"depth_map":null}},"country":"DE","last_updated":"2026-05-05T20:24:31.254Z","error":false}