{"id":13480,"slug":"gruenberger-see-bei-gruenberg","url":"https://www.hejfish.com/d/13480-gruenberger-see-bei-gruenberg","name":"Grünberger See bei Grünberg","description":"","water_size_ha":null,"fish":["HechtKarpfenSchleieFlussbarschBrasseRotaugeAalKarausche"],"techniques":["SpinnangelnFliegenfischen… mehr"],"properties":["Boot\nNachtfischen\nTechniken:\nSpinnangelnFliegenfischen… mehr"],"season":null,"water_type":null,"rules_text":"","mobile_ticket":false,"print_required":false,"tickets":[],"manager":null,"main_image":null,"location_info":["Brandenburg","Kreis Uckermark"],"lat":null,"lng":null,"geocode_source":null,"map_data":{"data":{"id":13480,"geojson":{"type":"FeatureCollection","features":[{"type":"Feature","properties":{"stroke":"#00c1d6","stroke-width":2,"stroke-opacity":1,"fill":"#00c1d6","fill-opacity":0.5,"name":"3356 Grünberger See","styleUrl":"#IconStyle0070"},"geometry":{"type":"Point","coordinates":[14.154722,53.35166699999999,0]}},{"type":"Feature","properties":{"stroke":"#00c1d6","stroke-width":2,"stroke-opacity":1,"fill":"#00c1d6","fill-opacity":0.5,"name":"Bitte Hinweise auf Detailseite im Verzeichnis beachten!","styleUrl":"#msn_fishing"},"geometry":{"type":"Point","coordinates":[14.15472199353112,53.35166701711577,0]}}],"name":"12272_placemark"},"locations":[{"lat":53.3517,"lng":14.1547}],"stations":[{"name":"Grünberg, Dorf","lat":53.353624,"lng":14.145673,"lines":null,"url":null},{"name":"Grünberg (UM), Bahnhof","lat":53.356135,"lng":14.145783,"lines":null,"url":null},{"name":"Grünberg, Ausbau","lat":53.358316,"lng":14.153434,"lines":null,"url":null},{"name":"Battin, Dorf","lat":53.34663,"lng":14.157218,"lines":null,"url":null},{"name":"Battin, Ausbau","lat":53.354906,"lng":14.159922,"lines":null,"url":null}],"gauges":[],"depth_map":null}},"country":"DE","last_updated":"2026-05-05T20:24:08.983Z","error":false}