{"id":13634,"slug":"reitbahnsee-bei-neubrandenburg","url":"https://www.hejfish.com/d/13634-reitbahnsee-bei-neubrandenburg","name":"Reitbahnsee bei Neubrandenburg","description":"","water_size_ha":null,"fish":["HechtKarpfenZanderFlussbarschBrasseRotaugeAal"],"techniques":["SpinnangelnFliegenfischen… mehr"],"properties":["kein Boot\nNachtfischen\nÖffis\nTechniken:\nSpinnangelnFliegenfischen… mehr"],"season":null,"water_type":null,"rules_text":"","mobile_ticket":false,"print_required":false,"tickets":[],"manager":null,"main_image":null,"location_info":["Mecklenburg-Vorpommern","Kreis Mecklenburgische Seenplatte"],"lat":null,"lng":null,"geocode_source":null,"map_data":{"data":{"id":13634,"geojson":{"type":"FeatureCollection","features":[{"type":"Feature","properties":{"stroke":"#00c1d6","stroke-width":2,"stroke-opacity":1,"fill":"#00c1d6","fill-opacity":0.5,"name":"694 Reitbahnsee","styleUrl":"#IconStyle0070"},"geometry":{"type":"Point","coordinates":[13.259417,53.574056,0]}}],"name":"12399_placemark"},"locations":[{"lat":53.5741,"lng":13.2594}],"stations":[{"name":"Neubrandenburg, Fasanenstraße","lat":53.56732,"lng":13.260769,"lines":null,"url":null},{"name":"Neubrandenburg, Traberallee","lat":53.56907,"lng":13.260822,"lines":null,"url":null},{"name":"Neubrandenburg Adlerstraße","lat":53.567261,"lng":13.261083,"lines":null,"url":null},{"name":"Neubrandenburg, Reitbahnweg","lat":53.571497,"lng":13.261532,"lines":null,"url":null},{"name":"Neubrandenburg, Kranichstraße","lat":53.565426,"lng":13.261873,"lines":null,"url":null},{"name":"Neubrandenburg Sperlingstraße","lat":53.566013,"lng":13.262871,"lines":null,"url":null},{"name":"Neubrandenburg, Schimmelweg","lat":53.570942,"lng":13.265754,"lines":null,"url":null},{"name":"Neubrandenburg A-Einstein-Gymn","lat":53.565042,"lng":13.26809,"lines":null,"url":null},{"name":"Neubrandenburg, Demminer Str.","lat":53.564428,"lng":13.269159,"lines":null,"url":null}],"gauges":[],"depth_map":null}},"country":"DE","last_updated":"2026-05-05T20:30:32.668Z","error":false}