{"id":13719,"slug":"voigdehaeger-see-bei-stralsund","url":"https://www.hejfish.com/d/13719-voigdehaeger-see-bei-stralsund","name":"Voigdehäger See bei Stralsund","description":"","water_size_ha":null,"fish":["HechtKarpfenZanderSchleieFlussbarschBrasseRotaugeAal"],"techniques":["SpinnangelnFliegenfischen… mehr"],"properties":["Boot\nNachtfischen\nTechniken:\nSpinnangelnFliegenfischen… mehr"],"season":null,"water_type":null,"rules_text":"","mobile_ticket":false,"print_required":false,"tickets":[],"manager":null,"main_image":null,"location_info":["Mecklenburg-Vorpommern","Kreis Vorpommern-Rügen"],"lat":null,"lng":null,"geocode_source":null,"map_data":{"data":{"id":13719,"geojson":{"type":"FeatureCollection","features":[{"type":"Feature","properties":{"stroke":"#00c1d6","stroke-width":2,"stroke-opacity":1,"fill":"#00c1d6","fill-opacity":0.5,"name":"614 Voigdehäger See","styleUrl":"#msn_fishing"},"geometry":{"type":"Point","coordinates":[13.094843,54.27643400000001,11.39775065553547]}}],"name":"12348_placemark"},"locations":[{"lat":54.2766,"lng":13.0949}],"stations":[{"name":"Stralsund Schifffahrtsamt","lat":54.279726,"lng":13.103222,"lines":null,"url":null},{"name":"Stralsund Wasserwerk","lat":54.279867,"lng":13.102988,"lines":null,"url":null},{"name":"Stralsund Betriebshof","lat":54.285909,"lng":13.086046,"lines":null,"url":null},{"name":"Stralsund Voigdehäger Weg","lat":54.28604,"lng":13.097122,"lines":null,"url":null}],"gauges":[],"depth_map":null}},"country":"DE","last_updated":"2026-05-05T20:34:03.778Z","error":false}