{"id":13859,"slug":"grambiner-torfstiche-c-bei-grambin","url":"https://www.hejfish.com/d/13859-grambiner-torfstiche-c-bei-grambin","name":"Grambiner Torfstiche c bei Grambin","description":"","water_size_ha":null,"fish":["HechtKarpfenSchleieFlussbarschBrasseRotaugeAalKarausche"],"techniques":["SpinnangelnFliegenfischen… mehr"],"properties":["Boot\nNachtfischen\nTechniken:\nSpinnangelnFliegenfischen… mehr"],"season":null,"water_type":null,"rules_text":"","mobile_ticket":false,"print_required":false,"tickets":[],"manager":null,"main_image":null,"location_info":["Mecklenburg-Vorpommern","Kreis Vorpommern-Greifswald"],"lat":null,"lng":null,"geocode_source":null,"map_data":{"data":{"id":13859,"geojson":{"type":"FeatureCollection","features":[{"type":"Feature","properties":{"stroke":"#00c1d6","stroke-width":2,"stroke-opacity":1,"fill":"#00c1d6","fill-opacity":0.5,"name":"3636 Grambiner Torfstiche c","styleUrl":"#IconStyle0070"},"geometry":{"type":"Point","coordinates":[14.021389,53.750389,0]}}],"name":"12724_placemark"},"locations":[{"lat":53.7504,"lng":14.0214}],"stations":[{"name":"Grambin Feuerwehr","lat":53.754309,"lng":14.017949,"lines":null,"url":null},{"name":"Ueckermünde Schafbrückweg","lat":53.742134,"lng":14.027966,"lines":null,"url":null},{"name":"Ueckermünde Ravensteinstraße","lat":53.742766,"lng":14.030229,"lines":null,"url":null},{"name":"Ueckermünde Gymnasium","lat":53.744928,"lng":14.030562,"lines":null,"url":null}],"gauges":[],"depth_map":null}},"country":"DE","last_updated":"2026-05-05T20:39:34.905Z","error":false}