{"id":13916,"slug":"torfloecher-kluess-bei-kluess","url":"https://www.hejfish.com/d/13916-torfloecher-kluess-bei-kluess","name":"Torflöcher Klueß bei Klueß","description":"","water_size_ha":null,"fish":["HechtSchleieFlussbarschBrasseRotauge"],"techniques":["SpinnangelnFliegenfischen… mehr"],"properties":["Boot\nNachtfischen\nTechniken:\nSpinnangelnFliegenfischen… mehr"],"season":null,"water_type":null,"rules_text":"","mobile_ticket":false,"print_required":false,"tickets":[],"manager":null,"main_image":null,"location_info":["Mecklenburg-Vorpommern","Kreis Rostock"],"lat":null,"lng":null,"geocode_source":null,"map_data":{"data":{"id":13916,"geojson":{"type":"FeatureCollection","features":[{"type":"Feature","properties":{"stroke":"#00c1d6","stroke-width":2,"stroke-opacity":1,"fill":"#00c1d6","fill-opacity":0.5,"name":"3183 Torflöcher Klueß","styleUrl":"#msn_fishing"},"geometry":{"type":"Point","coordinates":[12.23827458151031,53.77281805135919,0]}}],"name":"12563_placemark"},"locations":[{"lat":53.7728,"lng":12.2382}],"stations":[{"name":"Klueß, Ausbau","lat":53.763805,"lng":12.245951,"lines":null,"url":null},{"name":"Güstrow, Nerzfarm","lat":53.764097,"lng":12.245933,"lines":null,"url":null},{"name":"Stavenslust","lat":53.772114,"lng":12.243956,"lines":null,"url":null},{"name":"Klueß, Sandweg","lat":53.77652,"lng":12.247819,"lines":null,"url":null},{"name":"Klueß","lat":53.7785,"lng":12.242402,"lines":null,"url":null}],"gauges":[],"depth_map":null}},"country":"DE","last_updated":"2026-05-05T20:41:55.529Z","error":false}