{"id":13920,"slug":"torfstich-an-der-peene-bei-stuterhof","url":"https://www.hejfish.com/d/13920-torfstich-an-der-peene-bei-stuterhof","name":"Torfstich an der Peene bei Stuterhof","description":"","water_size_ha":null,"fish":["HechtBrasseRotaugeRotfeder"],"techniques":["SpinnangelnFliegenfischen… mehr"],"properties":["Boot\nNachtfischen\nTechniken:\nSpinnangelnFliegenfischen… mehr"],"season":null,"water_type":null,"rules_text":"","mobile_ticket":false,"print_required":false,"tickets":[],"manager":null,"main_image":null,"location_info":["Mecklenburg-Vorpommern","Kreis Mecklenburgische Seenplatte"],"lat":null,"lng":null,"geocode_source":null,"map_data":{"data":{"id":13920,"geojson":{"type":"FeatureCollection","features":[{"type":"Feature","properties":{"stroke":"#00c1d6","stroke-width":2,"stroke-opacity":1,"fill":"#00c1d6","fill-opacity":0.5,"name":"3840 Torfstich an der Peene","styleUrl":"#IconStyle0070"},"geometry":{"type":"Point","coordinates":[13.025611,53.892444,0]}},{"type":"Feature","properties":{"stroke":"#00c1d6","stroke-width":2,"stroke-opacity":1,"fill":"#00c1d6","fill-opacity":0.5,"name":"Bitte Hinweise auf Detailseite im Verzeichnis beachten!","styleUrl":"#sn_noicon"},"geometry":{"type":"Point","coordinates":[13.02560854353224,53.89244606440233,0]}}],"name":"12243_placemark"},"locations":[{"lat":53.8924,"lng":13.0256}],"stations":[{"name":"Demmin, Waldschule","lat":53.900698,"lng":13.017199,"lines":null,"url":null},{"name":"Demmin Hopfenstraße","lat":53.899126,"lng":13.023586,"lines":null,"url":null},{"name":"Demmin, Vorwerk Oben","lat":53.890222,"lng":13.033315,"lines":null,"url":null}],"gauges":[{"id":37,"name":"Demmin","lat":53.916354,"lng":13.026563}],"depth_map":null}},"country":"DE","last_updated":"2026-05-05T20:42:04.599Z","error":false}