{"id":13987,"slug":"hellteich-bei-strasburg","url":"https://www.hejfish.com/d/13987-hellteich-bei-strasburg","name":"Hellteich bei Strasburg","description":"","water_size_ha":null,"fish":["HechtSchleieBrasseRotaugeAalKarausche"],"techniques":["SpinnangelnFliegenfischen… mehr"],"properties":["Boot\nNachtfischen\nTechniken:\nSpinnangelnFliegenfischen… mehr"],"season":null,"water_type":null,"rules_text":"","mobile_ticket":false,"print_required":false,"tickets":[],"manager":null,"main_image":null,"location_info":["Mecklenburg-Vorpommern","Kreis Vorpommern-Greifswald"],"lat":null,"lng":null,"geocode_source":null,"map_data":{"data":{"id":13987,"geojson":{"type":"FeatureCollection","features":[{"type":"Feature","properties":{"stroke":"#00c1d6","stroke-width":2,"stroke-opacity":1,"fill":"#00c1d6","fill-opacity":0.5,"name":"3766 Hellteich","styleUrl":"#IconStyle0070"},"geometry":{"type":"Point","coordinates":[13.735361,53.50855600000001,0]}}],"name":"12776_placemark"},"locations":[{"lat":53.5086,"lng":13.7354}],"stations":[{"name":"Strasburg, Gewerbegebiet","lat":53.504065,"lng":13.736947,"lines":null,"url":null},{"name":"Strasburg, H.-Heine Str.","lat":53.506228,"lng":13.738645,"lines":null,"url":null},{"name":"Strasburg Grundschule","lat":53.507965,"lng":13.740478,"lines":null,"url":null},{"name":"Strasburg, Baustraße","lat":53.507746,"lng":13.74417,"lines":null,"url":null},{"name":"Strasburg, Markt","lat":53.506854,"lng":13.744673,"lines":null,"url":null},{"name":"Strasburg Bahnhof","lat":53.514984,"lng":13.745149,"lines":null,"url":null}],"gauges":[],"depth_map":null}},"country":"DE","last_updated":"2026-05-05T20:44:52.821Z","error":false}