{"id":14005,"slug":"knieperteich-bei-stralsund","url":"https://www.hejfish.com/d/14005-knieperteich-bei-stralsund","name":"Knieperteich bei Stralsund","description":"","water_size_ha":null,"fish":["HechtZanderFlussbarschBrasseRotaugeAal"],"techniques":["SpinnangelnFliegenfischen… mehr"],"properties":["kein Boot\nNachtfischen\nÖffis\nTechniken:\nSpinnangelnFliegenfischen… mehr"],"season":null,"water_type":null,"rules_text":"","mobile_ticket":false,"print_required":false,"tickets":[],"manager":null,"main_image":null,"location_info":["Mecklenburg-Vorpommern","Kreis Vorpommern-Rügen"],"lat":null,"lng":null,"geocode_source":null,"map_data":{"data":{"id":14005,"geojson":{"type":"FeatureCollection","features":[{"type":"Feature","properties":{"stroke":"#00c1d6","stroke-width":2,"stroke-opacity":1,"fill":"#00c1d6","fill-opacity":0.5,"name":"337 Knieper Teich","styleUrl":"#IconStyle0070"},"geometry":{"type":"Point","coordinates":[13.08375,54.313556,0]}}],"name":"12332_placemark"},"locations":[{"lat":54.3136,"lng":13.0837}],"stations":[{"name":"Stralsund Jahnsportplatz","lat":54.304987,"lng":13.091167,"lines":null,"url":null},{"name":"Stralsund Busbahnhof","lat":54.308278,"lng":13.088759,"lines":null,"url":null},{"name":"Stralsund Hauptbahnhof","lat":54.308802,"lng":13.078303,"lines":null,"url":null},{"name":"Stralsund Knieperwall","lat":54.31006,"lng":13.08398,"lines":null,"url":null},{"name":"Stralsund, Neuer Markt","lat":54.310233,"lng":13.088903,"lines":null,"url":null},{"name":"Stralsund Wolfgang-Heinze-Str.","lat":54.312942,"lng":13.078788,"lines":null,"url":null},{"name":"Stralsund Kütertor","lat":54.313854,"lng":13.085507,"lines":null,"url":null},{"name":"Stralsund Friedrich-Engels-Str.","lat":54.316642,"lng":13.081079,"lines":null,"url":null},{"name":"Stralsund Olof-Palme-Platz","lat":54.317443,"lng":13.088975,"lines":null,"url":null},{"name":"Stralsund Rosengarten","lat":54.317999,"lng":13.08425,"lines":null,"url":null},{"name":"Stralsund An den Bleichen","lat":54.318659,"lng":13.07621,"lines":null,"url":null},{"name":"Stralsund Knieperdamm","lat":54.320849,"lng":13.079758,"lines":null,"url":null}],"gauges":[],"depth_map":null}},"country":"DE","last_updated":"2026-05-05T20:45:37.592Z","error":false}