{"id":14016,"slug":"muehlenteich-bei-hagenow","url":"https://www.hejfish.com/d/14016-muehlenteich-bei-hagenow","name":"Mühlenteich bei Hagenow","description":"","water_size_ha":null,"fish":["HechtFlussbarschRotaugeAal"],"techniques":["SpinnangelnFliegenfischen… mehr"],"properties":["Boot\nNachtfischen\nÖffis\nTechniken:\nSpinnangelnFliegenfischen… mehr"],"season":null,"water_type":null,"rules_text":"","mobile_ticket":false,"print_required":false,"tickets":[],"manager":null,"main_image":null,"location_info":["Mecklenburg-Vorpommern","Kreis Ludwigslust-Parchim"],"lat":null,"lng":null,"geocode_source":null,"map_data":{"data":{"id":14016,"geojson":{"type":"FeatureCollection","features":[{"type":"Feature","properties":{"stroke":"#00c1d6","stroke-width":2,"stroke-opacity":1,"fill":"#00c1d6","fill-opacity":0.5,"name":"3992 Mühlenteich","styleUrl":"#IconStyle0070"},"geometry":{"type":"Point","coordinates":[11.192056,53.43325,0]}}],"name":"12859_placemark"},"locations":[{"lat":53.4333,"lng":11.1921}],"stations":[{"name":"Hagenow OBI","lat":53.425896,"lng":11.199934,"lines":null,"url":null},{"name":"Hagenow Schule II","lat":53.425896,"lng":11.197401,"lines":null,"url":null},{"name":"Hagenow Am Prahmer Berg","lat":53.425944,"lng":11.190296,"lines":null,"url":null},{"name":"Hagenow Kath. Kirche","lat":53.42786,"lng":11.196844,"lines":null,"url":null},{"name":"Hagenow Stadt","lat":53.429348,"lng":11.185202,"lines":null,"url":null},{"name":"Hagenow ZOB","lat":53.429937,"lng":11.18557,"lines":null,"url":null},{"name":"Hagenow Robert-Stock-Str.","lat":53.430761,"lng":11.194913,"lines":null,"url":null},{"name":"Hagenow Hagenstraße","lat":53.431907,"lng":11.188229,"lines":null,"url":null},{"name":"Hagenow Museum","lat":53.433234,"lng":11.18946,"lines":null,"url":null},{"name":"Hagenow Evangelische Schule","lat":53.434181,"lng":11.185975,"lines":null,"url":null},{"name":"Hagenow Am Friedhof","lat":53.434336,"lng":11.197554,"lines":null,"url":null},{"name":"Hagenow Krankenhaus","lat":53.434979,"lng":11.183046,"lines":null,"url":null},{"name":"Hagenow Schillerstraße","lat":53.43554,"lng":11.199755,"lines":null,"url":null},{"name":"Hagenow Schweriner Str.","lat":53.435706,"lng":11.199746,"lines":null,"url":null},{"name":"Hagenow Rathaus","lat":53.43576,"lng":11.18646,"lines":null,"url":null},{"name":"Hagenow Wittenburger Str.","lat":53.440105,"lng":11.183684,"lines":null,"url":null}],"gauges":[],"depth_map":null}},"country":"DE","last_updated":"2026-05-05T20:46:04.538Z","error":false}