{"id":14034,"slug":"potteich-gorow-bei-gorow","url":"https://www.hejfish.com/d/14034-potteich-gorow-bei-gorow","name":"Potteich Gorow bei Gorow","description":"","water_size_ha":null,"fish":["HechtSchleieFlussbarschBrasseRotaugeRotfeder"],"techniques":["SpinnangelnFliegenfischen… mehr"],"properties":["Boot\nNachtfischen\nÖffis\nTechniken:\nSpinnangelnFliegenfischen… mehr"],"season":null,"water_type":null,"rules_text":"","mobile_ticket":false,"print_required":false,"tickets":[],"manager":null,"main_image":null,"location_info":["Mecklenburg-Vorpommern","Kreis Rostock"],"lat":null,"lng":null,"geocode_source":null,"map_data":{"data":{"id":14034,"geojson":{"type":"FeatureCollection","features":[{"type":"Feature","properties":{"stroke":"#00c1d6","stroke-width":2,"stroke-opacity":1,"fill":"#00c1d6","fill-opacity":0.5,"name":"3877 Potteich Gorow","styleUrl":"#msn_fishing"},"geometry":{"type":"Point","coordinates":[11.95644154360201,54.02630412460521,0]}}],"name":"13544_placemark"},"locations":[{"lat":54.0263,"lng":11.9564}],"stations":[{"name":"Anna Luisenhof, Ausbau","lat":54.016918,"lng":11.951815,"lines":null,"url":null},{"name":"Anna Luisenhof","lat":54.022196,"lng":11.961715,"lines":null,"url":null},{"name":"Gorow","lat":54.02828,"lng":11.95522,"lines":null,"url":null},{"name":"Gorow, Abzweig","lat":54.030997,"lng":11.957133,"lines":null,"url":null}],"gauges":[],"depth_map":null}},"country":"DE","last_updated":"2026-05-05T20:46:50.839Z","error":false}