{"id":14045,"slug":"schwanenteich-bei-demmin","url":"https://www.hejfish.com/d/14045-schwanenteich-bei-demmin","name":"Schwanenteich bei Demmin","description":"","water_size_ha":null,"fish":["FlussbarschRotaugeRotfeder"],"techniques":["SpinnangelnFliegenfischen… mehr"],"properties":["Boot\nNachtfischen\nÖffis\nTechniken:\nSpinnangelnFliegenfischen… mehr"],"season":null,"water_type":null,"rules_text":"","mobile_ticket":false,"print_required":false,"tickets":[],"manager":null,"main_image":null,"location_info":["Mecklenburg-Vorpommern","Kreis Mecklenburgische Seenplatte"],"lat":null,"lng":null,"geocode_source":null,"map_data":{"data":{"id":14045,"geojson":{"type":"FeatureCollection","features":[{"type":"Feature","properties":{"stroke":"#00c1d6","stroke-width":2,"stroke-opacity":1,"fill":"#00c1d6","fill-opacity":0.5,"name":"1425 Schwanenteich","styleUrl":"#msn_fishing43"},"geometry":{"type":"Point","coordinates":[13.03725,53.904111,0]}}],"name":"12477_placemark"},"locations":[{"lat":53.9041,"lng":13.0372}],"stations":[{"name":"Demmin, Markt Holsteneck","lat":53.908202,"lng":13.031806,"lines":null,"url":null},{"name":"Demmin, Markt H.-Zille-Schule","lat":53.906657,"lng":13.0331,"lines":null,"url":null},{"name":"Demmin, F.-Reuter-Schule","lat":53.9069,"lng":13.036872,"lines":null,"url":null},{"name":"Demmin Wollweber Str.","lat":53.90472,"lng":13.039963,"lines":null,"url":null},{"name":"Demmin, Marienhain","lat":53.905493,"lng":13.041274,"lines":null,"url":null}],"gauges":[],"depth_map":null}},"country":"DE","last_updated":"2026-05-05T20:47:16.393Z","error":false}