{"id":14046,"slug":"schwanenteich-bei-grimmen","url":"https://www.hejfish.com/d/14046-schwanenteich-bei-grimmen","name":"Schwanenteich bei Grimmen","description":"","water_size_ha":null,"fish":["KarpfenSchleieFlussbarschRotaugeAalKarausche"],"techniques":["SpinnangelnFliegenfischen… mehr"],"properties":["Boot\nNachtfischen\nÖffis\nTechniken:\nSpinnangelnFliegenfischen… mehr"],"season":null,"water_type":null,"rules_text":"","mobile_ticket":false,"print_required":false,"tickets":[],"manager":null,"main_image":null,"location_info":["Mecklenburg-Vorpommern","Kreis Vorpommern-Rügen"],"lat":null,"lng":null,"geocode_source":null,"map_data":{"data":{"id":14046,"geojson":{"type":"FeatureCollection","features":[{"type":"Feature","properties":{"stroke":"#00c1d6","stroke-width":2,"stroke-opacity":1,"fill":"#00c1d6","fill-opacity":0.5,"name":"3151 Schwanenteich","styleUrl":"#IconStyle0070"},"geometry":{"type":"Point","coordinates":[13.043194,54.11044400000001,0]}}],"name":"12546_placemark"},"locations":[{"lat":54.1104,"lng":13.0432}],"stations":[{"name":"Grimmen Neubauer Schule","lat":54.101481,"lng":13.041696,"lines":null,"url":null},{"name":"Grimmen Südwest","lat":54.102945,"lng":13.037465,"lines":null,"url":null},{"name":"Grimmen Bauamt","lat":54.106226,"lng":13.039037,"lines":null,"url":null},{"name":"Grimmen Förderschule","lat":54.106579,"lng":13.036639,"lines":null,"url":null},{"name":"Grimmen Bahnhof","lat":54.109713,"lng":13.034294,"lines":null,"url":null},{"name":"Grimmen Friedrich Straße","lat":54.111235,"lng":13.042208,"lines":null,"url":null},{"name":"Grimmen Greifswalder Straße","lat":54.111835,"lng":13.050653,"lines":null,"url":null},{"name":"Grimmen Lidl-Markt","lat":54.115863,"lng":13.043376,"lines":null,"url":null},{"name":"Grimmen Stralsunder Straße","lat":54.119949,"lng":13.043834,"lines":null,"url":null}],"gauges":[],"depth_map":null}},"country":"DE","last_updated":"2026-05-05T20:47:17.689Z","error":false}