{"id":14058,"slug":"teich-im-park-an-der-koeppernitz-ziegeleiteich-bei-wismar","url":"https://www.hejfish.com/d/14058-teich-im-park-an-der-koeppernitz-ziegeleiteich-bei-wismar","name":"Teich im Park an der Köppernitz (Ziegeleiteich) bei Wismar","description":"","water_size_ha":null,"fish":["HechtKarpfenSchleieFlussbarschRotaugeAalKarausche"],"techniques":["SpinnangelnFliegenfischen… mehr"],"properties":["Boot\nNachtfischen\nÖffis\nTechniken:\nSpinnangelnFliegenfischen… mehr"],"season":null,"water_type":null,"rules_text":"","mobile_ticket":false,"print_required":false,"tickets":[],"manager":null,"main_image":null,"location_info":["Mecklenburg-Vorpommern","Kreis Nordwestmecklenburg"],"lat":null,"lng":null,"geocode_source":null,"map_data":{"data":{"id":14058,"geojson":{"type":"FeatureCollection","features":[{"type":"Feature","properties":{"stroke":"#00c1d6","stroke-width":2,"stroke-opacity":1,"fill":"#00c1d6","fill-opacity":0.5,"name":"3504 Teich im Park an der Köppernitz (Ziegeleiteich)","styleUrl":"#IconStyle0070"},"geometry":{"type":"Point","coordinates":[11.442583,53.89325,0]}}],"name":"12668_placemark"},"locations":[{"lat":53.8932,"lng":11.4426}],"stations":[{"name":"Wismar Störtebekerstr./Krankenhaus","lat":53.883895,"lng":11.436173,"lines":null,"url":null},{"name":"Wismar Barlachweg","lat":53.884599,"lng":11.441249,"lines":null,"url":null},{"name":"Wismar Sporthalle","lat":53.88587,"lng":11.449406,"lines":null,"url":null},{"name":"Wismar Friedrich Wolf Str","lat":53.885949,"lng":11.438455,"lines":null,"url":null},{"name":"Wismar Krankenhaus","lat":53.888538,"lng":11.438913,"lines":null,"url":null},{"name":"Wismar J.-R.- Becher-Str","lat":53.888565,"lng":11.444204,"lines":null,"url":null},{"name":"Wismar Hochschule","lat":53.890015,"lng":11.442533,"lines":null,"url":null},{"name":"Wismar Ph-Müller-St Hochschule","lat":53.890037,"lng":11.442533,"lines":null,"url":null},{"name":"Wismar Philipp-Müller-Straße","lat":53.890264,"lng":11.44327,"lines":null,"url":null},{"name":"Wismar Köppernitztal Ph-Müller","lat":53.89027,"lng":11.441303,"lines":null,"url":null},{"name":"Wismar Köppernitztal","lat":53.892329,"lng":11.439147,"lines":null,"url":null},{"name":"Wismar Burgwallcenter","lat":53.89262,"lng":11.446594,"lines":null,"url":null},{"name":"Wismar Weidendammplatz","lat":53.892631,"lng":11.450034,"lines":null,"url":null},{"name":"Wismar Tierpark/Bürgerpark","lat":53.893197,"lng":11.437476,"lines":null,"url":null},{"name":"Wismar Burgwall","lat":53.893547,"lng":11.446791,"lines":null,"url":null},{"name":"Wismar Werftstraße","lat":53.894235,"lng":11.438698,"lines":null,"url":null},{"name":"Wismar Schiffbauerdamm","lat":53.894526,"lng":11.448983,"lines":null,"url":null}],"gauges":[],"depth_map":null}},"country":"DE","last_updated":"2026-05-05T20:47:48.133Z","error":false}