{"id":14055,"slug":"teich-auf-dem-exerzierplatz-bei-wismar","url":"https://www.hejfish.com/d/14055-teich-auf-dem-exerzierplatz-bei-wismar","name":"Teich auf dem Exerzierplatz bei Wismar","description":"","water_size_ha":null,"fish":["HechtKarpfenSchleieFlussbarschRotaugeAalKarausche"],"techniques":["SpinnangelnFliegenfischen… mehr"],"properties":["Boot\nNachtfischen\nTechniken:\nSpinnangelnFliegenfischen… mehr"],"season":null,"water_type":null,"rules_text":"","mobile_ticket":false,"print_required":false,"tickets":[],"manager":null,"main_image":null,"location_info":["Mecklenburg-Vorpommern","Kreis Nordwestmecklenburg"],"lat":null,"lng":null,"geocode_source":null,"map_data":{"data":{"id":14055,"geojson":{"type":"FeatureCollection","features":[{"type":"Feature","properties":{"stroke":"#00c1d6","stroke-width":2,"stroke-opacity":1,"fill":"#00c1d6","fill-opacity":0.5,"name":"3869 Teich auf dem Exerzierplatz","styleUrl":"#IconStyle0070"},"geometry":{"type":"Point","coordinates":[11.416278,53.890611,0]}}],"name":"12818_placemark"},"locations":[{"lat":53.8906,"lng":11.4163}],"stations":[{"name":"Wismar R.-Wagner- Straße","lat":53.89694,"lng":11.422097,"lines":null,"url":null},{"name":"Wismar Etkar-Andre Straße","lat":53.898131,"lng":11.420498,"lines":null,"url":null},{"name":"Wismar Wendenkrug","lat":53.898284,"lng":11.41659,"lines":null,"url":null},{"name":"Wismar Platz des Friedens","lat":53.898909,"lng":11.420902,"lines":null,"url":null}],"gauges":[],"depth_map":null}},"country":"DE","last_updated":"2026-05-05T20:47:40.531Z","error":false}