{"id":14066,"slug":"ziegeleiteiche-a-bei-grevesmuehlen","url":"https://www.hejfish.com/d/14066-ziegeleiteiche-a-bei-grevesmuehlen","name":"Ziegeleiteiche a bei Grevesmühlen","description":"","water_size_ha":null,"fish":["HechtSchleieFlussbarschBrasseRotauge"],"techniques":["SpinnangelnFliegenfischen… mehr"],"properties":["Boot\nNachtfischen\nTechniken:\nSpinnangelnFliegenfischen… mehr"],"season":null,"water_type":null,"rules_text":"","mobile_ticket":false,"print_required":false,"tickets":[],"manager":null,"main_image":null,"location_info":["Mecklenburg-Vorpommern","Kreis Nordwestmecklenburg"],"lat":null,"lng":null,"geocode_source":null,"map_data":{"data":{"id":14066,"geojson":{"type":"FeatureCollection","features":[{"type":"Feature","properties":{"stroke":"#00c1d6","stroke-width":2,"stroke-opacity":1,"fill":"#00c1d6","fill-opacity":0.5,"name":"3172 Ziegeleiteiche a","styleUrl":"#IconStyle0070"},"geometry":{"type":"Point","coordinates":[11.209917,53.85788899999999,0]}},{"type":"Feature","properties":{"stroke":"#00c1d6","stroke-width":2,"stroke-opacity":1,"fill":"#00c1d6","fill-opacity":0.5,"name":"Bitte Hinweise auf Detailseite im Verzeichnis beachten!","styleUrl":"#sn_noicon"},"geometry":{"type":"Point","coordinates":[11.2099397450605,53.85784632520288,0]}}],"name":"12554_placemark"},"locations":[{"lat":53.8579,"lng":11.2099}],"stations":[{"name":"Grevesmühlen Degtower Weg","lat":53.85577,"lng":11.20404,"lines":null,"url":null},{"name":"Grevesmühlen Seniorenz.Wasserturm","lat":53.86208,"lng":11.200186,"lines":null,"url":null},{"name":"Grevesm. Straßenverkehrsamt","lat":53.862662,"lng":11.207741,"lines":null,"url":null},{"name":"Grevesmühlen L.Steinschlag","lat":53.863293,"lng":11.211442,"lines":null,"url":null},{"name":"Grevesmühlen Kastanienallee","lat":53.864162,"lng":11.20121,"lines":null,"url":null},{"name":"GVM Wism. Str. Gartenanlage","lat":53.864718,"lng":11.205809,"lines":null,"url":null}],"gauges":[],"depth_map":null}},"country":"DE","last_updated":"2026-05-05T20:48:10.318Z","error":false}