{"id":14132,"slug":"wallgraben-schlossgraben-bei-kluetz","url":"https://www.hejfish.com/d/14132-wallgraben-schlossgraben-bei-kluetz","name":"Wallgraben (Schloßgraben) bei Klütz","description":"","water_size_ha":null,"fish":["HechtKarpfenSchleieRotauge"],"techniques":["SpinnangelnFliegenfischen… mehr"],"properties":["Boot\nNachtfischen\nTechniken:\nSpinnangelnFliegenfischen… mehr"],"season":null,"water_type":null,"rules_text":"","mobile_ticket":false,"print_required":false,"tickets":[],"manager":null,"main_image":null,"location_info":["Mecklenburg-Vorpommern","Kreis Nordwestmecklenburg"],"lat":null,"lng":null,"geocode_source":null,"map_data":{"data":{"id":14132,"geojson":{"type":"FeatureCollection","features":[{"type":"Feature","properties":{"stroke":"#00c1d6","stroke-width":2,"stroke-opacity":1,"fill":"#00c1d6","fill-opacity":0.5,"name":"3175 Wallgraben (Schloßgraben)","styleUrl":"#msn_fishing"},"geometry":{"type":"Point","coordinates":[11.15982108963964,53.96056792638795,0]}}],"name":"12556_placemark"},"locations":[{"lat":53.9595,"lng":11.1571}],"stations":[{"name":"Hofzumfelde Dorf","lat":53.954961,"lng":11.163858,"lines":null,"url":null},{"name":"Arpshagen","lat":53.962688,"lng":11.147311,"lines":null,"url":null},{"name":"Klütz Kirche","lat":53.967095,"lng":11.164729,"lines":null,"url":null},{"name":"Klütz Lübecker Straße","lat":53.969077,"lng":11.159277,"lines":null,"url":null}],"gauges":[],"depth_map":null}},"country":"DE","last_updated":"2026-05-05T20:50:55.388Z","error":false}