{"id":14168,"slug":"eldekuhle-umleitung-bei-doemitz","url":"https://www.hejfish.com/d/14168-eldekuhle-umleitung-bei-doemitz","name":"Eldekuhle Umleitung bei Dömitz","description":"","water_size_ha":null,"fish":["HechtKarpfenSchleieFlussbarschBrasseRotaugeRotfederAal"],"techniques":["SpinnangelnFliegenfischen… mehr"],"properties":["Boot\nNachtfischen\nTechniken:\nSpinnangelnFliegenfischen… mehr"],"season":null,"water_type":null,"rules_text":"","mobile_ticket":false,"print_required":false,"tickets":[],"manager":null,"main_image":null,"location_info":["Mecklenburg-Vorpommern","Kreis Ludwigslust-Parchim"],"lat":null,"lng":null,"geocode_source":null,"map_data":{"data":{"id":14168,"geojson":{"type":"FeatureCollection","features":[{"type":"Feature","properties":{"stroke":"#00c1d6","stroke-width":2,"stroke-opacity":1,"fill":"#00c1d6","fill-opacity":0.5,"name":"3859.5 Umleitung b","styleUrl":"#IconStyle0070"},"geometry":{"type":"Point","coordinates":[11.261833,53.14361100000001,0]}}],"name":"12994_placemark"},"locations":[{"lat":53.1436,"lng":11.2618}],"stations":[{"name":"Dömitz Werderstraße","lat":53.140807,"lng":11.253375,"lines":null,"url":null},{"name":"Dömitz Hafenplatz","lat":53.138452,"lng":11.262538,"lines":null,"url":null},{"name":"Dömitz F.-R.-Schule","lat":53.136302,"lng":11.264766,"lines":null,"url":null},{"name":"Dömitz Roggenfelder Str.","lat":53.135644,"lng":11.266994,"lines":null,"url":null}],"gauges":[],"depth_map":null}},"country":"DE","last_updated":"2026-05-05T20:52:25.488Z","error":false}