{"id":14203,"slug":"silbersee-bei-waldmuenchen-staatliches-fischereigewaesser","url":"https://www.hejfish.com/d/14203-silbersee-bei-waldmuenchen-staatliches-fischereigewaesser","name":"Silbersee bei Waldmünchen (Staatliches Fischereigewässer)","description":"","water_size_ha":null,"fish":["KarpfenSchleieBrasseForelleAalRotaugeRotfederFlussbarsch"],"techniques":["FliegenfischenPosenangelnAnsitzangeln"],"properties":["kein Boot\nKein NachtfischenFangmeldung erforderlich\nTechniken:\nFliegenfischenPosenangelnAnsitzangeln"],"season":null,"water_type":null,"rules_text":"","mobile_ticket":false,"print_required":true,"tickets":[],"manager":null,"main_image":null,"location_info":["Bayern","Kreis Cham"],"lat":null,"lng":null,"geocode_source":null,"map_data":{"data":{"id":14203,"geojson":[],"locations":[{"lat":49.408182,"lng":12.607261},{"lat":49.416419,"lng":12.595803}],"stations":[{"name":"Tiefenbach, Stein","lat":49.402849,"lng":12.588739,"lines":null,"url":null},{"name":"Tiefenbach, Grubhof","lat":49.401183,"lng":12.602241,"lines":null,"url":null},{"name":"Treffelstein, Witzelsmühle","lat":49.404054,"lng":12.60666,"lines":null,"url":null},{"name":"Treffelstein, Am Wiesengrund","lat":49.419273,"lng":12.60914,"lines":null,"url":null},{"name":"Zweifelhof,Abzw. Witzelsmühle","lat":49.406906,"lng":12.615176,"lines":null,"url":null},{"name":"Treffelstein, Zweifelhof","lat":49.406877,"lng":12.615239,"lines":null,"url":null},{"name":"Treffelstein, Kirche","lat":49.422972,"lng":12.61576,"lines":null,"url":null}],"gauges":[{"id":1492,"name":"Untertraubenbach","lat":49.2065843,"lng":12.5805925},{"id":1490,"name":"Balbersdorf","lat":49.2914872,"lng":12.6792994},{"id":1484,"name":"Drachensee Speicherabfluss","lat":49.3186976,"lng":12.8645608},{"id":1483,"name":"Drachensee Seepegel","lat":49.3174419,"lng":12.8673942},{"id":1489,"name":"Dieberg","lat":49.3275917,"lng":12.8536798},{"id":1449,"name":"Fronhof","lat":49.4107489,"lng":12.3089204},{"id":1488,"name":"Ösbühl","lat":49.3204086,"lng":12.8950333},{"id":1486,"name":"Kothmaißling","lat":49.240419,"lng":12.7335057},{"id":1446,"name":"Witzelsmühle Silberseeabfluss","lat":49.4047357,"lng":12.6050916},{"id":1445,"name":"Witzelsmühle Seepegel","lat":49.4087623,"lng":12.6040769},{"id":1444,"name":"Tiefenbach","lat":49.4353829,"lng":12.5961098},{"id":1447,"name":"Untereppenried","lat":49.4320463,"lng":12.4593714},{"id":1485,"name":"Furth im Wald","lat":49.3021679,"lng":12.8365166},{"id":1448,"name":"Gartenried","lat":49.487284,"lng":12.4493589},{"id":1482,"name":"Eschlkam","lat":49.2998327,"lng":12.8992017},{"id":1442,"name":"Eixendorf Speicherabfluss","lat":49.3595073,"lng":12.4479791},{"id":1441,"name":"Eixendorf Seepegel","lat":49.3568813,"lng":12.4485392},{"id":1433,"name":"Pfrentsch","lat":49.6182406,"lng":12.4931003},{"id":1440,"name":"Rötz Speicherzufluss","lat":49.3372353,"lng":12.5152108},{"id":1439,"name":"Hocha Perlseeabfluss","lat":49.3893702,"lng":12.6963594},{"id":1438,"name":"Hocha Seepegel","lat":49.389848,"lng":12.6982975},{"id":1466,"name":"Cham","lat":49.216199,"lng":12.6680687},{"id":1437,"name":"Höll","lat":49.4095812,"lng":12.7044426}],"depth_map":null}},"country":"DE","last_updated":"2026-05-06T06:41:50.920Z","error":false}