{"id":14211,"slug":"iller-illerbeuren-ferthofen","url":"https://www.hejfish.com/d/14211-iller-illerbeuren-ferthofen","name":"Iller | Illerbeuren – Ferthofen","description":"","water_size_ha":null,"fish":["ÄscheBachforelleRegenbogenforelleHechtFlussbarschQuappeWelsAalDöbelBarbeSchleieKarpfenNaseRotauge"],"techniques":["AnsitzangelnFeedern… mehr"],"properties":["kein Boot\nKein Nachtfischen\nÖffisFangmeldung erforderlich\nTechniken:\nAnsitzangelnFeedern… mehr"],"season":null,"water_type":null,"rules_text":"","mobile_ticket":false,"print_required":true,"tickets":[],"manager":null,"main_image":null,"location_info":["Bayern","Memmingen"],"lat":null,"lng":null,"geocode_source":null,"map_data":{"data":{"id":14211,"geojson":[],"locations":[{"lat":47.898472,"lng":10.121861},{"lat":47.938389,"lng":10.11025}],"stations":[{"name":"Aitrach Abzw. Lautrach","lat":47.925147,"lng":10.100388,"lines":null,"url":null},{"name":"Aitrach Memminger Straße","lat":47.933279,"lng":10.100684,"lines":null,"url":null},{"name":"Aitrach Am Wirthsfeld","lat":47.93562,"lng":10.104942,"lines":null,"url":null},{"name":"Aitrach Ferthofen, Garni","lat":47.938708,"lng":10.105948,"lines":null,"url":null},{"name":"Ferthofen","lat":47.940122,"lng":10.107421,"lines":null,"url":null},{"name":"Ferthofen, Diepolderstr.","lat":47.943064,"lng":10.109011,"lines":null,"url":null},{"name":"Lautrach, Am Stausee","lat":47.916183,"lng":10.112991,"lines":null,"url":null},{"name":"Lautrach, Turnhalle","lat":47.895052,"lng":10.113117,"lines":null,"url":null},{"name":"Lautrach, Deybachstraße","lat":47.898184,"lng":10.118246,"lines":null,"url":null},{"name":"Lautrach, Abzw. Illerbeuren","lat":47.900039,"lng":10.119665,"lines":null,"url":null},{"name":"Lautrach, Ort","lat":47.896895,"lng":10.119818,"lines":null,"url":null},{"name":"Maria Steinbach, Abzw.","lat":47.890059,"lng":10.122522,"lines":null,"url":null},{"name":"Kardorf, Ferthofer Straße","lat":47.920903,"lng":10.122585,"lines":null,"url":null},{"name":"Illerbeuren, Feuerwehr","lat":47.90066,"lng":10.123295,"lines":null,"url":null},{"name":"Kardorf","lat":47.920289,"lng":10.126439,"lines":null,"url":null},{"name":"Illerbeuren, Schule","lat":47.902207,"lng":10.127274,"lines":null,"url":null},{"name":"Greuth, Ortsanfang","lat":47.915822,"lng":10.129942,"lines":null,"url":null}],"gauges":[],"depth_map":null}},"country":"DE","last_updated":"2026-05-05T20:53:49.716Z","error":false}