{"id":14244,"slug":"schlesersee","url":"https://www.hejfish.com/d/14244-schlesersee","name":"Schlesersee","description":"","water_size_ha":null,"fish":["AalFlussbarschHechtKarpfenSchleieZanderDiv. Weißfische"],"techniques":["AnsitzangelnFeedern… mehr"],"properties":["Boot\nNachtfischen\nTechniken:\nAnsitzangelnFeedern… mehr"],"season":null,"water_type":null,"rules_text":"","mobile_ticket":false,"print_required":false,"tickets":[],"manager":null,"main_image":null,"location_info":["Mecklenburg-Vorpommern","Kreis Mecklenburgische Seenplatte"],"lat":null,"lng":null,"geocode_source":null,"map_data":{"data":{"id":14244,"geojson":[],"locations":[{"lat":53.359864717655,"lng":13.236366649328}],"stations":[{"name":"Carpin Goldenbaumer Landstr","lat":53.350425,"lng":13.242281,"lines":null,"url":null},{"name":"Carpin, Dianenhof","lat":53.35412,"lng":13.229965,"lines":null,"url":null},{"name":"Carpin - Weltnaturerbe","lat":53.354184,"lng":13.240547,"lines":null,"url":null},{"name":"Carpin, Neubau","lat":53.358194,"lng":13.245012,"lines":null,"url":null},{"name":"Carpin, Nord","lat":53.362129,"lng":13.24521,"lines":null,"url":null},{"name":"Georgenhof","lat":53.365887,"lng":13.241131,"lines":null,"url":null}],"gauges":[],"depth_map":null}},"country":"DE","last_updated":"2026-05-05T20:55:03.046Z","error":false}