{"id":14279,"slug":"neubertsee-hirschaid","url":"https://www.hejfish.com/d/14279-neubertsee-hirschaid","name":"Neubertsee Hirschaid","description":"","water_size_ha":null,"fish":["AalBrasseDiv. WeißfischeFlussbarschHechtZanderRotaugeRotfederKarpfenSchuppenkarpfenSpiegelkarpfenAmurSchleieWels"],"techniques":["AnsitzangelnFeedern… mehr"],"properties":["Boot\nNachtfischen\nTechniken:\nAnsitzangelnFeedern… mehr"],"season":null,"water_type":null,"rules_text":"","mobile_ticket":false,"print_required":false,"tickets":[],"manager":null,"main_image":null,"location_info":["Bayern","Bamberg"],"lat":null,"lng":null,"geocode_source":null,"map_data":{"data":{"id":14279,"geojson":[],"locations":[{"lat":49.812017,"lng":11.004669}],"stations":[{"name":"Hirschaid Friedhof","lat":49.812313,"lng":10.997158,"lines":null,"url":null},{"name":"Hirschaid Industriestr/Neubert","lat":49.816452,"lng":11.000769,"lines":null,"url":null},{"name":"Hirschaid Realschule","lat":49.819524,"lng":10.994669,"lines":null,"url":null},{"name":"Hirschaid Industriestr./E-Cent","lat":49.820277,"lng":10.999934,"lines":null,"url":null}],"gauges":[{"id":278,"name":"Bamberg","lat":49.882051,"lng":10.906537},{"id":417,"name":"Trunstadt","lat":49.929696,"lng":10.755205}],"depth_map":null}},"country":"DE","last_updated":"2026-05-05T20:56:01.120Z","error":false}