{"id":14294,"slug":"fichtelnaab-bereich-trautenberg-naabdemenreuth","url":"https://www.hejfish.com/d/14294-fichtelnaab-bereich-trautenberg-naabdemenreuth","name":"Fichtelnaab Bereich Trautenberg-Naabdemenreuth","description":"","water_size_ha":null,"fish":["ForelleHechtKarpfen"],"techniques":["AnsitzangelnFeedern… mehr"],"properties":["kein Boot\nNachtfischen\nÖffisFangmeldung erforderlich\nTechniken:\nAnsitzangelnFeedern… mehr"],"season":null,"water_type":null,"rules_text":"","mobile_ticket":false,"print_required":false,"tickets":[],"manager":null,"main_image":null,"location_info":["Bayern","Kreis Tirschenreuth"],"lat":null,"lng":null,"geocode_source":null,"map_data":{"data":{"id":14294,"geojson":[],"locations":[{"lat":49.824168,"lng":12.117136},{"lat":49.820171,"lng":12.128844}],"stations":[{"name":"Nottersdorf","lat":49.81018,"lng":12.122603,"lines":null,"url":null},{"name":"Gerbersdorf","lat":49.813612,"lng":12.107278,"lines":null,"url":null},{"name":"Naabdemenreuth","lat":49.818915,"lng":12.127023,"lines":null,"url":null},{"name":"Trautenberg,Bayrischhof","lat":49.826357,"lng":12.114563,"lines":null,"url":null},{"name":"Lehen bei Krummennaab,Bayrischhof","lat":49.830193,"lng":12.115947,"lines":null,"url":null}],"gauges":[],"depth_map":null}},"country":"DE","last_updated":"2026-05-05T20:56:34.880Z","error":false}