{"id":14295,"slug":"hainbach","url":"https://www.hejfish.com/d/14295-hainbach","name":"Hainbach","description":"","water_size_ha":null,"fish":["BachforelleRegenbogenforelle"],"techniques":["AnsitzangelnFeedern"],"properties":["kein Boot\nNachtfischen\nÖffisFangmeldung erforderlich\nTechniken:\nAnsitzangelnFeedern"],"season":null,"water_type":null,"rules_text":"","mobile_ticket":false,"print_required":false,"tickets":[],"manager":null,"main_image":null,"location_info":["Bayern","Kreis Tirschenreuth"],"lat":null,"lng":null,"geocode_source":null,"map_data":{"data":{"id":14295,"geojson":[],"locations":[{"lat":49.82657,"lng":12.114422},{"lat":49.845649,"lng":12.118227}],"stations":[{"name":"Thumsenreuth, Ort","lat":49.854182,"lng":12.105805,"lines":null,"url":null},{"name":"Thumsenreuth, Feuerwehrhaus","lat":49.854292,"lng":12.107754,"lines":null,"url":null},{"name":"Scheibe bei Erbendorf","lat":49.838067,"lng":12.113054,"lines":null,"url":null},{"name":"Trautenberg,Bayrischhof","lat":49.826357,"lng":12.114563,"lines":null,"url":null},{"name":"Lehen bei Krummennaab,Bayrischhof","lat":49.830193,"lng":12.115947,"lines":null,"url":null},{"name":"Reuth (b Erbendorf)","lat":49.840037,"lng":12.118435,"lines":null,"url":null},{"name":"Reuth, Dr. Witt Platz","lat":49.842302,"lng":12.121148,"lines":null,"url":null},{"name":"Letten","lat":49.854698,"lng":12.122298,"lines":null,"url":null},{"name":"Röthenbach a. Steinwald","lat":49.853679,"lng":12.126942,"lines":null,"url":null},{"name":"Naabdemenreuth","lat":49.818915,"lng":12.127023,"lines":null,"url":null}],"gauges":[],"depth_map":null}},"country":"DE","last_updated":"2026-05-05T20:56:35.957Z","error":false}