{"id":14361,"slug":"dobbenteiche","url":"https://www.hejfish.com/d/14361-dobbenteiche","name":"Dobbenteiche","description":"","water_size_ha":null,"fish":["FlussbarschHechtKarpfenDiv. Weißfische"],"techniques":["AnsitzangelnFeedern… mehr"],"properties":["kein Boot\nNachtfischen\nÖffisFangmeldung erforderlich\nTechniken:\nAnsitzangelnFeedern… mehr"],"season":null,"water_type":null,"rules_text":"","mobile_ticket":false,"print_required":false,"tickets":[],"manager":null,"main_image":null,"location_info":["Niedersachsen","Oldenburg (Oldenburg)"],"lat":null,"lng":null,"geocode_source":null,"map_data":{"data":{"id":14361,"geojson":[],"locations":[{"lat":53.139518,"lng":8.203732},{"lat":53.139284,"lng":8.199842}],"stations":[{"name":"Oldenburg(Oldb) Bodenburgallee","lat":53.130638,"lng":8.19127,"lines":null,"url":null},{"name":"Oldenburg(Oldb) Helene-Lange-Schule","lat":53.131204,"lng":8.204547,"lines":null,"url":null},{"name":"Oldenburg(Oldb) Feststraße","lat":53.133111,"lng":8.194414,"lines":null,"url":null},{"name":"Oldenburg(Oldb) Marktpl. Eversten","lat":53.133354,"lng":8.198555,"lines":null,"url":null},{"name":"Tannenkampstraße,Oldenburg (Oldenbg)","lat":53.133473,"lng":8.191234,"lines":null,"url":null},{"name":"Meinardusstraße-B,Oldenburg (Oldenbg)","lat":53.13406,"lng":8.20593,"lines":null,"url":null},{"name":"Oldenburg(Oldb) Bismarckstr.","lat":53.135305,"lng":8.210422,"lines":null,"url":null},{"name":"Herbartstraße,Oldenburg (Oldenbg)","lat":53.137671,"lng":8.206353,"lines":null,"url":null},{"name":"Pulverturm-B,Oldenburg (Oldenbg)","lat":53.138032,"lng":8.212668,"lines":null,"url":null},{"name":"Tappenbeckstraße,Oldenburg (Oldenbg)","lat":53.138091,"lng":8.201313,"lines":null,"url":null},{"name":"Oldenburg(Oldb), Theater","lat":53.138344,"lng":8.209802,"lines":null,"url":null},{"name":"Oldenburg(Oldb), Rummelweg","lat":53.140058,"lng":8.195034,"lines":null,"url":null},{"name":"Julius-Mosen-Platz-C,Oldenburg (Oldenbg)","lat":53.141367,"lng":8.208832,"lines":null,"url":null},{"name":"Oldenburg(Oldb), Jade Hochschule","lat":53.141615,"lng":8.202373,"lines":null,"url":null},{"name":"Lasiusstraße,Oldenburg (Oldenbg)","lat":53.141799,"lng":8.191782,"lines":null,"url":null},{"name":"Oldenburg(Oldb), Westerstraße","lat":53.141885,"lng":8.197684,"lines":null,"url":null},{"name":"Marienstraße,Oldenburg (Oldenbg)","lat":53.142025,"lng":8.203631,"lines":null,"url":null},{"name":"Oldenburg(Oldb) Ammerländer","lat":53.143167,"lng":8.19374,"lines":null,"url":null},{"name":"Oldenburg, Liebfrauenschule","lat":53.143437,"lng":8.208347,"lines":null,"url":null},{"name":"Kath. Friedh./BBS Haarentor,Oldenburg (Oldenbg)","lat":53.144805,"lng":8.190057,"lines":null,"url":null},{"name":"Oldenburg(Oldb) Kath. Friedhof / BBS Haarentor","lat":53.144811,"lng":8.190057,"lines":null,"url":null},{"name":"Oldenburg(Oldb) Blumenstraße","lat":53.144951,"lng":8.20399,"lines":null,"url":null},{"name":"Oldenburg(Oldb), Margaretenstr.","lat":53.147165,"lng":8.203505,"lines":null,"url":null},{"name":"Oldenburg(Oldb), Industriestr.","lat":53.149088,"lng":8.202598,"lines":null,"url":null}],"gauges":[],"depth_map":null}},"country":"DE","last_updated":"2026-05-05T20:58:41.564Z","error":false}