{"id":14360,"slug":"buergerfelder-teich","url":"https://www.hejfish.com/d/14360-buergerfelder-teich","name":"Bürgerfelder Teich","description":"","water_size_ha":null,"fish":["FlussbarschHechtKarpfenDiv. Weißfische"],"techniques":["AnsitzangelnFeedern… mehr"],"properties":["kein Boot\nNachtfischenFangmeldung erforderlich\nTechniken:\nAnsitzangelnFeedern… mehr"],"season":null,"water_type":null,"rules_text":"","mobile_ticket":false,"print_required":false,"tickets":[],"manager":null,"main_image":null,"location_info":["Niedersachsen","Oldenburg (Oldenburg)"],"lat":null,"lng":null,"geocode_source":null,"map_data":{"data":{"id":14360,"geojson":[],"locations":[{"lat":53.16764,"lng":8.207452}],"stations":[{"name":"Oldenburg(Oldb) Frankenstr.","lat":53.159216,"lng":8.208823,"lines":null,"url":null},{"name":"Oldenburg(Oldb) Schulweg","lat":53.161338,"lng":8.206766,"lines":null,"url":null},{"name":"Oldenburg(Oldb) Im Dreieck","lat":53.163304,"lng":8.203397,"lines":null,"url":null},{"name":"Oldenburg(Oldb) Scheideweg","lat":53.163621,"lng":8.217447,"lines":null,"url":null},{"name":"Oldenburg(Oldb) Feldstraße","lat":53.165097,"lng":8.201574,"lines":null,"url":null},{"name":"Oldenburg(Oldb) Hackenweg","lat":53.167154,"lng":8.214231,"lines":null,"url":null},{"name":"Theodor-Pekol-Straße-B,Oldenburg (Oldenbg)","lat":53.168732,"lng":8.197819,"lines":null,"url":null},{"name":"Oldenburg(Oldb) Eßkamp","lat":53.170192,"lng":8.211401,"lines":null,"url":null},{"name":"Oldenburg(Oldb), Oldenrome","lat":53.170213,"lng":8.216629,"lines":null,"url":null},{"name":"Oldenburg(Oldb) Sackhofsweg","lat":53.172098,"lng":8.20964,"lines":null,"url":null},{"name":"Oldenburg(Oldb) Bürgerbuschweg","lat":53.176034,"lng":8.206191,"lines":null,"url":null}],"gauges":[],"depth_map":null}},"country":"DE","last_updated":"2026-05-05T20:58:38.222Z","error":false}