{"id":14377,"slug":"unterer-weiher-bei-wadgassen","url":"https://www.hejfish.com/d/14377-unterer-weiher-bei-wadgassen","name":"Unterer Weiher bei Wadgassen","description":"","water_size_ha":null,"fish":["Div. WeißfischeFlussbarschSchleieKarpfenHechtAal"],"techniques":["AnsitzangelnFeedern… mehr"],"properties":["kein Boot\nKein Nachtfischen\nTechniken:\nAnsitzangelnFeedern… mehr"],"season":null,"water_type":null,"rules_text":"","mobile_ticket":false,"print_required":false,"tickets":[],"manager":null,"main_image":null,"location_info":["Saarland","Kreis Saarlouis"],"lat":null,"lng":null,"geocode_source":null,"map_data":{"data":{"id":14377,"geojson":[],"locations":[{"lat":49.258601,"lng":6.80192}],"stations":[{"name":"Jahnstr., Wadgassen","lat":49.263178,"lng":6.792278,"lines":null,"url":null},{"name":"Bahnhof, Werbeln Wadgassen","lat":49.248744,"lng":6.793485,"lines":null,"url":null},{"name":"Bergstr., Wadgassen","lat":49.264901,"lng":6.794428,"lines":null,"url":null},{"name":"Lattersberg, Wadgassen","lat":49.2611,"lng":6.797484,"lines":null,"url":null},{"name":"Kirche, Wadgassen","lat":49.267214,"lng":6.799191,"lines":null,"url":null},{"name":"Wadgassen","lat":49.264373,"lng":6.800692,"lines":null,"url":null},{"name":"Am Rothenberg, Schaffhausen Wadgassen","lat":49.254817,"lng":6.801543,"lines":null,"url":null},{"name":"Rathaus, Wadgassen","lat":49.266376,"lng":6.803848,"lines":null,"url":null},{"name":"Berufsschule (ehem.), Schaffhausen Wadgassen","lat":49.26353,"lng":6.806957,"lines":null,"url":null},{"name":"Kreuzgartenstr., Schaffhausen Wadgassen","lat":49.257783,"lng":6.808009,"lines":null,"url":null},{"name":"Im Natzfeld, Schaffhausen Wadgassen","lat":49.254895,"lng":6.808948,"lines":null,"url":null},{"name":"Zur Scheib, Schaffhausen Wadgassen","lat":49.252555,"lng":6.810316,"lines":null,"url":null},{"name":"Erlenweg, Schaffhausen Wadgassen","lat":49.260724,"lng":6.811274,"lines":null,"url":null},{"name":"Feldstr. 72, Schaffhausen Wadgassen","lat":49.250352,"lng":6.811306,"lines":null,"url":null},{"name":"Sengsterstr., Schaffhausen Wadgassen","lat":49.259141,"lng":6.811316,"lines":null,"url":null}],"gauges":[],"depth_map":null}},"country":"DE","last_updated":"2026-05-05T20:59:17.694Z","error":false}