{"id":14421,"slug":"osternburger-kanal-und-lethe","url":"https://www.hejfish.com/d/14421-osternburger-kanal-und-lethe","name":"Osternburger Kanal und Lethe","description":"","water_size_ha":null,"fish":["FlussbarschHechtKarpfenAalBrasseRotaugeRotfederZanderAlandRapfen"],"techniques":["AnsitzangelnPosenangeln… mehr"],"properties":["kein Boot\nNachtfischen\nÖffisFangmeldung erforderlich\nTechniken:\nAnsitzangelnPosenangeln… mehr"],"season":null,"water_type":null,"rules_text":"","mobile_ticket":false,"print_required":false,"tickets":[],"manager":null,"main_image":null,"location_info":["Niedersachsen","Oldenburg (Oldenburg)"],"lat":null,"lng":null,"geocode_source":null,"map_data":{"data":{"id":14421,"geojson":[],"locations":[{"lat":53.096397,"lng":8.195611},{"lat":53.128574,"lng":8.217443}],"stations":[{"name":"Oldenburg(Oldb) Westerholtsweg","lat":53.086445,"lng":8.220142,"lines":null,"url":null},{"name":"Tungeln Diekmann","lat":53.086949,"lng":8.193011,"lines":null,"url":null},{"name":"Oldenburg(Oldb) Annabergstr.","lat":53.088593,"lng":8.217357,"lines":null,"url":null},{"name":"Dorfweg-C,Oldenburg (Oldenbg)","lat":53.091436,"lng":8.213665,"lines":null,"url":null},{"name":"Tungeln Tiarks","lat":53.091762,"lng":8.192152,"lines":null,"url":null},{"name":"Robert-von-Mayer-Straße,Oldenburg (Oldenbg)","lat":53.092855,"lng":8.216037,"lines":null,"url":null},{"name":"Tungeln Neuer Hort","lat":53.093962,"lng":8.189788,"lines":null,"url":null},{"name":"Oldenburg(Oldb) Waldmannsweg","lat":53.094381,"lng":8.222244,"lines":null,"url":null},{"name":"Otto-Wels-Straße,Oldenburg (Oldenbg)","lat":53.096426,"lng":8.207727,"lines":null,"url":null},{"name":"Oldenburg(Oldb) Alter Postweg","lat":53.099306,"lng":8.20708,"lines":null,"url":null},{"name":"Hertzstraße,Oldenburg (Oldenbg)","lat":53.10162,"lng":8.211347,"lines":null,"url":null},{"name":"Oldenburg(Oldb), Von-Helmholtz-Str.","lat":53.102051,"lng":8.217195,"lines":null,"url":null},{"name":"Oldenburg(Oldb), Kielweg","lat":53.103152,"lng":8.209119,"lines":null,"url":null},{"name":"Oldenburg(Oldb) Franz-Marc-Str.","lat":53.103346,"lng":8.225577,"lines":null,"url":null},{"name":"Wilhelm-Kempin-Straße,Oldenburg (Oldenbg)","lat":53.103507,"lng":8.221669,"lines":null,"url":null},{"name":"Oldenburg(Oldb) Sandkruger Str.","lat":53.103675,"lng":8.205904,"lines":null,"url":null},{"name":"Oldenburg(Oldb) Windmühlenweg","lat":53.105843,"lng":8.209389,"lines":null,"url":null},{"name":"Hundsmühlen Zur Huntebrücke","lat":53.106373,"lng":8.185721,"lines":null,"url":null},{"name":"Oldenburg(Oldb) Dr.-Behring-Str.","lat":53.106792,"lng":8.20726,"lines":null,"url":null},{"name":"Oldenburg(Oldb) Stralsunder Str.","lat":53.1089,"lng":8.223969,"lines":null,"url":null},{"name":"Oldenburg(Oldb), Giesenweg","lat":53.108927,"lng":8.213997,"lines":null,"url":null},{"name":"Klingenbergplatz-B,Oldenburg (Oldenbg)","lat":53.109429,"lng":8.209066,"lines":null,"url":null},{"name":"Oldenburg(Oldb) Brandenburger Str.","lat":53.109515,"lng":8.219064,"lines":null,"url":null},{"name":"Hundsmühlen Eichenallee","lat":53.109592,"lng":8.188521,"lines":null,"url":null},{"name":"Hundsmühlen Dietrich-Dannemann-Straße","lat":53.109662,"lng":8.18648,"lines":null,"url":null},{"name":"Oldenburg(Oldb) Achterdiek","lat":53.112459,"lng":8.190605,"lines":null,"url":null},{"name":"Klinikum Oldenburg-B,Oldenburg (Oldenbg)","lat":53.112486,"lng":8.218642,"lines":null,"url":null},{"name":"Dr.-Schüßler-Str./Klinikum,Oldenburg (Oldenbg)","lat":53.112842,"lng":8.211455,"lines":null,"url":null},{"name":"Oldenburg(Oldb) Kanalbrücke","lat":53.114719,"lng":8.192689,"lines":null,"url":null},{"name":"Oldenburg(Oldb) An den Voßbergen","lat":53.11529,"lng":8.21645,"lines":null,"url":null},{"name":"Oldenburg(Oldb) Ewigkeit","lat":53.115463,"lng":8.213216,"lines":null,"url":null},{"name":"Oldenburg(Oldb), Kanal","lat":53.115942,"lng":8.191189,"lines":null,"url":null},{"name":"Oldenburg(Oldb) Hogenkamp","lat":53.118848,"lng":8.191584,"lines":null,"url":null},{"name":"Oldenburg(Oldb), Sandkamp","lat":53.119253,"lng":8.218947,"lines":null,"url":null},{"name":"Oldenburg(Oldb) Buschhagenweg","lat":53.11977,"lng":8.216189,"lines":null,"url":null},{"name":"Oldenburg(Oldb), Krögerskamp","lat":53.121808,"lng":8.219827,"lines":null,"url":null},{"name":"P+R Landwehrstraße,Oldenburg (Oldenbg)","lat":53.123652,"lng":8.222055,"lines":null,"url":null},{"name":"Wilhelm-Busch-Straße,Oldenburg (Oldenbg)","lat":53.124008,"lng":8.198358,"lines":null,"url":null},{"name":"Oldenburg(Oldb), Sodenstich","lat":53.124245,"lng":8.192159,"lines":null,"url":null},{"name":"Oldenburg, A.v.Droste-HülshS","lat":53.124363,"lng":8.196363,"lines":null,"url":null},{"name":"Oldenburg(Oldb) Am Wallplacken","lat":53.124601,"lng":8.219558,"lines":null,"url":null},{"name":"Oldenburg(Oldb), Mohrstraße","lat":53.125285,"lng":8.220034,"lines":null,"url":null},{"name":"Adalbert-Stifter-Straße,Oldenburg (Oldenbg)","lat":53.125447,"lng":8.200082,"lines":null,"url":null},{"name":"Oldenburg(Oldb), Rudolf-Diesel-Str.","lat":53.125625,"lng":8.223699,"lines":null,"url":null},{"name":"Oldenburg(Oldb), Osternburger Kanal","lat":53.125636,"lng":8.215444,"lines":null,"url":null},{"name":"Von-Thünen-Straße-D,Oldenburg (Oldenbg)","lat":53.126072,"lng":8.195025,"lines":null,"url":null},{"name":"Oldenburg(Oldb) Eichendorffstr.","lat":53.126153,"lng":8.204089,"lines":null,"url":null},{"name":"Oldenburg(Oldb), Ohlenbuschweg","lat":53.127662,"lng":8.19003,"lines":null,"url":null},{"name":"P+R Westfalendamm/ OLantis,Oldenburg (Oldenbg)","lat":53.127662,"lng":8.210215,"lines":null,"url":null},{"name":"P+R Marschweg/ OLantis,Oldenburg (Oldenbg)","lat":53.128476,"lng":8.204664,"lines":null,"url":null},{"name":"Anton-Günther-Straße,Oldenburg (Oldenbg)","lat":53.128514,"lng":8.221319,"lines":null,"url":null},{"name":"Schützenhofstraße-D,Oldenburg (Oldenbg)","lat":53.128816,"lng":8.225469,"lines":null,"url":null},{"name":"Oldenburg(Oldb) Bachstraße","lat":53.130142,"lng":8.215578,"lines":null,"url":null},{"name":"Oldenburg(Oldb) Bodenburgallee","lat":53.130638,"lng":8.19127,"lines":null,"url":null},{"name":"Oldenburg(Oldb) Helene-Lange-Schule","lat":53.131204,"lng":8.204547,"lines":null,"url":null},{"name":"Bremer Straße-C,Oldenburg (Oldenbg)","lat":53.132211,"lng":8.223088,"lines":null,"url":null},{"name":"Oldenburg(Oldb) Waldorfschule","lat":53.132777,"lng":8.223681,"lines":null,"url":null},{"name":"Oldenburg(Oldb) Graf-Anton-Günther-Schule","lat":53.13282,"lng":8.218121,"lines":null,"url":null},{"name":"Oldenburg(Oldb) Feststraße","lat":53.133111,"lng":8.194414,"lines":null,"url":null},{"name":"Oldenburg(Oldb) Marktpl. Eversten","lat":53.133354,"lng":8.198555,"lines":null,"url":null},{"name":"Tannenkampstraße,Oldenburg (Oldenbg)","lat":53.133473,"lng":8.191234,"lines":null,"url":null},{"name":"Friedhof Eversten-B,Oldenburg (Oldenbg)","lat":53.133796,"lng":8.186958,"lines":null,"url":null},{"name":"Staatsarchiv,Oldenburg (Oldenbg)","lat":53.133818,"lng":8.219414,"lines":null,"url":null},{"name":"Meinardusstraße-B,Oldenburg (Oldenbg)","lat":53.13406,"lng":8.20593,"lines":null,"url":null},{"name":"Oldenburg(Oldb) Wiesenstraße","lat":53.134071,"lng":8.22528,"lines":null,"url":null},{"name":"Oldenburg(Oldb) Bismarckstr.","lat":53.135305,"lng":8.210422,"lines":null,"url":null},{"name":"Nordstraße-B,Oldenburg (Oldenbg)","lat":53.13545,"lng":8.227436,"lines":null,"url":null},{"name":"Oldenburg(Oldb) Am Festungsgraben","lat":53.135709,"lng":8.217806,"lines":null,"url":null},{"name":"Herbartstraße,Oldenburg (Oldenbg)","lat":53.137671,"lng":8.206353,"lines":null,"url":null},{"name":"Pulverturm-B,Oldenburg (Oldenbg)","lat":53.138032,"lng":8.212668,"lines":null,"url":null},{"name":"Tappenbeckstraße,Oldenburg (Oldenbg)","lat":53.138091,"lng":8.201313,"lines":null,"url":null},{"name":"Oldenburg(Oldb), Theater","lat":53.138344,"lng":8.209802,"lines":null,"url":null}],"gauges":[],"depth_map":null}},"country":"DE","last_updated":"2026-05-05T21:00:50.892Z","error":false}