{"id":14452,"slug":"norder-hager-tief-gewaesser-116","url":"https://www.hejfish.com/d/14452-norder-hager-tief-gewaesser-116","name":"Norder / Hager Tief (Gewässer 116)","description":"","water_size_ha":null,"fish":["AalBrasseFlussbarschHechtKarpfenRotaugeRotfederSchleieZander"],"techniques":["AnsitzangelnFeedern… mehr"],"properties":["kein Boot\nNachtfischen\nTechniken:\nAnsitzangelnFeedern… mehr"],"season":null,"water_type":"Entwässerungskanal","rules_text":"","mobile_ticket":false,"print_required":true,"tickets":[],"manager":null,"main_image":null,"location_info":["Niedersachsen","Kreis Aurich"],"lat":null,"lng":null,"geocode_source":null,"map_data":{"data":{"id":14452,"geojson":[],"locations":[{"lat":53.614444,"lng":7.310278},{"lat":53.606068,"lng":7.233724}],"stations":[{"name":"Hage Lagerweg","lat":53.596142,"lng":7.286296,"lines":null,"url":null},{"name":"Norden(Ostfriesl) Am Schlicktief","lat":53.597182,"lng":7.232067,"lines":null,"url":null},{"name":"Berumbur Müller","lat":53.59879,"lng":7.313275,"lines":null,"url":null},{"name":"Lütetsburg Am Südacker","lat":53.599147,"lng":7.2413,"lines":null,"url":null},{"name":"Lütetsburg Spittdiek","lat":53.600266,"lng":7.245403,"lines":null,"url":null},{"name":"Berumbur Siedlung","lat":53.600334,"lng":7.305154,"lines":null,"url":null},{"name":"Hage Am Sportplatz","lat":53.60041,"lng":7.287438,"lines":null,"url":null},{"name":"Lütetsburg Fasanenweg","lat":53.60066,"lng":7.251851,"lines":null,"url":null},{"name":"Hage Am Edenhof","lat":53.600785,"lng":7.290974,"lines":null,"url":null},{"name":"Lütetsburg L6/Schloss","lat":53.601116,"lng":7.262585,"lines":null,"url":null},{"name":"Berum Am Alten Amt","lat":53.602117,"lng":7.298484,"lines":null,"url":null},{"name":"Hage Kirche","lat":53.602567,"lng":7.28436,"lines":null,"url":null},{"name":"Berumbur Schwanenpfad","lat":53.602609,"lng":7.313651,"lines":null,"url":null},{"name":"Hage Breiter Weg","lat":53.602691,"lng":7.276059,"lines":null,"url":null},{"name":"Hage Hauptstraße/Kirche","lat":53.602817,"lng":7.283096,"lines":null,"url":null},{"name":"Hage Helenenstift","lat":53.60291,"lng":7.287442,"lines":null,"url":null},{"name":"Hage Eschentüner","lat":53.603385,"lng":7.28968,"lines":null,"url":null},{"name":"Blandorf Schwimmbad","lat":53.603969,"lng":7.318384,"lines":null,"url":null},{"name":"Hage KGS Hage","lat":53.604689,"lng":7.283294,"lines":null,"url":null},{"name":"Hage Mühlenweg","lat":53.604851,"lng":7.289329,"lines":null,"url":null},{"name":"Hage Fritz-Lottmann-Straße","lat":53.605183,"lng":7.286866,"lines":null,"url":null},{"name":"Hage Grundschule","lat":53.605729,"lng":7.283751,"lines":null,"url":null},{"name":"Blandorf L6/Kurzentrum","lat":53.605817,"lng":7.317007,"lines":null,"url":null},{"name":"Hage Alter Dieker","lat":53.606533,"lng":7.285271,"lines":null,"url":null},{"name":"Lütetsburg","lat":53.607168,"lng":7.263041,"lines":null,"url":null},{"name":"Hage Museumsbahn","lat":53.608059,"lng":7.28525,"lines":null,"url":null},{"name":"Hage Weidenweg","lat":53.60844,"lng":7.283478,"lines":null,"url":null},{"name":"Hage ZEPPELIN","lat":53.611433,"lng":7.288008,"lines":null,"url":null},{"name":"Hage Am Bootshafen","lat":53.612317,"lng":7.282111,"lines":null,"url":null},{"name":"Hage Nordseestraße","lat":53.613082,"lng":7.287129,"lines":null,"url":null},{"name":"Hage Zeppelinstraße","lat":53.613097,"lng":7.293694,"lines":null,"url":null},{"name":"Hagermarsch Meint-Ehlen-Weg","lat":53.623179,"lng":7.297804,"lines":null,"url":null}],"gauges":[],"depth_map":null}},"country":"DE","last_updated":"2026-05-05T21:02:03.858Z","error":false}