{"id":14451,"slug":"elisenhoftog-gewaesser-124","url":"https://www.hejfish.com/d/14451-elisenhoftog-gewaesser-124","name":"Elisenhoftog (Gewässer 124)","description":"","water_size_ha":null,"fish":["AalBrasseFlussbarschHechtKarpfenRotaugeRotfederSchleieZander"],"techniques":["AnsitzangelnFeedern… mehr"],"properties":["kein Boot\nNachtfischen\nTechniken:\nAnsitzangelnFeedern… mehr"],"season":null,"water_type":"Entwässerungskanal","rules_text":"","mobile_ticket":false,"print_required":true,"tickets":[],"manager":null,"main_image":null,"location_info":["Niedersachsen","Kreis Aurich"],"lat":null,"lng":null,"geocode_source":null,"map_data":{"data":{"id":14451,"geojson":[],"locations":[{"lat":53.625833,"lng":7.304444},{"lat":53.611944,"lng":7.296944}],"stations":[{"name":"Hage Nordseestraße","lat":53.613082,"lng":7.287129,"lines":null,"url":null},{"name":"Hage Helenenstift","lat":53.60291,"lng":7.287442,"lines":null,"url":null},{"name":"Hage ZEPPELIN","lat":53.611433,"lng":7.288008,"lines":null,"url":null},{"name":"Hage Mühlenweg","lat":53.604851,"lng":7.289329,"lines":null,"url":null},{"name":"Hage Eschentüner","lat":53.603385,"lng":7.28968,"lines":null,"url":null},{"name":"Hage Zeppelinstraße","lat":53.613097,"lng":7.293694,"lines":null,"url":null},{"name":"Hagermarsch Meint-Ehlen-Weg","lat":53.623179,"lng":7.297804,"lines":null,"url":null},{"name":"Berum Am Alten Amt","lat":53.602117,"lng":7.298484,"lines":null,"url":null},{"name":"Hagermarsch Grüner Weg","lat":53.62586,"lng":7.299428,"lines":null,"url":null},{"name":"Hagermarsch Alter Postweg/Dornumer Straße","lat":53.632318,"lng":7.303447,"lines":null,"url":null},{"name":"Berumbur Schwanenpfad","lat":53.602609,"lng":7.313651,"lines":null,"url":null}],"gauges":[],"depth_map":null}},"country":"DE","last_updated":"2026-05-05T21:02:00.007Z","error":false}