{"id":14476,"slug":"donau-kachletstau","url":"https://www.hejfish.com/d/14476-donau-kachletstau","name":"Donau (Kachletstau)","description":"","water_size_ha":null,"fish":["BrasseZährteWelsHechtZanderRotaugeAalRapfenBarbeFlussbarschDöbelQuappeSchuppenkarpfenSpiegelkarpfen"],"techniques":["AnsitzangelnNaturköderangeln… mehr"],"properties":["Boot\nNachtfischen\nÖffis\nTechniken:\nAnsitzangelnNaturköderangeln… mehr"],"season":null,"water_type":null,"rules_text":"","mobile_ticket":false,"print_required":false,"tickets":[],"manager":null,"main_image":null,"location_info":["Bayern","Kreis Passau"],"lat":null,"lng":null,"geocode_source":null,"map_data":{"data":{"id":14476,"geojson":[],"locations":[{"lat":48.598761,"lng":13.376067},{"lat":48.596405,"lng":13.374014},{"lat":48.5778,"lng":13.40466}],"stations":[{"name":"Schalding li d Do, Minihofstr.","lat":48.602386,"lng":13.364587,"lines":null,"url":null},{"name":"Schalding re d Do","lat":48.597057,"lng":13.364892,"lines":null,"url":null},{"name":"Schalding re d Do, Hochlandweg","lat":48.596095,"lng":13.368432,"lines":null,"url":null},{"name":"Rittsteig","lat":48.580295,"lng":13.368584,"lines":null,"url":null},{"name":"Reuth, Gionstraße","lat":48.581787,"lng":13.371504,"lines":null,"url":null},{"name":"Hof, Hoffeldweg","lat":48.59474,"lng":13.37154,"lines":null,"url":null},{"name":"Reuth, Dr.-Winklhofer-Str.","lat":48.584413,"lng":13.374675,"lines":null,"url":null},{"name":"Rittsteig, Rittsteiger Straße","lat":48.576575,"lng":13.375205,"lines":null,"url":null},{"name":"Gaißamühle","lat":48.603075,"lng":13.375304,"lines":null,"url":null},{"name":"Passau, Eichendorffstraße","lat":48.578898,"lng":13.375519,"lines":null,"url":null},{"name":"Passau, Anzengruberstr.","lat":48.57973,"lng":13.376606,"lines":null,"url":null},{"name":"Reuth, Hofmannsthalstraße","lat":48.583362,"lng":13.377334,"lines":null,"url":null},{"name":"Gaißa, Brücke","lat":48.598442,"lng":13.378035,"lines":null,"url":null},{"name":"Eichet, Stallerweg","lat":48.575582,"lng":13.378403,"lines":null,"url":null},{"name":"Oberöd, Oberöderweg","lat":48.586559,"lng":13.378547,"lines":null,"url":null},{"name":"Reuth, Reuthinger Weg","lat":48.592477,"lng":13.37931,"lines":null,"url":null},{"name":"Rittsteig, Lautensackstraße","lat":48.579873,"lng":13.380703,"lines":null,"url":null},{"name":"Eichet, Eichetstraße","lat":48.576432,"lng":13.381781,"lines":null,"url":null},{"name":"Passau, P.-R.-Mayer-Str.","lat":48.583391,"lng":13.382715,"lines":null,"url":null},{"name":"Walding","lat":48.603259,"lng":13.382984,"lines":null,"url":null},{"name":"Zieglstadl","lat":48.596166,"lng":13.38355,"lines":null,"url":null},{"name":"Heining, G.-Haydn-Straße","lat":48.58786,"lng":13.383622,"lines":null,"url":null},{"name":"Neustift, Martin-Seitz-Straße","lat":48.574566,"lng":13.383667,"lines":null,"url":null},{"name":"Neustift, B.-von-Behr-Str.","lat":48.572824,"lng":13.383928,"lines":null,"url":null},{"name":"Reisach, Reinhard-Raffalt-Str.","lat":48.579909,"lng":13.384215,"lines":null,"url":null},{"name":"Neustift, Senefelderstraße","lat":48.578209,"lng":13.384485,"lines":null,"url":null},{"name":"Neustift, Max-Matheis-Straße","lat":48.576105,"lng":13.38514,"lines":null,"url":null},{"name":"Neustift, Richterstraße","lat":48.57204,"lng":13.385913,"lines":null,"url":null},{"name":"Neustift, Schreinerbauerweg","lat":48.574762,"lng":13.386883,"lines":null,"url":null},{"name":"Reisach, Emerenz-Meier-Str.","lat":48.580509,"lng":13.387215,"lines":null,"url":null},{"name":"Heining, Gionstraße","lat":48.58966,"lng":13.387575,"lines":null,"url":null},{"name":"Hellersberg","lat":48.606271,"lng":13.38823,"lines":null,"url":null},{"name":"Eich","lat":48.584503,"lng":13.388841,"lines":null,"url":null},{"name":"Neustift, Kreuzbergstraße","lat":48.573692,"lng":13.388868,"lines":null,"url":null},{"name":"Passau, Paula-Deppe-Str.","lat":48.569739,"lng":13.390009,"lines":null,"url":null},{"name":"Neustift, Johann-Riederer-Str.","lat":48.570946,"lng":13.390135,"lines":null,"url":null},{"name":"Neustift, Altenheim","lat":48.570411,"lng":13.390818,"lines":null,"url":null},{"name":"Neustift, Herm.-Wösner-Straße","lat":48.57324,"lng":13.391177,"lines":null,"url":null},{"name":"Reuth, Carossastraße","lat":48.584271,"lng":13.391671,"lines":null,"url":null},{"name":"Passau, Ganghoferstraße","lat":48.582904,"lng":13.393486,"lines":null,"url":null},{"name":"Neustift, L10","lat":48.574078,"lng":13.393935,"lines":null,"url":null},{"name":"Neustift (Stadtbus)","lat":48.573496,"lng":13.393989,"lines":null,"url":null},{"name":"Neustift, Kirche","lat":48.572658,"lng":13.394061,"lines":null,"url":null},{"name":"Unteröd, Gartenstraße","lat":48.576551,"lng":13.394087,"lines":null,"url":null},{"name":"Eich, Raiffeisenstraße","lat":48.584473,"lng":13.394267,"lines":null,"url":null},{"name":"Donauhof","lat":48.591449,"lng":13.394402,"lines":null,"url":null},{"name":"Passau, Buchenstraße","lat":48.580753,"lng":13.394869,"lines":null,"url":null},{"name":"Heining, Bäckerei Husseneder","lat":48.584265,"lng":13.396908,"lines":null,"url":null},{"name":"Schellköpfing","lat":48.605618,"lng":13.399019,"lines":null,"url":null},{"name":"Wörth","lat":48.587848,"lng":13.39981,"lines":null,"url":null},{"name":"Thann (Passau)","lat":48.580681,"lng":13.399927,"lines":null,"url":null},{"name":"Passau, Holzmannstraße","lat":48.574429,"lng":13.403592,"lines":null,"url":null},{"name":"Englbolding","lat":48.605695,"lng":13.404948,"lines":null,"url":null},{"name":"Passau, Kachlet","lat":48.576967,"lng":13.405784,"lines":null,"url":null},{"name":"Hacklstein, Westendstraße","lat":48.57324,"lng":13.41032,"lines":null,"url":null},{"name":"Maierhof bei Passau","lat":48.581288,"lng":13.410805,"lines":null,"url":null},{"name":"Passau, Hacklstein","lat":48.575855,"lng":13.411182,"lines":null,"url":null},{"name":"Patriching, Fattinger Straße","lat":48.606206,"lng":13.412296,"lines":null,"url":null},{"name":"Hacklstein, Äußere Spitalhofstr.","lat":48.572408,"lng":13.412458,"lines":null,"url":null},{"name":"Maierhof, Kachletstraße","lat":48.578257,"lng":13.414353,"lines":null,"url":null}],"gauges":[{"id":61,"name":"Achleiten","lat":48.582047,"lng":13.503185},{"id":62,"name":"Passau Ilzstadt","lat":48.575198,"lng":13.478017},{"id":64,"name":"Passau Donau","lat":48.576133,"lng":13.459076},{"id":65,"name":"Kachlet Schleuse UP","lat":48.578228,"lng":13.41269}],"depth_map":null}},"country":"DE","last_updated":"2026-05-05T21:02:50.621Z","error":false}