{"id":14485,"slug":"talsperre-thuelsfelde","url":"https://www.hejfish.com/d/14485-talsperre-thuelsfelde","name":"Talsperre Thülsfelde","description":"","water_size_ha":null,"fish":["AalWelsHechtZanderFlussbarschKarpfenSchleieBrasseGüsterRotaugeRotfederAlandDöbelGiebel"],"techniques":["AnsitzangelnFeedern… mehr"],"properties":["kein Boot\nNachtfischen\nÖffisFangmeldung erforderlich\nTechniken:\nAnsitzangelnFeedern… mehr"],"season":null,"water_type":null,"rules_text":"","mobile_ticket":false,"print_required":false,"tickets":[],"manager":null,"main_image":null,"location_info":["Niedersachsen","Kreis Cloppenburg"],"lat":null,"lng":null,"geocode_source":null,"map_data":{"data":{"id":14485,"geojson":[],"locations":[{"lat":52.911882,"lng":7.947635},{"lat":52.932924,"lng":7.932116},{"lat":52.934105,"lng":7.923524},{"lat":52.932695,"lng":7.92126}],"stations":[{"name":"Petersfeld(Garrel) Waldesruh","lat":52.916498,"lng":7.949825,"lines":null,"url":null},{"name":"Petersfeld(Garrel) B72/Abzw.Talsperre","lat":52.917452,"lng":7.956527,"lines":null,"url":null},{"name":"Petersfeld(Garrel) Schmedes","lat":52.918439,"lng":7.956187,"lines":null,"url":null},{"name":"Petersfeld(Garrel) Jugendherberge","lat":52.920139,"lng":7.947983,"lines":null,"url":null},{"name":"Petersfeld(Garrel) ehem. Schule","lat":52.923162,"lng":7.952385,"lines":null,"url":null},{"name":"Petersfeld(Garrel) Am Peterwald","lat":52.932595,"lng":7.949094,"lines":null,"url":null},{"name":"Thülsfeld Hotel Seeblick","lat":52.934018,"lng":7.930951,"lines":null,"url":null},{"name":"Thüle(Friesoythe) Hotel Seeblick","lat":52.934461,"lng":7.931558,"lines":null,"url":null},{"name":"Thülsfelde Göken","lat":52.938052,"lng":7.929223,"lines":null,"url":null},{"name":"Thülsfelde Krzg. B72","lat":52.938646,"lng":7.942387,"lines":null,"url":null}],"gauges":[],"depth_map":null}},"country":"DE","last_updated":"2026-05-05T21:03:13.846Z","error":false}