{"id":14498,"slug":"main-stadtstrecke-wuerzburg","url":"https://www.hejfish.com/d/14498-main-stadtstrecke-wuerzburg","name":"Main - Stadtstrecke Würzburg","description":"","water_size_ha":null,"fish":["AalBachforelleBarbeFlussbarschHechtKarpfenNaseAlandRotaugeRotfederRapfenQuappeRegenbogenforelleSchleieWelsZanderBrasse"],"techniques":["AnsitzangelnFeedern… mehr"],"properties":["kein Boot\nKein Nachtfischen\nÖffisFangmeldung erforderlich\nTechniken:\nAnsitzangelnFeedern… mehr"],"season":null,"water_type":null,"rules_text":"","mobile_ticket":false,"print_required":false,"tickets":[],"manager":null,"main_image":null,"location_info":["Bayern","Würzburg"],"lat":null,"lng":null,"geocode_source":null,"map_data":{"data":{"id":14498,"geojson":[],"locations":[{"lat":49.709192926463,"lng":10.019398932537},{"lat":49.822444,"lng":9.872335}],"stations":[{"name":"Sommerhausen Gh Schwanen","lat":49.701886,"lng":10.025558,"lines":null,"url":null},{"name":"Uengershausen Birkenweg","lat":49.702578,"lng":9.906953,"lines":null,"url":null},{"name":"Uengershausen Am Feller","lat":49.705407,"lng":9.905408,"lines":null,"url":null},{"name":"Sommerhausen Kirchplatz","lat":49.705779,"lng":10.024228,"lines":null,"url":null},{"name":"Winterhausen Alte Schule","lat":49.706697,"lng":10.015757,"lines":null,"url":null},{"name":"Sommerhausen Abzw. Erlach","lat":49.708004,"lng":10.023375,"lines":null,"url":null},{"name":"Winterhausen Bahnhof","lat":49.70844,"lng":10.012074,"lines":null,"url":null},{"name":"Würzburg Ernst-Winter-Weg","lat":49.710978,"lng":9.963224,"lines":null,"url":null},{"name":"Lindflur Dorfweiher","lat":49.711118,"lng":9.929465,"lines":null,"url":null},{"name":"Lindflur Friedhofstraße","lat":49.711263,"lng":9.927884,"lines":null,"url":null},{"name":"Lindflur Chausseehaus","lat":49.71415,"lng":9.937119,"lines":null,"url":null},{"name":"Lindflur/B19","lat":49.714684,"lng":9.941862,"lines":null,"url":null},{"name":"Uengershausen Erlengrund","lat":49.714887,"lng":9.915631,"lines":null,"url":null},{"name":"Reichenberg Abzweig Lindflur","lat":49.715184,"lng":9.914912,"lines":null,"url":null},{"name":"Würzburg Schulstraße","lat":49.719331,"lng":9.964104,"lines":null,"url":null},{"name":"Würzburg Abzweig Rottenbauer","lat":49.719958,"lng":9.958903,"lines":null,"url":null},{"name":"Würzburg Rottenbauer","lat":49.721962,"lng":9.965209,"lines":null,"url":null},{"name":"Würzburg Akaziensteige","lat":49.723146,"lng":9.964733,"lines":null,"url":null},{"name":"Eibelstadt Marktplatz","lat":49.723611,"lng":10.001339,"lines":null,"url":null},{"name":"Würzburg Brombergweg","lat":49.723901,"lng":9.967302,"lines":null,"url":null},{"name":"Eibelstadt Kreuzkapelle","lat":49.724168,"lng":10.005867,"lines":null,"url":null},{"name":"Eibelstadt Industrie-Siedlung","lat":49.728088,"lng":9.996533,"lines":null,"url":null},{"name":"Reichenberg Kriegerdenkmal","lat":49.729046,"lng":9.915406,"lines":null,"url":null},{"name":"Reichenberg Burkardinerstraße","lat":49.730057,"lng":9.909675,"lines":null,"url":null},{"name":"Eibelstadt Mainpark","lat":49.730353,"lng":9.99179,"lines":null,"url":null},{"name":"Reichenberg (Unterfr)","lat":49.731131,"lng":9.912891,"lines":null,"url":null},{"name":"Wü Max-Mengeringhausen-Straße","lat":49.731241,"lng":9.966089,"lines":null,"url":null},{"name":"Reichenberg, Bahnhaltepunkt","lat":49.731282,"lng":9.911463,"lines":null,"url":null},{"name":"Reichenberg Dorflinde","lat":49.731874,"lng":9.916062,"lines":null,"url":null},{"name":"Reichenberg, Unterer Weinberg","lat":49.732257,"lng":9.913556,"lines":null,"url":null},{"name":"Wü Betriebshof Heuchelhof","lat":49.733633,"lng":9.96582,"lines":null,"url":null},{"name":"Reichenberg Höchberghang","lat":49.733848,"lng":9.905947,"lines":null,"url":null},{"name":"Reichenberg Guttenbg. Grund","lat":49.734777,"lng":9.904142,"lines":null,"url":null},{"name":"Reichenberg Forsth. Guttenberg","lat":49.735178,"lng":9.877713,"lines":null,"url":null},{"name":"Würzburg Betriebshof NVG","lat":49.735439,"lng":9.9675,"lines":null,"url":null},{"name":"Würzburg Athener Ring","lat":49.736925,"lng":9.957519,"lines":null,"url":null},{"name":"Wü Gehörgeschädigtenzentrum","lat":49.738696,"lng":9.956406,"lines":null,"url":null},{"name":"Würzburg Madrider Ring","lat":49.738806,"lng":9.960493,"lines":null,"url":null},{"name":"Würzburg Wiener Ring","lat":49.741854,"lng":9.961014,"lines":null,"url":null},{"name":"Würzburg Sommerrain","lat":49.744588,"lng":9.930875,"lines":null,"url":null},{"name":"Wü Heuchh./Hauptsch. Berner St","lat":49.745633,"lng":9.955525,"lines":null,"url":null},{"name":"Würzburg Straßburger Ring","lat":49.746301,"lng":9.957861,"lines":null,"url":null},{"name":"Randersacker SZ Sonnenstuhl","lat":49.746301,"lng":9.990524,"lines":null,"url":null},{"name":"Würzburg Giebelstadter Steige","lat":49.74698,"lng":9.937065,"lines":null,"url":null},{"name":"Würzburg Seibertsklinge","lat":49.747369,"lng":9.934442,"lines":null,"url":null},{"name":"Würzburg Berner Straße","lat":49.747398,"lng":9.954501,"lines":null,"url":null},{"name":"Würzburg Schellengraben","lat":49.750904,"lng":9.944494,"lines":null,"url":null},{"name":"Würzburg Reichenberger Grund","lat":49.751235,"lng":9.942895,"lines":null,"url":null},{"name":"Randersacker Abzw. Theilheim","lat":49.752993,"lng":9.987209,"lines":null,"url":null},{"name":"Randersacker Kreisverkehr","lat":49.753359,"lng":9.986311,"lines":null,"url":null},{"name":"Theilheim Tannenweg","lat":49.753568,"lng":10.021686,"lines":null,"url":null},{"name":"Theilheim Reisgrube","lat":49.753812,"lng":10.028433,"lines":null,"url":null},{"name":"Theilheim Altenbergstraße","lat":49.754299,"lng":10.025944,"lines":null,"url":null},{"name":"Würzburg Oberer Geisbergweg","lat":49.754914,"lng":9.967724,"lines":null,"url":null},{"name":"Randersacker Bußbrunn","lat":49.755158,"lng":9.989185,"lines":null,"url":null},{"name":"Würzburg Winterhäuser Straße","lat":49.756388,"lng":9.973393,"lines":null,"url":null},{"name":"Würzburg Langenbachweg","lat":49.75651,"lng":9.942643,"lines":null,"url":null},{"name":"Würzburg Wellhöferweg","lat":49.757654,"lng":9.946192,"lines":null,"url":null},{"name":"Würzburg Unterer Katzenbergweg","lat":49.758187,"lng":9.949498,"lines":null,"url":null},{"name":"Würzburg Kneipp-Werk","lat":49.758356,"lng":9.970087,"lines":null,"url":null},{"name":"Würzburg Sterntalerweg","lat":49.758414,"lng":9.935322,"lines":null,"url":null},{"name":"Würzburg Matthias-Noell-Weg","lat":49.759122,"lng":9.968254,"lines":null,"url":null},{"name":"Randersacker Maingasse","lat":49.759139,"lng":9.979609,"lines":null,"url":null},{"name":"Würzburg Bremenweg","lat":49.759151,"lng":9.95504,"lines":null,"url":null},{"name":"Würzburg Rotkäppchenweg","lat":49.759261,"lng":9.939571,"lines":null,"url":null},{"name":"Würzburg Unterer Kirchbergweg","lat":49.759313,"lng":9.960484,"lines":null,"url":null},{"name":"Würzburg Heriedenweg","lat":49.759563,"lng":9.943093,"lines":null,"url":null},{"name":"Würzburg Blosenbergpfad","lat":49.759737,"lng":9.931127,"lines":null,"url":null},{"name":"Würzburg Kaulstraße","lat":49.760393,"lng":9.958544,"lines":null,"url":null},{"name":"Randersacker Mönchshof","lat":49.760416,"lng":9.985206,"lines":null,"url":null},{"name":"Würzburg Steigerfurtweg","lat":49.760787,"lng":9.949695,"lines":null,"url":null},{"name":"Würzburg Eisenbahnstraße","lat":49.760857,"lng":9.95283,"lines":null,"url":null},{"name":"Würzburg Taschenäckerweg","lat":49.761199,"lng":9.961562,"lines":null,"url":null},{"name":"Würzburg Sandgrubenweg","lat":49.76128,"lng":9.949363,"lines":null,"url":null},{"name":"Würzburg Am Hungrigen Bühl","lat":49.761379,"lng":9.933714,"lines":null,"url":null},{"name":"Würzburg Holzweg","lat":49.761414,"lng":9.940766,"lines":null,"url":null},{"name":"Würzburg Ostbahnhof","lat":49.761507,"lng":9.952983,"lines":null,"url":null},{"name":"Würzburg Heigelsbach","lat":49.761663,"lng":9.94603,"lines":null,"url":null},{"name":"Würzburg Waldfriedhof/Süd","lat":49.761681,"lng":9.917904,"lines":null,"url":null},{"name":"Würzburg Toräckerweg","lat":49.761954,"lng":9.957214,"lines":null,"url":null},{"name":"Würzburg Karl-Straub-Straße","lat":49.762023,"lng":9.937056,"lines":null,"url":null},{"name":"Würzburg Allendorfweg","lat":49.762087,"lng":9.939625,"lines":null,"url":null},{"name":"Würzburg Klingenstraße","lat":49.76229,"lng":9.944557,"lines":null,"url":null},{"name":"Randersacker Am Wasserhaus","lat":49.762545,"lng":9.989706,"lines":null,"url":null},{"name":"Würzburg Hofmannstraße","lat":49.762899,"lng":9.944611,"lines":null,"url":null},{"name":"Würzburg Walther-Schule","lat":49.76301,"lng":9.953738,"lines":null,"url":null},{"name":"Würzburg Nikolaus-Fey-Straße","lat":49.76312,"lng":9.932735,"lines":null,"url":null},{"name":"Würzburg Leitengraben","lat":49.763532,"lng":9.935205,"lines":null,"url":null},{"name":"Würzburg Wendelweg","lat":49.763839,"lng":9.941781,"lines":null,"url":null},{"name":"Würzburg Klosterstraße","lat":49.764269,"lng":9.949839,"lines":null,"url":null},{"name":"Randersacker Teufelskeller","lat":49.764344,"lng":9.967877,"lines":null,"url":null},{"name":"Würzburg Waldfriedhof/Nord","lat":49.76446,"lng":9.920446,"lines":null,"url":null},{"name":"Würzburg Drei Pappeln","lat":49.76587,"lng":9.921425,"lines":null,"url":null},{"name":"Würzburg Reuterstraße","lat":49.766091,"lng":9.946722,"lines":null,"url":null},{"name":"Würzburg Alandsgrund","lat":49.766659,"lng":9.959352,"lines":null,"url":null},{"name":"Würzburg Resenweg","lat":49.766921,"lng":9.938538,"lines":null,"url":null},{"name":"Würzburg Am Wald","lat":49.76735,"lng":9.923563,"lines":null,"url":null},{"name":"Wü Andreas-Grieser-Straße","lat":49.76746,"lng":9.941314,"lines":null,"url":null},{"name":"Randersacker Gerbrunner Str.","lat":49.767808,"lng":9.992626,"lines":null,"url":null},{"name":"Würzburg Wiesenweg","lat":49.767982,"lng":9.94038,"lines":null,"url":null},{"name":"Würzburg Hinterer Steinbach","lat":49.768383,"lng":9.896695,"lines":null,"url":null},{"name":"Würzburg Naturheilverein","lat":49.768417,"lng":9.95301,"lines":null,"url":null},{"name":"Würzburg Dallenbergbad","lat":49.769009,"lng":9.937415,"lines":null,"url":null},{"name":"Würzburg Rothweg","lat":49.769294,"lng":9.921497,"lines":null,"url":null},{"name":"Höchberg Leibnizstraße","lat":49.769642,"lng":9.865334,"lines":null,"url":null},{"name":"Würzburg Klara-Löwe-Straße","lat":49.770065,"lng":9.922845,"lines":null,"url":null},{"name":"Würzburg Waldhaus","lat":49.770802,"lng":9.914095,"lines":null,"url":null},{"name":"Würzburg Hans-Löffler-Straße","lat":49.771034,"lng":9.957636,"lines":null,"url":null},{"name":"Würzburg Bergpfad","lat":49.771034,"lng":9.918083,"lines":null,"url":null},{"name":"Würzburg Annaschlucht","lat":49.771226,"lng":9.907151,"lines":null,"url":null},{"name":"Würzburg Waldesruh","lat":49.771266,"lng":9.901986,"lines":null,"url":null},{"name":"Randersacker Carl-Vornbg.-Str.","lat":49.771313,"lng":9.994431,"lines":null,"url":null},{"name":"Würzburg Heiner-Dikreiter-Weg","lat":49.771492,"lng":9.943407,"lines":null,"url":null},{"name":"Würzburg Oberer Dallenbergweg","lat":49.771823,"lng":9.92421,"lines":null,"url":null},{"name":"Höchberg Kister Straße","lat":49.772136,"lng":9.868829,"lines":null,"url":null},{"name":"Würzburg Hubertusweg","lat":49.773262,"lng":9.92271,"lines":null,"url":null},{"name":"Würzburg Kantstraße","lat":49.773471,"lng":9.943632,"lines":null,"url":null},{"name":"Würzburg Stettiner Straße","lat":49.773662,"lng":9.939805,"lines":null,"url":null},{"name":"Würzburg Königsberger Straße","lat":49.774271,"lng":9.93879,"lines":null,"url":null},{"name":"Würzburg Oberer Steinbachweg","lat":49.774643,"lng":9.914526,"lines":null,"url":null},{"name":"Würzburg Steinbachtal","lat":49.77473,"lng":9.928549,"lines":null,"url":null},{"name":"Würzburg Zollhaus Steinbachtal","lat":49.774811,"lng":9.927839,"lines":null,"url":null},{"name":"Würzburg, Volkssternwarte","lat":49.774851,"lng":9.957259,"lines":null,"url":null},{"name":"Würzburg St.-Alfons-Kirche","lat":49.775084,"lng":9.95407,"lines":null,"url":null},{"name":"Würzburg Hoher Weg","lat":49.77513,"lng":9.909487,"lines":null,"url":null},{"name":"Würzburg Ablösung Fechenbachst","lat":49.775484,"lng":9.939095,"lines":null,"url":null},{"name":"Würzburg Finkenweg","lat":49.775727,"lng":9.901519,"lines":null,"url":null},{"name":"Würzburg Betriebshof Sanderau","lat":49.776197,"lng":9.937837,"lines":null,"url":null},{"name":"Höchberg Heidelberger Straße","lat":49.776221,"lng":9.872081,"lines":null,"url":null},{"name":"Würzburg Fechenbachstraße","lat":49.776453,"lng":9.938619,"lines":null,"url":null},{"name":"Höchberg Grundweg","lat":49.776522,"lng":9.86873,"lines":null,"url":null},{"name":"Würzburg Conradistraße","lat":49.776644,"lng":9.940335,"lines":null,"url":null},{"name":"Gerbrunn Am Happach","lat":49.777653,"lng":9.988619,"lines":null,"url":null},{"name":"Gerbrunn Gieshügeler Straße","lat":49.777781,"lng":9.992733,"lines":null,"url":null},{"name":"Wü FHWS (Sanderh.leitenweg)","lat":49.777943,"lng":9.962784,"lines":null,"url":null},{"name":"Gerbrunn Rathaus","lat":49.778042,"lng":9.983939,"lines":null,"url":null},{"name":"Würzburg Sanderrothstraße","lat":49.778083,"lng":9.953899,"lines":null,"url":null},{"name":"Würzburg Ebertsklinge","lat":49.778187,"lng":9.944036,"lines":null,"url":null},{"name":"Würzburg Adamibad","lat":49.778448,"lng":9.955202,"lines":null,"url":null},{"name":"Würzburg, Universität Sportzentrum","lat":49.778582,"lng":9.966682,"lines":null,"url":null},{"name":"Höchberg Bergstraße","lat":49.778761,"lng":9.874156,"lines":null,"url":null},{"name":"Würzburg Am Klößberg","lat":49.778877,"lng":9.91007,"lines":null,"url":null},{"name":"Gerbrunn Friedhof","lat":49.779069,"lng":9.994216,"lines":null,"url":null},{"name":"Würzburg Judenbühlweg","lat":49.779185,"lng":9.926501,"lines":null,"url":null},{"name":"Würzburg Arndtstraße","lat":49.779713,"lng":9.93631,"lines":null,"url":null},{"name":"Gerbrunn Schule","lat":49.779904,"lng":9.984972,"lines":null,"url":null},{"name":"Würzburg Schellingstraße","lat":49.780194,"lng":9.945967,"lines":null,"url":null},{"name":"Würzburg Äußeres Hubland","lat":49.780455,"lng":9.965604,"lines":null,"url":null},{"name":"Gerbrunn Sandbühl","lat":49.780467,"lng":9.979447,"lines":null,"url":null},{"name":"Höchberg Gasthaus Lamm","lat":49.780507,"lng":9.876914,"lines":null,"url":null},{"name":"Würzburg Lange Bögen","lat":49.780826,"lng":9.944835,"lines":null,"url":null},{"name":"Gerbrunn Paul-Ehrlich-Straße","lat":49.781389,"lng":9.986993,"lines":null,"url":null},{"name":"Höchberg Neuer Friedhof","lat":49.781424,"lng":9.86679,"lines":null,"url":null},{"name":"Würzburg Ehehaltenhaus","lat":49.781609,"lng":9.935475,"lines":null,"url":null},{"name":"Würzburg Frankenwarte","lat":49.781731,"lng":9.906648,"lines":null,"url":null},{"name":"Würzburg Miravilla","lat":49.781766,"lng":9.960286,"lines":null,"url":null},{"name":"Würzburg Käppele","lat":49.782097,"lng":9.921749,"lines":null,"url":null},{"name":"Würzburg Albert-Günther-Weg","lat":49.782184,"lng":9.913852,"lines":null,"url":null},{"name":"Würzburg Universitätszentrum","lat":49.782242,"lng":9.967661,"lines":null,"url":null},{"name":"Würzburg Hubland/Mensa","lat":49.782491,"lng":9.966943,"lines":null,"url":null},{"name":"Würzburg König-Ludwig-Haus","lat":49.782735,"lng":9.947431,"lines":null,"url":null},{"name":"Würzburg Trautenauer Straße","lat":49.782741,"lng":9.957304,"lines":null,"url":null},{"name":"Würzburg Mathematisches Instit","lat":49.782816,"lng":9.975117,"lines":null,"url":null},{"name":"Würzburg Ruderzentrum","lat":49.783031,"lng":9.925324,"lines":null,"url":null},{"name":"Gerbrunn Renzig","lat":49.783094,"lng":9.990182,"lines":null,"url":null},{"name":"Gerbrunn Otto-Hahn-Straße","lat":49.783286,"lng":9.987011,"lines":null,"url":null},{"name":"Höchberg Drosselweg","lat":49.783292,"lng":9.869305,"lines":null,"url":null},{"name":"Höchberg Sparkasse","lat":49.783297,"lng":9.87977,"lines":null,"url":null},{"name":"Würzburg Neues Hörsaalgebäude","lat":49.783332,"lng":9.967266,"lines":null,"url":null},{"name":"Würzburg Fichtestraße","lat":49.783558,"lng":9.942212,"lines":null,"url":null},{"name":"Würzburg Silcherstraße","lat":49.783918,"lng":9.953863,"lines":null,"url":null},{"name":"Würzburg Eichendorffstraße","lat":49.784011,"lng":9.933642,"lines":null,"url":null},{"name":"Würzburg Gegenbaurstraße","lat":49.784075,"lng":9.950818,"lines":null,"url":null},{"name":"Gerbrunn Casteller Platz","lat":49.784179,"lng":9.986805,"lines":null,"url":null},{"name":"Würzburg Erthalstraße","lat":49.784202,"lng":9.94656,"lines":null,"url":null},{"name":"Höchberg Waldsportplatz","lat":49.784382,"lng":9.869718,"lines":null,"url":null},{"name":"Würzburg Adalberokirche","lat":49.784394,"lng":9.936984,"lines":null,"url":null},{"name":"Würzburg Am Hubland","lat":49.784568,"lng":9.969889,"lines":null,"url":null},{"name":"Würzburg Obere Landwehr","lat":49.784643,"lng":9.903962,"lines":null,"url":null},{"name":"Höchberg Karwinkel","lat":49.784672,"lng":9.881854,"lines":null,"url":null},{"name":"Höchberg Am Unteren Steg","lat":49.78484,"lng":9.886903,"lines":null,"url":null},{"name":"Würzburg Emil-Fischer-Straße","lat":49.784887,"lng":9.973024,"lines":null,"url":null},{"name":"Gerbrunn Elsa-Brandström-Str.","lat":49.784974,"lng":9.983274,"lines":null,"url":null},{"name":"Würzburg Zeppelinstraße","lat":49.78509,"lng":9.948959,"lines":null,"url":null},{"name":"Höch Äußerer Winterleitenweg","lat":49.785246,"lng":9.892086,"lines":null,"url":null},{"name":"Höchberg Münchener Straße","lat":49.785246,"lng":9.887226,"lines":null,"url":null},{"name":"Würzburg Kniebreche","lat":49.785409,"lng":9.910367,"lines":null,"url":null},{"name":"Wü Philosophisches Institut","lat":49.785652,"lng":9.966404,"lines":null,"url":null},{"name":"Würzburg Studentenhaus","lat":49.785681,"lng":9.934873,"lines":null,"url":null},{"name":"Würzburg Schlörstraße","lat":49.785832,"lng":9.946048,"lines":null,"url":null},{"name":"Würzburg Sanderglacisstraße","lat":49.786006,"lng":9.932007,"lines":null,"url":null},{"name":"Höchberg Alter Kalkbruch","lat":49.786122,"lng":9.893425,"lines":null,"url":null},{"name":"Würzburg Oswald-Külpe-Weg","lat":49.786209,"lng":9.97686,"lines":null,"url":null},{"name":"Würzburg Kleßbergsteige","lat":49.786215,"lng":9.916431,"lines":null,"url":null},{"name":"Würzburg Löwenbrücke","lat":49.786221,"lng":9.925,"lines":null,"url":null},{"name":"Würzburg Franz-Liszt-Straße","lat":49.786476,"lng":9.957951,"lines":null,"url":null},{"name":"Höchberg Fasanenstraße","lat":49.786545,"lng":9.87597,"lines":null,"url":null},{"name":"Würzburg Sanderring","lat":49.78658,"lng":9.931792,"lines":null,"url":null},{"name":"Würzburg Frauenlandplatz","lat":49.786638,"lng":9.947449,"lines":null,"url":null},{"name":"Gerbrunn Am Kirschberg","lat":49.786789,"lng":9.986023,"lines":null,"url":null},{"name":"Würzburg Mainleitenweg","lat":49.786801,"lng":9.920841,"lines":null,"url":null},{"name":"Würzburg Magdalene-Schoch-Str.","lat":49.786841,"lng":9.968461,"lines":null,"url":null},{"name":"Höchberg Aschaffenburger Str.","lat":49.786864,"lng":9.877219,"lines":null,"url":null},{"name":"Würzburg Zwerchgraben","lat":49.786934,"lng":9.953477,"lines":null,"url":null},{"name":"Würzburg Nikolausstraße","lat":49.786946,"lng":9.924228,"lines":null,"url":null},{"name":"Würzburg Bibliothekszentrum","lat":49.786998,"lng":9.974713,"lines":null,"url":null},{"name":"Würzburg Skyline Hill Center","lat":49.787038,"lng":9.979816,"lines":null,"url":null},{"name":"Rottendorf Anemonenstraße","lat":49.787038,"lng":10.024794,"lines":null,"url":null},{"name":"Würzburg Sprachenzentrum","lat":49.787247,"lng":9.971749,"lines":null,"url":null},{"name":"Würzburg, Südbahnhof/LVA","lat":49.787328,"lng":9.941817,"lines":null,"url":null},{"name":"Würzburg Wittelsbacherplatz","lat":49.787491,"lng":9.951815,"lines":null,"url":null},{"name":"Würzburg Leistenstraße","lat":49.787653,"lng":9.924731,"lines":null,"url":null},{"name":"Würzburg Weg zur Neuen Welt","lat":49.787659,"lng":9.918074,"lines":null,"url":null},{"name":"Würzburg Stadtgrenze/Höchberg","lat":49.787694,"lng":9.898141,"lines":null,"url":null},{"name":"Höchberg Realschule","lat":49.787723,"lng":9.882304,"lines":null,"url":null},{"name":"Würzburg Albert-Hoffa-Straße","lat":49.787729,"lng":9.962981,"lines":null,"url":null},{"name":"Würzburg Neue Universität","lat":49.787734,"lng":9.935376,"lines":null,"url":null},{"name":"Würzburg Winterleitenweg","lat":49.78803,"lng":9.911975,"lines":null,"url":null},{"name":"Würzburg Schöllhammerweg","lat":49.788117,"lng":9.902686,"lines":null,"url":null},{"name":"Höchberg Waldstraße","lat":49.788169,"lng":9.881657,"lines":null,"url":null},{"name":"Würzburg Süd","lat":49.788193,"lng":9.943506,"lines":null,"url":null},{"name":"Würzburg Seinsheimstraße","lat":49.78828,"lng":9.948617,"lines":null,"url":null},{"name":"Höchberg Seeweg","lat":49.788743,"lng":9.884981,"lines":null,"url":null},{"name":"Gerbrunn Alte Landstraße","lat":49.788749,"lng":9.992689,"lines":null,"url":null},{"name":"Würzburg Ottostraße","lat":49.788761,"lng":9.93658,"lines":null,"url":null},{"name":"Höchberg Norbertstraße","lat":49.789028,"lng":9.888008,"lines":null,"url":null},{"name":"Würzburg Nopitschstraße","lat":49.789439,"lng":9.960843,"lines":null,"url":null},{"name":"Würzburg Belvedere","lat":49.78948,"lng":9.980418,"lines":null,"url":null},{"name":"Würzburg Hexenbruchweg","lat":49.789845,"lng":9.902839,"lines":null,"url":null},{"name":"Würzburg Alte Fernstraße","lat":49.790077,"lng":9.971596,"lines":null,"url":null},{"name":"Würzburg Oberer Burgweg","lat":49.790217,"lng":9.909891,"lines":null,"url":null},{"name":"Würzburg E.Hst. Wirsbergstraße","lat":49.790275,"lng":9.928737,"lines":null,"url":null},{"name":"Würzburg Wittelsbacherstraße","lat":49.790292,"lng":9.95292,"lines":null,"url":null},{"name":"Würzburg Neubaustraße","lat":49.790304,"lng":9.929124,"lines":null,"url":null},{"name":"Höchberg Forstäcker","lat":49.790327,"lng":9.883678,"lines":null,"url":null},{"name":"Würzburg Am Terrassenpark","lat":49.790333,"lng":9.967473,"lines":null,"url":null},{"name":"Würzburg Höchberger Tor","lat":49.790338,"lng":9.915478,"lines":null,"url":null},{"name":"Würzburg Elferweg","lat":49.790356,"lng":9.976627,"lines":null,"url":null},{"name":"Höchberg Hexenbruch","lat":49.790425,"lng":9.889158,"lines":null,"url":null},{"name":"Rottendorf Turnhalle","lat":49.790431,"lng":10.027058,"lines":null,"url":null},{"name":"Würzburg Schönborntor","lat":49.790437,"lng":9.91856,"lines":null,"url":null},{"name":"Rottendorf Vorderer Talweg","lat":49.790489,"lng":10.022674,"lines":null,"url":null},{"name":"Würzburg, Valentin-Becker-Str.","lat":49.790588,"lng":9.944754,"lines":null,"url":null},{"name":"Würzburg Mobilstation","lat":49.790686,"lng":9.972521,"lines":null,"url":null},{"name":"Rottendorf Frankenstraße","lat":49.790814,"lng":10.020087,"lines":null,"url":null},{"name":"Würzburg Rottendorfer Tor","lat":49.791075,"lng":9.962388,"lines":null,"url":null},{"name":"Würzburg Zollhaus Galgenberg","lat":49.791237,"lng":9.957888,"lines":null,"url":null},{"name":"Würzburg Letzter Hieb","lat":49.791324,"lng":9.953351,"lines":null,"url":null},{"name":"Würzburg Am Kugelfang","lat":49.791539,"lng":9.958544,"lines":null,"url":null},{"name":"Rottendorf Wöllriederhof","lat":49.791608,"lng":10.003944,"lines":null,"url":null},{"name":"Würzburg Greisingstraße","lat":49.791643,"lng":9.949578,"lines":null,"url":null},{"name":"Wü Gertrud-von-le-Fort-Straße","lat":49.792055,"lng":9.965784,"lines":null,"url":null},{"name":"Rottendorf Bahnhofstraße","lat":49.792078,"lng":10.028441,"lines":null,"url":null},{"name":"Rottendorf Dorfplatz","lat":49.792159,"lng":10.026052,"lines":null,"url":null},{"name":"Rottendorf","lat":49.792188,"lng":10.029079,"lines":null,"url":null},{"name":"Würzburg Annastraße","lat":49.792241,"lng":9.946102,"lines":null,"url":null},{"name":"Würzburg Alte Mainbrücke","lat":49.792426,"lng":9.924596,"lines":null,"url":null},{"name":"Würzburg Zweierweg","lat":49.792762,"lng":9.963089,"lines":null,"url":null},{"name":"Ersatzhaltestelle Luisengarten","lat":49.792902,"lng":9.943407,"lines":null,"url":null},{"name":"Würzburg E.-Hst. Alte Mainbrüc","lat":49.793006,"lng":9.927147,"lines":null,"url":null},{"name":"Würzburg Rennweg","lat":49.793081,"lng":9.942033,"lines":null,"url":null},{"name":"Würzburg Residenzplatz","lat":49.793081,"lng":9.936598,"lines":null,"url":null},{"name":"Würzburg Rathaus","lat":49.793099,"lng":9.928558,"lines":null,"url":null},{"name":"Würzburg Mönchberg-Schule","lat":49.793377,"lng":9.958067,"lines":null,"url":null},{"name":"Wü Missionsärztliches Institut","lat":49.793696,"lng":9.95257,"lines":null,"url":null},{"name":"Würzburg Louis-Pasteur-Straße","lat":49.793725,"lng":10.002238,"lines":null,"url":null},{"name":"Würzburg Gattingerstraße Ost","lat":49.794032,"lng":9.991584,"lines":null,"url":null},{"name":"Würzburg Dom","lat":49.79405,"lng":9.930974,"lines":null,"url":null},{"name":"Würzburg Deutschhaus Gymnasium","lat":49.794183,"lng":9.919997,"lines":null,"url":null},{"name":"Würzburg Hartmannstraße","lat":49.794253,"lng":9.910861,"lines":null,"url":null},{"name":"Würzburg Richard-Wagner-Straße","lat":49.794259,"lng":9.957672,"lines":null,"url":null},{"name":"Würzburg Sieboldmuseum","lat":49.794322,"lng":9.896937,"lines":null,"url":null},{"name":"Würzburg DJK-Sportzentrum","lat":49.794328,"lng":9.903863,"lines":null,"url":null},{"name":"Würzburg Wörthstraße","lat":49.79434,"lng":9.916449,"lines":null,"url":null},{"name":"Parkpl. Dehner","lat":49.794421,"lng":9.896147,"lines":null,"url":null},{"name":"Würzburg  Waltherstraße","lat":49.794473,"lng":9.951321,"lines":null,"url":null},{"name":"Würzburg Wredestraße","lat":49.794514,"lng":9.912334,"lines":null,"url":null},{"name":"Würzburg Johanniskirche","lat":49.794607,"lng":9.941646,"lines":null,"url":null},{"name":"Würzburg  Max-Planck-Straße","lat":49.79474,"lng":9.901159,"lines":null,"url":null},{"name":"Würzburg Mainfranken Theater","lat":49.794798,"lng":9.93605,"lines":null,"url":null},{"name":"Würzburg Bürgerbräu","lat":49.794949,"lng":9.892517,"lines":null,"url":null},{"name":"Würzburg Heimgarten","lat":49.795279,"lng":9.960412,"lines":null,"url":null},{"name":"Würzburg Spiegelstraße","lat":49.795355,"lng":9.933759,"lines":null,"url":null},{"name":"Würzburg Gattingerstraße Mitte","lat":49.795569,"lng":9.987739,"lines":null,"url":null},{"name":"Würzburg Wöllrieder Höhe","lat":49.795581,"lng":10.000612,"lines":null,"url":null},{"name":"Würzburg Heimgartenweg","lat":49.795842,"lng":9.962694,"lines":null,"url":null},{"name":"Würzburg Gattingerstraße West","lat":49.795946,"lng":9.98137,"lines":null,"url":null},{"name":"Würzburg Dominikanergasse","lat":49.795963,"lng":9.931468,"lines":null,"url":null},{"name":"Würzburg Josefshof","lat":49.795975,"lng":9.972261,"lines":null,"url":null},{"name":"Würzburg Faulenbergkaserne","lat":49.796172,"lng":9.966296,"lines":null,"url":null},{"name":"Würzburg Barbarastraße","lat":49.796265,"lng":9.954887,"lines":null,"url":null},{"name":"Wü Israelitischer Friedhof","lat":49.796317,"lng":9.978019,"lines":null,"url":null},{"name":"Würzburg Handwerkskammer","lat":49.796474,"lng":9.942868,"lines":null,"url":null},{"name":"Würzburg Hauptfriedhof","lat":49.796665,"lng":9.944862,"lines":null,"url":null},{"name":"Würzburg, Matthias-Thoma-Str.","lat":49.796677,"lng":9.961526,"lines":null,"url":null},{"name":"Würzburg, E.Hst. Gerberstraße","lat":49.796688,"lng":9.926707,"lines":null,"url":null},{"name":"Würzburg Ulmer Hof","lat":49.796711,"lng":9.928693,"lines":null,"url":null},{"name":"Würzburg Betriebshof APG","lat":49.796735,"lng":9.929402,"lines":null,"url":null},{"name":"Würzburg  E-Götz","lat":49.796845,"lng":9.897719,"lines":null,"url":null},{"name":"Würzburg Nautiland","lat":49.796932,"lng":9.917922,"lines":null,"url":null},{"name":"Würzburg E-HST Dominikanerplatz","lat":49.797112,"lng":9.931046,"lines":null,"url":null},{"name":"Rottendorf Siedlung","lat":49.797326,"lng":10.023546,"lines":null,"url":null},{"name":"Würzburg Ohmstraße","lat":49.79739,"lng":9.971129,"lines":null,"url":null},{"name":"Würzburg Vogel-Verlag","lat":49.797413,"lng":9.901617,"lines":null,"url":null},{"name":"Würzburg Juliuspromenade","lat":49.797471,"lng":9.932178,"lines":null,"url":null},{"name":"Würzburg Barbarossaplatz","lat":49.797483,"lng":9.933633,"lines":null,"url":null},{"name":"Wzbg. E.Talavera/Neunerplatz","lat":49.7975,"lng":9.919009,"lines":null,"url":null},{"name":"Würzburg, Weißenburgstraße","lat":49.797587,"lng":9.915748,"lines":null,"url":null},{"name":"Würzburg Friedrichstraße","lat":49.797645,"lng":9.911148,"lines":null,"url":null},{"name":"Würzburg Berliner Ring","lat":49.797697,"lng":9.941565,"lines":null,"url":null},{"name":"Würzburg Sedanstraße","lat":49.797773,"lng":9.909603,"lines":null,"url":null},{"name":"Würzburg Fr.-Koenig-Gymn.","lat":49.797813,"lng":9.91255,"lines":null,"url":null},{"name":"Würzburg Stift Haug","lat":49.797999,"lng":9.935295,"lines":null,"url":null},{"name":"Würzburg Talavera","lat":49.798063,"lng":9.921147,"lines":null,"url":null},{"name":"Würzburg Congress-Centrum","lat":49.798213,"lng":9.92518,"lines":null,"url":null},{"name":"Wü Friedrich-Bergius-Ring","lat":49.798312,"lng":9.99665,"lines":null,"url":null},{"name":"Würzburg Aumühle","lat":49.798509,"lng":9.954744,"lines":null,"url":null},{"name":"Würzburg Schweinfurter Straße","lat":49.798898,"lng":9.945779,"lines":null,"url":null},{"name":"Würzburg Berliner Platz","lat":49.799414,"lng":9.941691,"lines":null,"url":null},{"name":"Würzburg Neutorstraße","lat":49.799588,"lng":9.940631,"lines":null,"url":null},{"name":"Würzburg Justizvollzugsanstalt","lat":49.799831,"lng":10.003073,"lines":null,"url":null},{"name":"Würzburg Versorgungsamt","lat":49.799854,"lng":9.917392,"lines":null,"url":null},{"name":"Würzburg Europastern","lat":49.79986,"lng":9.954869,"lines":null,"url":null},{"name":"Würzburg Hertzstraße","lat":49.800057,"lng":9.973375,"lines":null,"url":null},{"name":"Zell Oberzell","lat":49.800063,"lng":9.877794,"lines":null,"url":null},{"name":"Würzburg Rosenmühlweg","lat":49.800127,"lng":9.977714,"lines":null,"url":null},{"name":"Würzburg Am Stuck","lat":49.80015,"lng":9.988808,"lines":null,"url":null},{"name":"Würzburg Parkplatz Talavera","lat":49.800185,"lng":9.919188,"lines":null,"url":null},{"name":"Würzburg, Hauptbahnhof Ost","lat":49.800208,"lng":9.936436,"lines":null,"url":null},{"name":"Würzburg Rotkreuzstraße","lat":49.800422,"lng":9.926438,"lines":null,"url":null},{"name":"Würzburg Neuer Hafen, Mitte","lat":49.800515,"lng":9.886553,"lines":null,"url":null},{"name":"Würzburg Sandäcker","lat":49.800643,"lng":9.996767,"lines":null,"url":null},{"name":"Würzburg, Hauptbahnhof West","lat":49.800799,"lng":9.935008,"lines":null,"url":null},{"name":"Würzburg, Parkhaus/Am Quellenbach","lat":49.80091,"lng":9.937478,"lines":null,"url":null},{"name":"Würzburg Hafenschänke","lat":49.801008,"lng":9.893056,"lines":null,"url":null},{"name":"Würzburg, Busbahnhof","lat":49.801078,"lng":9.934298,"lines":null,"url":null},{"name":"Würzburg Betriebshof Busst. D","lat":49.801286,"lng":9.934127,"lines":null,"url":null},{"name":"Würzburg, Hauptbahnhof (Bismarckstraße)","lat":49.801344,"lng":9.932304,"lines":null,"url":null},{"name":"Wü Mainfränkische Werkstätten","lat":49.801443,"lng":9.972432,"lines":null,"url":null},{"name":"Würzburg Uni-Klinik. Bereich D","lat":49.801466,"lng":9.953953,"lines":null,"url":null},{"name":"Würzburg Senefelderstraße","lat":49.801594,"lng":9.951375,"lines":null,"url":null},{"name":"Würzburg Briefzentrum","lat":49.801628,"lng":9.999318,"lines":null,"url":null},{"name":"Würzburg St.-Lioba-Kirche","lat":49.801692,"lng":9.981388,"lines":null,"url":null},{"name":"Würzburg Brücknerstraße","lat":49.801698,"lng":9.943883,"lines":null,"url":null},{"name":"Würzburg Felix-Fechenbach-Haus","lat":49.801797,"lng":9.948321,"lines":null,"url":null},{"name":"Würzburg Hbf","lat":49.801797,"lng":9.93578,"lines":null,"url":null},{"name":"Würzburg Mainauwiesen","lat":49.801831,"lng":9.910106,"lines":null,"url":null},{"name":"Würzburg Hafeneinfahrt","lat":49.801971,"lng":9.895922,"lines":null,"url":null},{"name":"Würzburg Kulturspeicher","lat":49.801988,"lng":9.922521,"lines":null,"url":null},{"name":"Würzburg Pilziggrund/Mitte","lat":49.801994,"lng":9.985313,"lines":null,"url":null},{"name":"Würzburg Rosenmühle","lat":49.802029,"lng":9.979205,"lines":null,"url":null},{"name":"Würzburg Wagnerplatz","lat":49.802029,"lng":9.945069,"lines":null,"url":null},{"name":"Würzburg Eiseneckstraße","lat":49.802046,"lng":9.91564,"lines":null,"url":null},{"name":"Würzburg Essiggarten","lat":49.802087,"lng":9.994386,"lines":null,"url":null},{"name":"Würzburg Robert-Koch-Straße","lat":49.802098,"lng":9.954708,"lines":null,"url":null},{"name":"Würzburg Pestalozzistraße","lat":49.802382,"lng":9.951968,"lines":null,"url":null},{"name":"Würzburg Josefskirche","lat":49.802463,"lng":9.947611,"lines":null,"url":null},{"name":"Zell Wasserwerk","lat":49.802487,"lng":9.877363,"lines":null,"url":null},{"name":"Würzburg Dürrbachau/B27","lat":49.802632,"lng":9.896281,"lines":null,"url":null},{"name":"Würzburg Matterstockstraße","lat":49.80273,"lng":9.944296,"lines":null,"url":null},{"name":"Würzburg Frauenklinik, Ber C/D","lat":49.80313,"lng":9.956468,"lines":null,"url":null},{"name":"Würzburg Abzweig Dürrbachau","lat":49.803356,"lng":9.895518,"lines":null,"url":null},{"name":"Zell Brücke","lat":49.803507,"lng":9.877237,"lines":null,"url":null},{"name":"Würzburg Holzmühle","lat":49.803785,"lng":9.977911,"lines":null,"url":null},{"name":"Wü Robert-Kirchhoff-Straße","lat":49.803785,"lng":9.975522,"lines":null,"url":null},{"name":"Würzburg Neumühle","lat":49.803942,"lng":9.960897,"lines":null,"url":null},{"name":"Würzburg Heisenbergstraße","lat":49.804255,"lng":9.972162,"lines":null,"url":null},{"name":"Würzburg, Paradiesstraße","lat":49.804319,"lng":9.881801,"lines":null,"url":null},{"name":"Würzburg Lindleinstraße","lat":49.804353,"lng":9.954456,"lines":null,"url":null},{"name":"Würzburg Max-Born-Straße","lat":49.804661,"lng":9.892769,"lines":null,"url":null},{"name":"Würzburg Stauferstrasse","lat":49.80484,"lng":9.989589,"lines":null,"url":null},{"name":"Würzburg-Zell","lat":49.804939,"lng":9.884594,"lines":null,"url":null},{"name":"Würzb Uni-Klinikum Bereich A","lat":49.805646,"lng":9.957178,"lines":null,"url":null},{"name":"Zell Kirche","lat":49.806574,"lng":9.874156,"lines":null,"url":null},{"name":"Würzburg Thüringerstraße","lat":49.80698,"lng":9.966278,"lines":null,"url":null},{"name":"Würzburg Scharoldstraße","lat":49.807293,"lng":9.955777,"lines":null,"url":null},{"name":"Würzburg Jahnstraße","lat":49.807525,"lng":9.979115,"lines":null,"url":null},{"name":"Würzburg Auf der Schanz","lat":49.807681,"lng":9.973554,"lines":null,"url":null},{"name":"Würzburg Rothof","lat":49.80771,"lng":9.884513,"lines":null,"url":null},{"name":"Würzburg Alfred-Nobel-Straße","lat":49.807832,"lng":9.889149,"lines":null,"url":null},{"name":"Würzburg Am Dürrbach","lat":49.807878,"lng":9.902812,"lines":null,"url":null},{"name":"Würzburg Hans-Brandmann-Weg","lat":49.807954,"lng":9.95239,"lines":null,"url":null},{"name":"Würzburg Parkplatz ZIM-ZOM","lat":49.808,"lng":9.956585,"lines":null,"url":null},{"name":"Würzburg Bayernstraße","lat":49.808064,"lng":9.961274,"lines":null,"url":null},{"name":"Würzburg Bockspfad","lat":49.80807,"lng":9.946928,"lines":null,"url":null},{"name":"Würzburg Flürleinstraße","lat":49.808093,"lng":9.988565,"lines":null,"url":null},{"name":"Würzburg Koenig & Bauer","lat":49.808122,"lng":9.87862,"lines":null,"url":null},{"name":"Würzburg Wende Oberdürrb. Str.","lat":49.80818,"lng":9.950827,"lines":null,"url":null},{"name":"Wü Albert-Einstein-Straße","lat":49.808418,"lng":9.886373,"lines":null,"url":null},{"name":"Würzburg Zentrallabor","lat":49.808632,"lng":9.957115,"lines":null,"url":null},{"name":"Würzburg Rothofstraße","lat":49.808678,"lng":9.885178,"lines":null,"url":null},{"name":"Würzburg Frankenstraße Ost","lat":49.808719,"lng":9.969251,"lines":null,"url":null},{"name":"Würzburg Schwarzer Weg","lat":49.809194,"lng":9.908561,"lines":null,"url":null},{"name":"Zell Judenhof","lat":49.809339,"lng":9.87165,"lines":null,"url":null},{"name":"Würzburg Unterdürrbach/Schule","lat":49.809623,"lng":9.914194,"lines":null,"url":null},{"name":"Würzburg Mittlerer Wiesenweg","lat":49.80978,"lng":9.914158,"lines":null,"url":null},{"name":"Würzburg Dorfgraben","lat":49.81018,"lng":9.988233,"lines":null,"url":null},{"name":"Würzburg Schwabenstraße","lat":49.810319,"lng":9.96246,"lines":null,"url":null},{"name":"Würzburg Oekumenisches Zentrum","lat":49.8104,"lng":9.985798,"lines":null,"url":null},{"name":"Würzburg Sonnfeld","lat":49.8104,"lng":9.977902,"lines":null,"url":null},{"name":"Würzburg Gustav-Walle-Schule","lat":49.810551,"lng":9.963978,"lines":null,"url":null},{"name":"Würzburg Unterdürrbach/Kirche","lat":49.810597,"lng":9.919368,"lines":null,"url":null},{"name":"Würzburg Straubmühlweg","lat":49.810835,"lng":9.957744,"lines":null,"url":null},{"name":"Würzburg Neuer Hafen, Nord","lat":49.81098,"lng":9.877075,"lines":null,"url":null},{"name":"Würzburg, Mittlerer Schwarzenberg","lat":49.811015,"lng":9.962029,"lines":null,"url":null},{"name":"Würzburg Frankenstraße Nord","lat":49.811067,"lng":9.971425,"lines":null,"url":null},{"name":"Würzburg AW-Altenheim","lat":49.811096,"lng":9.968416,"lines":null,"url":null},{"name":"Zell Kestlerstraße","lat":49.811119,"lng":9.8705,"lines":null,"url":null},{"name":"Würzburg Werk Noell","lat":49.811125,"lng":9.888295,"lines":null,"url":null},{"name":"Würzburg Odenwaldstraße","lat":49.811403,"lng":9.983723,"lines":null,"url":null},{"name":"Würzburg Steinburgstraße","lat":49.81149,"lng":9.920608,"lines":null,"url":null},{"name":"Würzburg Unterer Schwarzenberg","lat":49.811588,"lng":9.962038,"lines":null,"url":null},{"name":"Würzburg Straubberg","lat":49.811931,"lng":9.963978,"lines":null,"url":null},{"name":"Würzburg Oberer Schwarzenberg","lat":49.812035,"lng":9.960403,"lines":null,"url":null},{"name":"Würzburg Greinberg","lat":49.812319,"lng":9.972189,"lines":null,"url":null},{"name":"Würzburg Albert-Schweitzer-Str","lat":49.812458,"lng":9.979025,"lines":null,"url":null},{"name":"Würzburg Wolffskeel-Schule","lat":49.812504,"lng":9.965937,"lines":null,"url":null},{"name":"Wü Mittlere Heerbergstraße","lat":49.813588,"lng":9.970258,"lines":null,"url":null},{"name":"Wü Friedrich-Kohlrausch-Straße","lat":49.813716,"lng":9.889373,"lines":null,"url":null},{"name":"Würzburg Kuhberg","lat":49.814046,"lng":9.918128,"lines":null,"url":null},{"name":"Würzburg Steinlein","lat":49.814185,"lng":9.962308,"lines":null,"url":null},{"name":"Würzburg Hessenstraße","lat":49.814209,"lng":9.973294,"lines":null,"url":null},{"name":"Versbach Am Eselsbach","lat":49.814458,"lng":9.969036,"lines":null,"url":null},{"name":"Zell Unterzell Au","lat":49.814539,"lng":9.869269,"lines":null,"url":null},{"name":"Würzburg va-Q-tec","lat":49.814887,"lng":9.884064,"lines":null,"url":null},{"name":"Würzburg, Blaue Halle","lat":49.815038,"lng":9.881297,"lines":null,"url":null},{"name":"Würzburg  Am Handelshof","lat":49.815582,"lng":9.981046,"lines":null,"url":null},{"name":"Würzburg Rotkreuzhof","lat":49.815704,"lng":9.933247,"lines":null,"url":null},{"name":"Würzburg Bonhoefferstraße","lat":49.816742,"lng":9.963502,"lines":null,"url":null},{"name":"Würzburg, Obere Röthe","lat":49.816782,"lng":9.959244,"lines":null,"url":null},{"name":"Würzburg Neuenbrunnerweg","lat":49.816898,"lng":9.932448,"lines":null,"url":null},{"name":"Würzburg, Versbacher Röthe","lat":49.81706,"lng":9.960816,"lines":null,"url":null},{"name":"Würzburg Wandweg","lat":49.817484,"lng":9.920994,"lines":null,"url":null},{"name":"Würzburg, St.-Rochus-Straße","lat":49.817565,"lng":9.966925,"lines":null,"url":null},{"name":"Würzburg Römische Klinge","lat":49.818196,"lng":9.969629,"lines":null,"url":null},{"name":"Zell Stahlbergweg","lat":49.818544,"lng":9.868119,"lines":null,"url":null},{"name":"Würzburg, Johann-Hermann-Str.","lat":49.819002,"lng":9.957978,"lines":null,"url":null},{"name":"Würzburg Ersatzhaltestelle","lat":49.819211,"lng":9.969278,"lines":null,"url":null},{"name":"Würzburg, Stadtberg","lat":49.819692,"lng":9.956504,"lines":null,"url":null},{"name":"Würzburg Zum Tännig","lat":49.82019,"lng":9.961975,"lines":null,"url":null},{"name":"Würzburg An den Breiten","lat":49.820666,"lng":9.970195,"lines":null,"url":null},{"name":"Würzburg Liebigstraße","lat":49.820758,"lng":9.929276,"lines":null,"url":null},{"name":"Versbach, Versbacher Straße","lat":49.820776,"lng":9.961364,"lines":null,"url":null},{"name":"Würzburg Hirschlein","lat":49.820973,"lng":9.919278,"lines":null,"url":null},{"name":"Würzburg Hinterer Kühlenberg","lat":49.821071,"lng":9.967527,"lines":null,"url":null},{"name":"Zell Scheckert","lat":49.821135,"lng":9.867517,"lines":null,"url":null},{"name":"Würzburg Dr.-Onymus-Straße","lat":49.822016,"lng":9.925764,"lines":null,"url":null},{"name":"Würzburg Kühlenbergstraße","lat":49.822335,"lng":9.964401,"lines":null,"url":null},{"name":"Würzburg IKEA","lat":49.822375,"lng":9.981154,"lines":null,"url":null},{"name":"Veitshöchheim Am Schenkenfeld","lat":49.822549,"lng":9.883319,"lines":null,"url":null},{"name":"Würzburg Sportplatz Versbach","lat":49.822868,"lng":9.959217,"lines":null,"url":null},{"name":"Würzburg Am Schaftrieb","lat":49.823077,"lng":9.921874,"lines":null,"url":null},{"name":"Würzburg Brunnenstraße","lat":49.823303,"lng":9.969422,"lines":null,"url":null},{"name":"Veitshöchheim Gartenstraße","lat":49.823946,"lng":9.876195,"lines":null,"url":null},{"name":"Estenfeld Adenauerstraße","lat":49.824027,"lng":10.006307,"lines":null,"url":null},{"name":"Veitshöchheim Scheffelstraße","lat":49.82416,"lng":9.879555,"lines":null,"url":null},{"name":"Würzburg Maidbronner Weg","lat":49.82456,"lng":9.965299,"lines":null,"url":null},{"name":"VHH Friedrich-Ebert-Straße","lat":49.824688,"lng":9.881809,"lines":null,"url":null},{"name":"Würzburg Oberhofstraße","lat":49.82525,"lng":9.92315,"lines":null,"url":null},{"name":"Würzburg Altenberg","lat":49.825789,"lng":9.958328,"lines":null,"url":null},{"name":"Estenfeld Am Eichelein","lat":49.825951,"lng":10.012173,"lines":null,"url":null},{"name":"Würzburg Langes Gräthlein","lat":49.82598,"lng":9.959334,"lines":null,"url":null},{"name":"Estenfeld Köhlerring","lat":49.826067,"lng":9.998797,"lines":null,"url":null},{"name":"Würzburg Zehnthofstraße","lat":49.826316,"lng":9.92297,"lines":null,"url":null},{"name":"Estenfeld Triebweg","lat":49.826351,"lng":10.01971,"lines":null,"url":null},{"name":"Würzburg Am Sonnenberg","lat":49.826374,"lng":9.96114,"lines":null,"url":null},{"name":"Veitshöchheim Geisbergbad","lat":49.826461,"lng":9.887002,"lines":null,"url":null},{"name":"Würzburg Oberdürrbach Schule","lat":49.826809,"lng":9.921237,"lines":null,"url":null},{"name":"Estenfeld Schule","lat":49.826878,"lng":10.006388,"lines":null,"url":null},{"name":"Margetshöchheim Bachwiese","lat":49.827319,"lng":9.866565,"lines":null,"url":null},{"name":"Estenfeld Wilhelm-Hoegner-Str.","lat":49.827353,"lng":9.997063,"lines":null,"url":null},{"name":"Veitshöchheim Schneckenhaus","lat":49.827591,"lng":9.872871,"lines":null,"url":null},{"name":"Estenfeld Untere Ritterstraße","lat":49.827614,"lng":10.007726,"lines":null,"url":null},{"name":"Würzburg Schafhof","lat":49.829347,"lng":9.921335,"lines":null,"url":null},{"name":"Würzburg Am Sand","lat":49.829457,"lng":9.916718,"lines":null,"url":null},{"name":"VHH Balthasar-Neumann-Kaserne","lat":49.829492,"lng":9.8962,"lines":null,"url":null},{"name":"Estenfeld Wilhelm-Barth-Straße","lat":49.829973,"lng":10.005409,"lines":null,"url":null},{"name":"VHH Günterslebener Straße","lat":49.830141,"lng":9.886571,"lines":null,"url":null},{"name":"Veitshöchheim Heinestraße","lat":49.830245,"lng":9.884298,"lines":null,"url":null},{"name":"Estenfeld/B19","lat":49.830396,"lng":10.003989,"lines":null,"url":null},{"name":"Würzburg Herrnmühle","lat":49.830569,"lng":9.956774,"lines":null,"url":null},{"name":"Veitshöchheim Sonnenstraße","lat":49.83134,"lng":9.891646,"lines":null,"url":null},{"name":"Veitshöchheim","lat":49.831433,"lng":9.876195,"lines":null,"url":null},{"name":"Veitshöchheim Benzstraße","lat":49.831902,"lng":9.898338,"lines":null,"url":null},{"name":"Veitshöchheim Friedenstraße","lat":49.831943,"lng":9.892023,"lines":null,"url":null},{"name":"Würzburg An den Mühltannen","lat":49.831966,"lng":9.915838,"lines":null,"url":null},{"name":"Veitshöchheim Schönstraße","lat":49.832001,"lng":9.877614,"lines":null,"url":null},{"name":"Veitshöchheim Wolfstalstraße","lat":49.832296,"lng":9.896245,"lines":null,"url":null}],"gauges":[{"id":153,"name":"Würzburg","lat":49.796209,"lng":9.925969}],"depth_map":null}},"country":"DE","last_updated":"2026-05-05T21:03:36.978Z","error":false}