{"id":14506,"slug":"spree-iii-fischerei-richter","url":"https://www.hejfish.com/d/14506-spree-iii-fischerei-richter","name":"Spree III (Fischerei Richter)","description":"","water_size_ha":null,"fish":["AalQuappeHechtZanderKarpfenSchleieFlussbarschRapfenDiv. Weißfische"],"techniques":["AnsitzangelnFeedern… mehr"],"properties":["Boot\nNachtfischen\nTechniken:\nAnsitzangelnFeedern… mehr"],"season":null,"water_type":null,"rules_text":"","mobile_ticket":false,"print_required":false,"tickets":[],"manager":null,"main_image":null,"location_info":["Brandenburg","Kreis Dahme-Spreewald"],"lat":null,"lng":null,"geocode_source":null,"map_data":{"data":{"id":14506,"geojson":[],"locations":[{"lat":52.08498133229,"lng":13.87730878889},{"lat":52.10592852849,"lng":13.905112368226}],"stations":[{"name":"Leibsch, Damm","lat":52.08801,"lng":13.867322,"lines":null,"url":null},{"name":"Leibsch, Leibscher Hauptstr.","lat":52.081383,"lng":13.875639,"lines":null,"url":null},{"name":"Neu Lübbenau, Hauptstr.","lat":52.075863,"lng":13.894778,"lines":null,"url":null},{"name":"Neu Lübbenau, Kita","lat":52.076525,"lng":13.897545,"lines":null,"url":null},{"name":"Neuendorf am See","lat":52.106743,"lng":13.900875,"lines":null,"url":null},{"name":"Hohenbrück, Gasthaus","lat":52.095265,"lng":13.902815,"lines":null,"url":null}],"gauges":[{"id":1140,"name":"Beeskow, Spreeschleuse UP","lat":52.17197601,"lng":14.25469413},{"id":1167,"name":"Goyatz 1","lat":52.01412025,"lng":14.18402565},{"id":1049,"name":"Leibsch, Spreewehr UP","lat":52.08516225,"lng":13.87720403},{"id":1030,"name":"Leibsch, Spreewehr OP","lat":52.08466381,"lng":13.87679328},{"id":1038,"name":"Lübben, Zusammenfluss","lat":51.959905427463,"lng":13.899271322911}],"depth_map":null}},"country":"DE","last_updated":"2026-05-05T21:03:40.984Z","error":false}