{"id":14508,"slug":"fulda-roehrenfurth","url":"https://www.hejfish.com/d/14508-fulda-roehrenfurth","name":"Fulda Röhrenfurth","description":"","water_size_ha":null,"fish":["AalBachforelleFlussbarschHechtZanderDiv. Weißfische"],"techniques":["FliegenfischenSpinnangeln… mehr"],"properties":["kein Boot\nKein Nachtfischen\nÖffisFangmeldung erforderlich\nTechniken:\nFliegenfischenSpinnangeln… mehr"],"season":null,"water_type":null,"rules_text":"","mobile_ticket":false,"print_required":false,"tickets":[],"manager":null,"main_image":null,"location_info":["Hessen","Kreis Kassel"],"lat":null,"lng":null,"geocode_source":null,"map_data":{"data":{"id":14508,"geojson":[],"locations":[{"lat":51.15185,"lng":9.54845},{"lat":51.15731,"lng":9.53564}],"stations":[{"name":"Melsungen-Röhrenfurth Vierbuchenstraße","lat":51.15763,"lng":9.542843,"lines":null,"url":null},{"name":"Melsungen-Röhrenfurth Hirtenrain","lat":51.15616,"lng":9.545813,"lines":null,"url":null},{"name":"Melsungen-Röhrenfurth Lobenhäuser Weg","lat":51.150163,"lng":9.546157,"lines":null,"url":null},{"name":"Melsungen-Röhrenfurth Mitte","lat":51.155316,"lng":9.54749,"lines":null,"url":null},{"name":"Melsungen-Röhrenfurth Bahnhof","lat":51.154334,"lng":9.548078,"lines":null,"url":null},{"name":"Melsungen-Röhrenfurth Schule","lat":51.159071,"lng":9.548106,"lines":null,"url":null},{"name":"Melsungen-Röhrenfurth Unterdorf","lat":51.152445,"lng":9.548256,"lines":null,"url":null}],"gauges":[{"id":112,"name":"Guntershausen","lat":51.22658,"lng":9.469333},{"id":111,"name":"Grebenau","lat":51.193131,"lng":9.498194}],"depth_map":null}},"country":"DE","last_updated":"2026-05-05T21:03:44.957Z","error":false}