{"id":14807,"slug":"angelweiher-niederndorf-1-2-3","url":"https://www.hejfish.com/d/14807-angelweiher-niederndorf-1-2-3","name":"Angelweiher Niederndorf 1/2/3","description":"","water_size_ha":null,"fish":["ForelleKarpfen"],"techniques":["PosenangelnAnsitzangeln"],"properties":["kein Boot\nKein Nachtfischen\nTechniken:\nPosenangelnAnsitzangeln"],"season":null,"water_type":null,"rules_text":"","mobile_ticket":false,"print_required":false,"tickets":[],"manager":null,"main_image":null,"location_info":["Bayern","Kreis Mühldorf am Inn"],"lat":null,"lng":null,"geocode_source":null,"map_data":{"data":{"id":14807,"geojson":[],"locations":[{"lat":48.194076,"lng":12.430168},{"lat":48.1948,"lng":12.42806},{"lat":48.195056,"lng":12.42882}],"stations":[{"name":"Pürten","lat":48.199411,"lng":12.423566,"lines":null,"url":null},{"name":"Niederndorf bei Kraiburg","lat":48.190189,"lng":12.427258,"lines":null,"url":null},{"name":"Kraiburg a.Inn, Apotheke","lat":48.185344,"lng":12.427401,"lines":null,"url":null},{"name":"Kraiburg, Watzmannstr.","lat":48.189362,"lng":12.437445,"lines":null,"url":null}],"gauges":[],"depth_map":null}},"country":"DE","last_updated":"2026-05-05T21:05:09.088Z","error":false}