{"id":14841,"slug":"amtsteich-bei-vatterode-09-230-11","url":"https://www.hejfish.com/d/14841-amtsteich-bei-vatterode-09-230-11","name":"Amtsteich bei Vatterode (09-230-11)","description":"","water_size_ha":null,"fish":["AalBrasseFlussbarschHechtKarpfenRotaugeRotfederSchleieZander"],"techniques":["AnsitzangelnFliegenfischen… mehr"],"properties":["kein Boot\nNachtfischen\nÖffisFangmeldung erforderlich\nTechniken:\nAnsitzangelnFliegenfischen… mehr"],"season":null,"water_type":null,"rules_text":"","mobile_ticket":false,"print_required":true,"tickets":[],"manager":null,"main_image":null,"location_info":["Sachsen-Anhalt","Kreis Mansfeld-Südharz"],"lat":null,"lng":null,"geocode_source":null,"map_data":{"data":{"id":14841,"geojson":[],"locations":[{"lat":51.599613,"lng":11.414666}],"stations":[{"name":"Klippmühle (Vatterode)","lat":51.601224,"lng":11.406671,"lines":null,"url":null},{"name":"Vatteröder Teich","lat":51.598095,"lng":11.411962,"lines":null,"url":null},{"name":"Gräfenstuhl (Vatterode)","lat":51.608902,"lng":11.413199,"lines":null,"url":null},{"name":"Mansfeld Schleife (Parkeisenbahn)","lat":51.601369,"lng":11.415788,"lines":null,"url":null}],"gauges":[],"depth_map":null}},"country":"DE","last_updated":"2026-05-05T21:06:20.722Z","error":false}