{"id":14852,"slug":"eine-von-hainberg-bis-kreisgrenze-salzlandkreis-s-230-02","url":"https://www.hejfish.com/d/14852-eine-von-hainberg-bis-kreisgrenze-salzlandkreis-s-230-02","name":"Eine - von Hainberg bis Kreisgrenze Salzlandkreis ( S-230-02)","description":"","water_size_ha":null,"fish":["ÄscheBachforelleRegenbogenforelleDiv. Weißfische"],"techniques":["FliegenfischenSpinnangeln"],"properties":["kein Boot\nNachtfischenFangmeldung erforderlich\nTechniken:\nFliegenfischenSpinnangeln"],"season":null,"water_type":null,"rules_text":"","mobile_ticket":false,"print_required":true,"tickets":[],"manager":null,"main_image":null,"location_info":["Sachsen-Anhalt","Kreis Harz"],"lat":null,"lng":null,"geocode_source":null,"map_data":{"data":{"id":14852,"geojson":[],"locations":[{"lat":51.610766,"lng":11.249266},{"lat":51.722254,"lng":11.42875}],"stations":[{"name":"Ballenstedt, Marienstr.","lat":51.722224,"lng":11.240029,"lines":null,"url":null},{"name":"Ballenstedt, Landgraben","lat":51.718923,"lng":11.24483,"lines":null,"url":null},{"name":"Ballenstedt, Badeborner Str.","lat":51.724298,"lng":11.245342,"lines":null,"url":null},{"name":"Ballenstedt, Hoymer Str.","lat":51.724072,"lng":11.246344,"lines":null,"url":null},{"name":"Ballenstedt, Pestalozziring","lat":51.721285,"lng":11.246814,"lines":null,"url":null},{"name":"Ballenstedt, Steinberg","lat":51.726895,"lng":11.247251,"lines":null,"url":null},{"name":"Opperode (Ballenstedt), Kirche","lat":51.717365,"lng":11.253913,"lines":null,"url":null},{"name":"Molmerswende","lat":51.625344,"lng":11.258822,"lines":null,"url":null},{"name":"Steinbrücken (Abberode)","lat":51.616558,"lng":11.261302,"lines":null,"url":null},{"name":"Leinemühle (Molmerswende)","lat":51.642033,"lng":11.269318,"lines":null,"url":null},{"name":"Horbeck (Molmerswende), Abzweig","lat":51.629761,"lng":11.275884,"lines":null,"url":null},{"name":"Pansfelde","lat":51.659865,"lng":11.278722,"lines":null,"url":null},{"name":"Gartenhaus (Pansfelde)","lat":51.67815,"lng":11.284253,"lines":null,"url":null},{"name":"Meisdorf, Liethe","lat":51.700333,"lng":11.287657,"lines":null,"url":null},{"name":"Meisdorf, Allee","lat":51.707351,"lng":11.289646,"lines":null,"url":null},{"name":"Radisleben, Abzweig","lat":51.730702,"lng":11.291247,"lines":null,"url":null},{"name":"Meisdorf, Hauptstr.","lat":51.709141,"lng":11.293759,"lines":null,"url":null},{"name":"Ritzgerode","lat":51.606239,"lng":11.294153,"lines":null,"url":null},{"name":"Meisdorf, Alter Bahnhof","lat":51.724705,"lng":11.294475,"lines":null,"url":null},{"name":"Tilkerode (Abberode)","lat":51.617959,"lng":11.294701,"lines":null,"url":null},{"name":"Ritzgerode, Abzweig","lat":51.603679,"lng":11.296334,"lines":null,"url":null},{"name":"Meisdorf, Bahnhofstr.","lat":51.716006,"lng":11.29758,"lines":null,"url":null},{"name":"Meisdorf, Falkensteiner Weg","lat":51.708026,"lng":11.3002,"lines":null,"url":null},{"name":"Degenershausen (Wieserode)","lat":51.687038,"lng":11.303286,"lines":null,"url":null},{"name":"Rammelburg (Friesdorf), Abzweig","lat":51.607826,"lng":11.325404,"lines":null,"url":null},{"name":"Rammelburg (Friesdorf), Blick","lat":51.607848,"lng":11.330632,"lines":null,"url":null},{"name":"Wieserode","lat":51.684528,"lng":11.331157,"lines":null,"url":null},{"name":"Ermsleben, Halberstädter Str.","lat":51.730518,"lng":11.342007,"lines":null,"url":null},{"name":"Ermsleben, Sportplatz","lat":51.730041,"lng":11.342026,"lines":null,"url":null},{"name":"Ermsleben, Konradsburger Str.","lat":51.728434,"lng":11.345113,"lines":null,"url":null},{"name":"Ermsleben, Welbslebener Str.","lat":51.729537,"lng":11.348355,"lines":null,"url":null},{"name":"Ermsleben, Endorfer Str.","lat":51.732144,"lng":11.351979,"lines":null,"url":null},{"name":"Neuplatendorf","lat":51.697948,"lng":11.354617,"lines":null,"url":null},{"name":"Stangerode","lat":51.658212,"lng":11.355634,"lines":null,"url":null},{"name":"Ulzigerode, Schmiedestr.","lat":51.680665,"lng":11.364739,"lines":null,"url":null},{"name":"Ulzigerode","lat":51.680145,"lng":11.365117,"lines":null,"url":null},{"name":"Endorf, Mühle","lat":51.705222,"lng":11.369333,"lines":null,"url":null},{"name":"Endorf","lat":51.711963,"lng":11.375141,"lines":null,"url":null},{"name":"Saurasen (Biesenrode)","lat":51.620537,"lng":11.377857,"lines":null,"url":null},{"name":"Schlackenmühle (Alterode)","lat":51.662867,"lng":11.380637,"lines":null,"url":null},{"name":"Friedrichrode (Bräunrode)","lat":51.629195,"lng":11.381805,"lines":null,"url":null},{"name":"Biesenrode","lat":51.604086,"lng":11.384951,"lines":null,"url":null},{"name":"Alterode","lat":51.675032,"lng":11.385425,"lines":null,"url":null},{"name":"Friedrichrode, Abzweig (Bräunrode)","lat":51.622259,"lng":11.386511,"lines":null,"url":null},{"name":"Biesenrode (Bus)","lat":51.603478,"lng":11.387431,"lines":null,"url":null},{"name":"Alterode, Untermühle","lat":51.679421,"lng":11.388881,"lines":null,"url":null},{"name":"Harkerode","lat":51.685235,"lng":11.401307,"lines":null,"url":null},{"name":"Gräfenstuhl-Klippmühle","lat":51.601984,"lng":11.404243,"lines":null,"url":null},{"name":"Klippmühle (Vatterode)","lat":51.601224,"lng":11.406671,"lines":null,"url":null},{"name":"Bräunrode","lat":51.641961,"lng":11.407803,"lines":null,"url":null},{"name":"Greifenhagen (Vatterode), Abzweig","lat":51.617254,"lng":11.410552,"lines":null,"url":null},{"name":"Arnstein (Harkerode), Unterschloss","lat":51.682037,"lng":11.41087,"lines":null,"url":null},{"name":"Gräfenstuhl (Vatterode)","lat":51.608902,"lng":11.413199,"lines":null,"url":null},{"name":"Mansfeld Schleife (Parkeisenbahn)","lat":51.601369,"lng":11.415788,"lines":null,"url":null},{"name":"Greifenhagen","lat":51.627155,"lng":11.423051,"lines":null,"url":null},{"name":"Welbsleben, Schule","lat":51.706893,"lng":11.423102,"lines":null,"url":null},{"name":"Willerode (Bräunrode)","lat":51.652465,"lng":11.424199,"lines":null,"url":null},{"name":"Sylda","lat":51.67731,"lng":11.42518,"lines":null,"url":null},{"name":"Vatterode Wippergrund (Parkeisenbahn)","lat":51.601251,"lng":11.427171,"lines":null,"url":null}],"gauges":[],"depth_map":null}},"country":"DE","last_updated":"2026-05-05T21:06:44.419Z","error":false}