{"id":14948,"slug":"nidda-bei-karben","url":"https://www.hejfish.com/d/14948-nidda-bei-karben","name":"Nidda bei Karben","description":"","water_size_ha":null,"fish":["AalBachforelleSchleieBarbeFlussbarschBrasseDöbelGründlingRotaugeRotfederRegenbogenforelleHechtZanderÄscheAlandNaseRapfenWelsSpiegelkarpfen… mehr"],"techniques":["AnsitzangelnFliegenfischen… mehr"],"properties":["kein Boot\nNachtfischen\nTechniken:\nAnsitzangelnFliegenfischen… mehr"],"season":null,"water_type":null,"rules_text":"","mobile_ticket":false,"print_required":false,"tickets":[],"manager":null,"main_image":null,"location_info":["Hessen","Wetteraukreis"],"lat":null,"lng":null,"geocode_source":null,"map_data":{"data":{"id":14948,"geojson":[],"locations":[{"lat":50.238748,"lng":8.759528},{"lat":50.223482,"lng":8.768976}],"stations":[{"name":"Karben-Klein-Karben Karl-Liebknecht-Straße","lat":50.2208,"lng":8.77722,"lines":null,"url":null},{"name":"Karben-Klein-Karben Gewerbegebiet Süd","lat":50.224253,"lng":8.764454,"lines":null,"url":null},{"name":"Karben-Klein-Karben Kirchgasse","lat":50.224473,"lng":8.777705,"lines":null,"url":null},{"name":"Karben-Klein-Karben Dieselstraße/VDO","lat":50.224644,"lng":8.762434,"lines":null,"url":null},{"name":"Karben-Klein-Karben Max-Planck-Straße","lat":50.2274,"lng":8.76141,"lines":null,"url":null},{"name":"Karben-Klein-Karben Schulstraße","lat":50.228066,"lng":8.776511,"lines":null,"url":null},{"name":"Karben-Klein-Karben Selzerbachschule","lat":50.2281,"lng":8.7745,"lines":null,"url":null},{"name":"Karben-Klein-Karben Robert-Bosch-Straße","lat":50.2288,"lng":8.76009,"lines":null,"url":null},{"name":"Karben-Groß-Karben Gartenstraße","lat":50.230601,"lng":8.771748,"lines":null,"url":null},{"name":"Karben-Klein-Karben Kino","lat":50.231228,"lng":8.757169,"lines":null,"url":null},{"name":"Karben-Groß-Karben Industrie-/Bürgerzentrum","lat":50.2317,"lng":8.76132,"lines":null,"url":null},{"name":"Karben-Groß-Karben Hallenfreizeitbad","lat":50.23182,"lng":8.767584,"lines":null,"url":null},{"name":"Karben-Groß-Karben Bahnhof","lat":50.232012,"lng":8.753815,"lines":null,"url":null},{"name":"Karben-Groß-Karben Hessenring","lat":50.232602,"lng":8.767636,"lines":null,"url":null},{"name":"Karben-Groß-Karben Bürgerzentrum","lat":50.2329,"lng":8.76241,"lines":null,"url":null},{"name":"Karben-Groß-Karben Gesamtschule","lat":50.234755,"lng":8.774452,"lines":null,"url":null},{"name":"Karben-Groß-Karben Weingartenstraße","lat":50.234813,"lng":8.771802,"lines":null,"url":null},{"name":"Karben-Groß-Karben Friedhof","lat":50.235208,"lng":8.771422,"lines":null,"url":null},{"name":"Karben-Groß-Karben Schloß","lat":50.237461,"lng":8.772066,"lines":null,"url":null},{"name":"Karben-Groß-Karben JUKUZ","lat":50.237838,"lng":8.755977,"lines":null,"url":null},{"name":"Karben-Okarben Selzerbrunnen","lat":50.237923,"lng":8.755916,"lines":null,"url":null},{"name":"Karben-Groß-Karben Lindenplatz","lat":50.237961,"lng":8.775007,"lines":null,"url":null},{"name":"Karben-Groß-Karben Heldenberger Weg","lat":50.23807,"lng":8.775104,"lines":null,"url":null},{"name":"Karben-Groß-Karben Ludwigstraße","lat":50.238844,"lng":8.773311,"lines":null,"url":null},{"name":"Karben-Groß-Karben Weißer Stein","lat":50.241505,"lng":8.773327,"lines":null,"url":null},{"name":"Karben-Okarben Wiesenstraße","lat":50.24575,"lng":8.752431,"lines":null,"url":null}],"gauges":[{"id":1971,"name":"Bad Vilbel","lat":50.1822186,"lng":8.7411052}],"depth_map":null}},"country":"DE","last_updated":"2026-05-05T21:10:02.691Z","error":false}