{"id":14973,"slug":"schaelgraben","url":"https://www.hejfish.com/d/14973-schaelgraben","name":"Schälgraben","description":"","water_size_ha":null,"fish":["AalBrasseDöbelFlussbarschGüsterHechtKarauscheRotaugeRotfederSchleieSchuppenkarpfenSpiegelkarpfenWelsZander"],"techniques":["AnsitzangelnNaturköderangeln… mehr"],"properties":["kein Boot\nNachtfischen\nTechniken:\nAnsitzangelnNaturköderangeln… mehr"],"season":null,"water_type":null,"rules_text":"","mobile_ticket":false,"print_required":true,"tickets":[],"manager":null,"main_image":null,"location_info":["Schleswig-Holstein","Kreis Dithmarschen"],"lat":null,"lng":null,"geocode_source":null,"map_data":{"data":{"id":14973,"geojson":[],"locations":[{"lat":53.893403,"lng":9.154295}],"stations":[{"name":"Brunsbüttel Jahnstraße","lat":53.894097,"lng":9.162307,"lines":null,"url":null},{"name":"Brunsbüttel Süd/Fährstraße","lat":53.895753,"lng":9.159614,"lines":null,"url":null},{"name":"Brunsbüttel Süd/Bahnhofstraße","lat":53.896905,"lng":9.158557,"lines":null,"url":null},{"name":"Brunsbüttel Kanalfähre Nord","lat":53.897692,"lng":9.14575,"lines":null,"url":null},{"name":"Brunsbüttel Ostermoorer Straße","lat":53.899812,"lng":9.148234,"lines":null,"url":null}],"gauges":[],"depth_map":null}},"country":"DE","last_updated":"2026-05-05T21:11:08.028Z","error":false}