{"id":15093,"slug":"niers-bei-grefrath","url":"https://www.hejfish.com/d/15093-niers-bei-grefrath","name":"Niers bei Grefrath","description":"","water_size_ha":null,"fish":["AalAlandBrasseDöbelFlussbarschHechtKarpfenRotaugeRotfederSchleieWelsZander"],"techniques":["AnsitzangelnNaturköderangeln… mehr"],"properties":["kein Boot\nNachtfischen\nTechniken:\nAnsitzangelnNaturköderangeln… mehr"],"season":null,"water_type":null,"rules_text":"","mobile_ticket":false,"print_required":true,"tickets":[],"manager":null,"main_image":null,"location_info":["Nordrhein-Westfalen","Kreis Viersen"],"lat":null,"lng":null,"geocode_source":null,"map_data":{"data":{"id":15093,"geojson":[],"locations":[{"lat":51.346036,"lng":6.356475},{"lat":51.328998,"lng":6.370422}],"stations":[{"name":"Viersen Vitusweg","lat":51.319318,"lng":6.348942,"lines":null,"url":null},{"name":"Grefrath Lommet","lat":51.338981,"lng":6.349292,"lines":null,"url":null},{"name":"Gr.-Mühl.,An der Marienschule","lat":51.344329,"lng":6.364797,"lines":null,"url":null},{"name":"Grefrath-Mülh. Grefrather Str.","lat":51.34182,"lng":6.366019,"lines":null,"url":null},{"name":"Grefrath Mülhausen Bf","lat":51.34081,"lng":6.367582,"lines":null,"url":null},{"name":"Grefrath Vitusstraße","lat":51.336192,"lng":6.371184,"lines":null,"url":null},{"name":"Grefrath Dietr.-Girmes-Straße","lat":51.332583,"lng":6.373772,"lines":null,"url":null},{"name":"Grefrath Girmeswerke","lat":51.329198,"lng":6.376556,"lines":null,"url":null},{"name":"Grefrath Oedt Kirche","lat":51.325926,"lng":6.379745,"lines":null,"url":null}],"gauges":[],"depth_map":null}},"country":"DE","last_updated":"2026-05-05T21:14:56.835Z","error":false}