{"id":15144,"slug":"maximilian-und-edithteich-klitten","url":"https://www.hejfish.com/d/15144-maximilian-und-edithteich-klitten","name":"Maximilian und Edithteich Klitten","description":"","water_size_ha":null,"fish":["ForelleSaiblingStörZanderHechtWelsFlussbarschKarpfenDiv. WeißfischeAal"],"techniques":["AnsitzangelnFeedern… mehr"],"properties":["kein Boot\nNachtfischen\nÖffisFangmeldung erforderlich\nTechniken:\nAnsitzangelnFeedern… mehr"],"season":null,"water_type":null,"rules_text":"","mobile_ticket":false,"print_required":false,"tickets":[],"manager":null,"main_image":null,"location_info":["Sachsen","Kreis Görlitz"],"lat":null,"lng":null,"geocode_source":null,"map_data":{"data":{"id":15144,"geojson":[],"locations":[{"lat":51.354891,"lng":14.596233},{"lat":51.35417,"lng":14.597955}],"stations":[{"name":"Klitten Bahnhof","lat":51.348627,"lng":14.590751,"lines":null,"url":null},{"name":"Klitten Jahmen","lat":51.351814,"lng":14.595458,"lines":null,"url":null},{"name":"Klitten Kirche","lat":51.348773,"lng":14.603355,"lines":null,"url":null},{"name":"Abzweig nach Dürrbach","lat":51.360828,"lng":14.607271,"lines":null,"url":null}],"gauges":[],"depth_map":null}},"country":"DE","last_updated":"2026-05-05T21:16:48.152Z","error":false}