{"id":15150,"slug":"alte-elbe-mit-tunnel-und-koenigsdamm","url":"https://www.hejfish.com/d/15150-alte-elbe-mit-tunnel-und-koenigsdamm","name":"Alte Elbe mit Tunnel und Königsdamm","description":"","water_size_ha":null,"fish":["AalBrasseFlussbarschDiv. WeißfischeHechtKarpfenSchleie"],"techniques":["AnsitzangelnFeedern… mehr"],"properties":["kein Boot\nNachtfischenFangmeldung erforderlich\nTechniken:\nAnsitzangelnFeedern… mehr"],"season":null,"water_type":null,"rules_text":"","mobile_ticket":false,"print_required":false,"tickets":[],"manager":null,"main_image":null,"location_info":["Sachsen-Anhalt","Kreis Jerichower Land"],"lat":null,"lng":null,"geocode_source":null,"map_data":{"data":{"id":15150,"geojson":[],"locations":[{"lat":52.375316,"lng":11.950532}],"stations":[],"gauges":[{"id":331,"name":"Detershagen","lat":52.251374,"lng":11.762555},{"id":332,"name":"Burg","lat":52.276738,"lng":11.832027},{"id":93,"name":"Niegripp AP","lat":52.249748,"lng":11.737554},{"id":333,"name":"Zerben OP","lat":52.339613,"lng":11.957395},{"id":334,"name":"Zerben UP","lat":52.35068,"lng":11.969785},{"id":100,"name":"Rogätz","lat":52.313845,"lng":11.768834},{"id":335,"name":"Genthin","lat":52.410857,"lng":12.140022},{"id":336,"name":"Kade","lat":52.397049,"lng":12.279351},{"id":309,"name":"Tangermünde","lat":52.541306,"lng":11.978056}],"depth_map":null}},"country":"DE","last_updated":"2026-05-05T21:16:55.630Z","error":false}