{"id":15179,"slug":"hammerweiher","url":"https://www.hejfish.com/d/15179-hammerweiher","name":"Hammerweiher","description":"","water_size_ha":null,"fish":["AalFlussbarschDöbelDiv. WeißfischeHechtRegenbogenforelleSaiblingZanderSpiegelkarpfenSchuppenkarpfenSchleie"],"techniques":["FeedernFliegenfischen… mehr"],"properties":["kein Boot\nKein Nachtfischen\nÖffisFangmeldung erforderlich\nTechniken:\nFeedernFliegenfischen… mehr"],"season":null,"water_type":null,"rules_text":"","mobile_ticket":false,"print_required":false,"tickets":[],"manager":null,"main_image":null,"location_info":["Hessen","Lahn-Dill-Kreis"],"lat":null,"lng":null,"geocode_source":null,"map_data":{"data":{"id":15179,"geojson":[],"locations":[{"lat":50.837136,"lng":8.338361}],"stations":[{"name":"Dietzhölztal-Ewersbach In der Heg","lat":50.8353,"lng":8.32966,"lines":null,"url":null},{"name":"Dietzhölztal-Steinbrücken Seltersweg","lat":50.830173,"lng":8.333368,"lines":null,"url":null},{"name":"Dietzhölztal-Steinbrücken Talstraße","lat":50.831688,"lng":8.33434,"lines":null,"url":null},{"name":"Dietzhölztal-Steinbrücken Lindenstraße","lat":50.833743,"lng":8.335219,"lines":null,"url":null},{"name":"Dietzhölztal-Steinbrücken Hammerweiher","lat":50.835803,"lng":8.336421,"lines":null,"url":null}],"gauges":[],"depth_map":null}},"country":"DE","last_updated":"2026-05-05T21:18:00.790Z","error":false}