{"id":15217,"slug":"saalach-unterlauf","url":"https://www.hejfish.com/d/15217-saalach-unterlauf","name":"Saalach Unterlauf","description":"","water_size_ha":null,"fish":["BachforelleRegenbogenforelleÄscheBachsaiblingDöbel"],"techniques":["SpinnangelnFliegenfischen"],"properties":["kein Boot\nKein Nachtfischen\nÖffisFangmeldung erforderlich\nTechniken:\nSpinnangelnFliegenfischen"],"season":null,"water_type":null,"rules_text":"","mobile_ticket":false,"print_required":false,"tickets":[],"manager":null,"main_image":null,"location_info":["Bayern","Kreis Berchtesgadener Land"],"lat":null,"lng":null,"geocode_source":null,"map_data":{"data":{"id":15217,"geojson":[],"locations":[{"lat":47.732271,"lng":12.870484},{"lat":47.762417,"lng":12.920233}],"stations":[{"name":"Bad Reichenhall Stadtwerke/Hallgrafenstr","lat":47.727073,"lng":12.869651,"lines":null,"url":null},{"name":"Reichenbachstraße","lat":47.72277,"lng":12.869696,"lines":null,"url":null},{"name":"Bad Reichenhall Krankenhaus","lat":47.728239,"lng":12.870262,"lines":null,"url":null},{"name":"Reichenbachstraße/Saline","lat":47.723737,"lng":12.871178,"lines":null,"url":null},{"name":"Seniorenwohnen Riedelstr.","lat":47.72955,"lng":12.872795,"lines":null,"url":null},{"name":"Bad Reichenhall Rupertus Therme","lat":47.732028,"lng":12.874583,"lines":null,"url":null},{"name":"Bad Reichenhall Innsbrucker-/Liebigstraße","lat":47.7256166,"lng":12.8753643,"lines":"180, 260","url":null},{"name":"Bad Reichenhall Rosengasse","lat":47.722795,"lng":12.878275,"lines":null,"url":null},{"name":"Kaiserplatz","lat":47.724825,"lng":12.878715,"lines":null,"url":null},{"name":"Bad Reichenhall Kurgastzentrum","lat":47.7283902,"lng":12.8789396,"lines":"180, 260","url":null},{"name":"Grundschule Heilingbrunnerstraße","lat":47.723689,"lng":12.879452,"lines":null,"url":null},{"name":"Bad Reichenhall Hauptbahnhof","lat":47.7311696,"lng":12.8818232,"lines":"180, 260","url":null},{"name":"Frühlingstraße Vogelthennstr","lat":47.735647,"lng":12.885587,"lines":null,"url":null},{"name":"Haus der Jugend","lat":47.733737,"lng":12.88565,"lines":null,"url":null},{"name":"St. Zeno Münster","lat":47.731816,"lng":12.886683,"lines":null,"url":null},{"name":"Bad Reichenhall St. Zeno","lat":47.730384,"lng":12.887051,"lines":null,"url":null},{"name":"Bayerisch Gmain / Am Hessing,Bayerisch Gmain","lat":47.723338,"lng":12.888399,"lines":null,"url":null},{"name":"Bad Reichenhall SpFz St. Zeno","lat":47.732475,"lng":12.888614,"lines":null,"url":null},{"name":"Frühlingstraße Joh.-Häusl-Str","lat":47.738897,"lng":12.88883,"lines":null,"url":null},{"name":"Bayerisch Gmain / Feuerwehrheim,Bayerisch Gmain","lat":47.725375,"lng":12.889351,"lines":null,"url":null},{"name":"St. Zeno Friedhof","lat":47.733333,"lng":12.889459,"lines":null,"url":null},{"name":"Bayerisch Gmain Schillerstraße,Bayerisch Gmain","lat":47.722341,"lng":12.890061,"lines":null,"url":null},{"name":"Klingerweg","lat":47.73532,"lng":12.890743,"lines":null,"url":null},{"name":"Bad Reichenhall Münchner Allee/Barbarossastraße","lat":47.738752,"lng":12.8916059,"lines":"260","url":null},{"name":"Urwies","lat":47.768304,"lng":12.89192,"lines":null,"url":null},{"name":"Bad Reichenhall Barbarossastraße","lat":47.738075,"lng":12.892037,"lines":null,"url":null},{"name":"Mayerhof/Landratsamt","lat":47.738081,"lng":12.893681,"lines":null,"url":null},{"name":"Grabenbachstraße/Saalachstr.","lat":47.742256,"lng":12.895271,"lines":null,"url":null},{"name":"Bayerisch Gmain / Kirchholzstraße,Bayerisch Gmain","lat":47.730142,"lng":12.895271,"lines":null,"url":null},{"name":"Bad Reichenhall Landratsamt","lat":47.739598,"lng":12.895783,"lines":null,"url":null},{"name":"Mauthausen Salzstraße B20","lat":47.757048,"lng":12.899295,"lines":null,"url":null},{"name":"Mauthausen Schloßweg","lat":47.758709,"lng":12.899349,"lines":null,"url":null},{"name":"Bad Reichenhall Grabenbachstraße","lat":47.743935,"lng":12.899394,"lines":null,"url":null},{"name":"Mauthausen / Salzstraße","lat":47.758364,"lng":12.89996,"lines":null,"url":null},{"name":"Bad Reichenhall Staufenbrücke","lat":47.7429565,"lng":12.9018287,"lines":"260","url":null},{"name":"Mauthausen Kapelle","lat":47.750978,"lng":12.903733,"lines":null,"url":null},{"name":"Piding Au / Rupertistraße","lat":47.75898,"lng":12.904587,"lines":null,"url":null},{"name":"Großgmain Staatsgrenze","lat":47.724384,"lng":12.90509,"lines":null,"url":null},{"name":"Großgmain Staatsgrenze","lat":47.7243597,"lng":12.9052692,"lines":"180","url":"https://fahrplan.salzburg-verkehr.at/#P|SQ!evaId|Großgmain%20Staatsgrenze!start|1"},{"name":"Piding Hagebaumarkt","lat":47.754747,"lng":12.906814,"lines":null,"url":null},{"name":"Großgmain Ortsmitte","lat":47.7250788,"lng":12.9080899,"lines":"180","url":"https://fahrplan.salzburg-verkehr.at/#P|SQ!evaId|Großgmain%20Ortsmitte!start|1"},{"name":"Piding Sparkasse","lat":47.759463,"lng":12.908324,"lines":null,"url":null},{"name":"Piding-Au","lat":47.759125,"lng":12.908809,"lines":null,"url":null},{"name":"Bad Reichenhall Weißbach Brücke","lat":47.7457473,"lng":12.9088805,"lines":"260","url":null},{"name":"Großgmain Lindenplatz","lat":47.7254595,"lng":12.9106771,"lines":"180","url":"https://fahrplan.salzburg-verkehr.at/#P|SQ!evaId|Großgmain%20Lindenplatz!start|1"},{"name":"Piding / Freizeitanlage","lat":47.765617,"lng":12.910893,"lines":null,"url":null},{"name":"Piding","lat":47.759542,"lng":12.91153,"lines":null,"url":null},{"name":"Weißbach Obermühle","lat":47.745832,"lng":12.912034,"lines":null,"url":null},{"name":"Piding / Petersplatz","lat":47.769626,"lng":12.912105,"lines":null,"url":null},{"name":"Piding Marzoller Weg","lat":47.762229,"lng":12.912797,"lines":null,"url":null},{"name":"Piding Salzburger Straße","lat":47.770972,"lng":12.914711,"lines":null,"url":null},{"name":"Weißbach Blumenweg","lat":47.747221,"lng":12.914791,"lines":null,"url":null},{"name":"Großgmain Kendler","lat":47.7272179,"lng":12.9148183,"lines":"180","url":"https://fahrplan.salzburg-verkehr.at/#P|SQ!evaId|Großgmain%20Kendler!start|1"},{"name":"Bad Reichenhall Abzw Marzoll/Türk","lat":47.7536114,"lng":12.9170731,"lines":"260","url":null},{"name":"Großgmain Rehab-Zentrum","lat":47.7287467,"lng":12.9190674,"lines":"180","url":"https://fahrplan.salzburg-verkehr.at/#P|SQ!evaId|Großgmain%20Rehab-Zentrum!start|1"},{"name":"Weißbach Rizoller","lat":47.750779,"lng":12.920451,"lines":null,"url":null},{"name":"Großgmain Hinterreith","lat":47.7352117,"lng":12.9232086,"lines":"180","url":"https://fahrplan.salzburg-verkehr.at/#P|SQ!evaId|Großgmain%20Hinterreith!start|1"},{"name":"Bad Reichenhall Abzw Schwarzbach","lat":47.7629658,"lng":12.9254813,"lines":"260","url":null},{"name":"Großgmain Steinerwirt","lat":47.7393924,"lng":12.9265503,"lines":"180","url":"https://fahrplan.salzburg-verkehr.at/#P|SQ!evaId|Großgmain%20Steinerwirt!start|1"},{"name":"Schwarzbach Ort","lat":47.763449,"lng":12.927242,"lines":null,"url":null},{"name":"Marzoll Türk","lat":47.756547,"lng":12.927404,"lines":null,"url":null},{"name":"Schwarzbach Schwimmbad","lat":47.761329,"lng":12.929326,"lines":null,"url":null},{"name":"Marzoll Ort","lat":47.750477,"lng":12.93009,"lines":null,"url":null}],"gauges":[],"depth_map":null}},"country":"DE","last_updated":"2026-05-05T21:18:36.459Z","error":false}