{"id":15257,"slug":"hunte-oberhalb","url":"https://www.hejfish.com/d/15257-hunte-oberhalb","name":"Hunte oberhalb","description":"","water_size_ha":null,"fish":["AalQuappeBachforelleDiv. WeißfischeKarpfenFlussbarschZanderWelsSchleieHecht"],"techniques":["AnsitzangelnFeedern… mehr"],"properties":["kein Boot\nNachtfischenFangmeldung erforderlich\nTechniken:\nAnsitzangelnFeedern… mehr"],"season":null,"water_type":null,"rules_text":"","mobile_ticket":false,"print_required":false,"tickets":[],"manager":null,"main_image":null,"location_info":["Niedersachsen","Kreis Oldenburg"],"lat":null,"lng":null,"geocode_source":null,"map_data":{"data":{"id":15257,"geojson":[],"locations":[{"lat":52.883607,"lng":8.456131},{"lat":52.822841,"lng":8.472949}],"stations":[{"name":"Kleinenkneten Lohmühle","lat":52.848144,"lng":8.449763,"lines":null,"url":null},{"name":"Wildeshausen Drosselweg","lat":52.89026,"lng":8.459021,"lines":null,"url":null},{"name":"Wildeshausen Dianaweg","lat":52.887876,"lng":8.460477,"lines":null,"url":null},{"name":"Garmhausen","lat":52.830416,"lng":8.463889,"lines":null,"url":null},{"name":"Wildeshausen Katenbäke/Hubertusweg","lat":52.888015,"lng":8.464706,"lines":null,"url":null},{"name":"Pestrup Dorf","lat":52.864535,"lng":8.465533,"lines":null,"url":null},{"name":"Wildeshausen Katenbäker Berg","lat":52.890351,"lng":8.465551,"lines":null,"url":null},{"name":"Denghausen","lat":52.824116,"lng":8.465658,"lines":null,"url":null},{"name":"Bühren(Wildeshausen) Abzw. Kleinenkneten","lat":52.85307,"lng":8.467707,"lines":null,"url":null},{"name":"Wildeshausen Elisabethweg","lat":52.888827,"lng":8.468117,"lines":null,"url":null},{"name":"Bühren(Wildeshausen) Dorf","lat":52.843805,"lng":8.471783,"lines":null,"url":null},{"name":"Colnrade Schule","lat":52.822356,"lng":8.478155,"lines":null,"url":null},{"name":"Colnrade Hohnhorst","lat":52.819623,"lng":8.480974,"lines":null,"url":null}],"gauges":[],"depth_map":null}},"country":"DE","last_updated":"2026-05-05T21:19:42.753Z","error":false}