{"id":15270,"slug":"altarm-moormarsch-oberhalb","url":"https://www.hejfish.com/d/15270-altarm-moormarsch-oberhalb","name":"Altarm Moormarsch (oberhalb)","description":"","water_size_ha":null,"fish":["AalQuappeBachforelleDiv. WeißfischeKarpfenFlussbarschZanderWelsSchleieHecht"],"techniques":["AnsitzangelnFeedern… mehr"],"properties":["kein Boot\nNachtfischenFangmeldung erforderlich\nTechniken:\nAnsitzangelnFeedern… mehr"],"season":null,"water_type":null,"rules_text":"","mobile_ticket":false,"print_required":false,"tickets":[],"manager":null,"main_image":null,"location_info":["Niedersachsen","Kreis Oldenburg"],"lat":null,"lng":null,"geocode_source":null,"map_data":{"data":{"id":15270,"geojson":[],"locations":[{"lat":52.881599,"lng":8.463601}],"stations":[{"name":"Wildeshausen Dianaweg","lat":52.887876,"lng":8.460477,"lines":null,"url":null},{"name":"Wildeshausen Katenbäke/Hubertusweg","lat":52.888015,"lng":8.464706,"lines":null,"url":null},{"name":"Wildeshausen Elisabethweg","lat":52.888827,"lng":8.468117,"lines":null,"url":null},{"name":"Wildeshausen Drosselweg","lat":52.89026,"lng":8.459021,"lines":null,"url":null},{"name":"Wildeshausen Katenbäker Berg","lat":52.890351,"lng":8.465551,"lines":null,"url":null}],"gauges":[],"depth_map":null}},"country":"DE","last_updated":"2026-05-05T21:20:20.005Z","error":false}