{"id":15299,"slug":"donau-stephansposching","url":"https://www.hejfish.com/d/15299-donau-stephansposching","name":"Donau Stephansposching","description":"","water_size_ha":null,"fish":["AalQuappeAlandBarbeBrasseDöbelFlussbarschGiebelHechtKarpfenLaubeNaseRotaugeRotfederRapfenSchleieSchwarzmund-GrundelWelsZander"],"techniques":["AnsitzangelnFeedern… mehr"],"properties":["kein Boot\nNachtfischen\nÖffisFangmeldung erforderlich\nTechniken:\nAnsitzangelnFeedern… mehr"],"season":null,"water_type":null,"rules_text":"","mobile_ticket":false,"print_required":false,"tickets":[],"manager":null,"main_image":null,"location_info":["Bayern","Kreis Deggendorf"],"lat":null,"lng":null,"geocode_source":null,"map_data":{"data":{"id":15299,"geojson":[],"locations":[{"lat":48.843435,"lng":12.76178},{"lat":48.844386,"lng":12.765814},{"lat":48.824142,"lng":12.801295},{"lat":48.825775,"lng":12.80339}],"stations":[{"name":"Irlbach, Ortsmitte","lat":48.840992,"lng":12.752358,"lines":null,"url":null},{"name":"Irlbach, Donaustraße","lat":48.843126,"lng":12.758988,"lines":null,"url":null},{"name":"Irlbach, Hackl","lat":48.845225,"lng":12.760667,"lines":null,"url":null},{"name":"Loh bei Wischlburg, Kirche","lat":48.825115,"lng":12.769893,"lines":null,"url":null},{"name":"Petzendorf","lat":48.852721,"lng":12.771366,"lines":null,"url":null},{"name":"Waltendorf, Oberes Dorf","lat":48.848476,"lng":12.771672,"lines":null,"url":null},{"name":"Waltendorf, Kirche","lat":48.845119,"lng":12.775526,"lines":null,"url":null},{"name":"Waltendorf, Siedlung","lat":48.845727,"lng":12.776999,"lines":null,"url":null},{"name":"Wischlburg,Wh.","lat":48.827563,"lng":12.777987,"lines":null,"url":null},{"name":"Asbach, Abzw Aicha b. Loham","lat":48.850622,"lng":12.788371,"lines":null,"url":null},{"name":"Aspenbuckel","lat":48.848098,"lng":12.790905,"lines":null,"url":null},{"name":"Loham, Fuchsenhöhe","lat":48.845184,"lng":12.795836,"lines":null,"url":null},{"name":"Stephansposching, Fa. Winkler","lat":48.817598,"lng":12.797579,"lines":null,"url":null},{"name":"Loham","lat":48.84244,"lng":12.799996,"lines":null,"url":null},{"name":"Stephansposching, Post","lat":48.81564,"lng":12.801837,"lines":null,"url":null},{"name":"Stephansposching, Rathaus","lat":48.816616,"lng":12.804236,"lines":null,"url":null},{"name":"Loham, Gewerbegebiet","lat":48.838662,"lng":12.805835,"lines":null,"url":null},{"name":"Leonhardi","lat":48.835612,"lng":12.807317,"lines":null,"url":null},{"name":"Mariaposching","lat":48.826623,"lng":12.807712,"lines":null,"url":null}],"gauges":[{"id":69,"name":"Pfelling","lat":48.879766,"lng":12.747217}],"depth_map":null}},"country":"DE","last_updated":"2026-05-05T21:21:26.538Z","error":false}