{"id":15290,"slug":"grosse-vils-bierbach-stephansbruennelbach-nur-vereinsmitglieder","url":"https://www.hejfish.com/d/15290-grosse-vils-bierbach-stephansbruennelbach-nur-vereinsmitglieder","name":"Große Vils, Bierbach & Stephansbrünnelbach - Nur Vereinsmitglieder -","description":"","water_size_ha":null,"fish":["LaubeRegenbogenforelleBachforelleHechtZanderQuappeAalBarbeDöbelKarpfenSchleieBrasseFlussbarschRotaugeRotfeder"],"techniques":["AnsitzangelnFeedern… mehr"],"properties":["kein Boot\nNachtfischen\nÖffis\nTechniken:\nAnsitzangelnFeedern… mehr"],"season":null,"water_type":null,"rules_text":"","mobile_ticket":false,"print_required":false,"tickets":[],"manager":null,"main_image":null,"location_info":["Bayern","Kreis Erding"],"lat":null,"lng":null,"geocode_source":null,"map_data":{"data":{"id":15290,"geojson":{"type":"FeatureCollection","features":[{"type":"Feature","properties":{"name":"Parkplatz","marker-color":"#ceb40d","marker-size":"medium"},"geometry":{"coordinates":[12.142542818914592,48.34407825024775],"type":"Point"},"id":0},{"type":"Feature","properties":{"name":"Parkplatz","marker-color":"#ceb40d","marker-size":"medium"},"geometry":{"coordinates":[12.129657424431741,48.34493402163773],"type":"Point"},"id":1}]},"locations":[{"lat":48.32263,"lng":12.1243},{"lat":48.33844,"lng":12.1253},{"lat":48.3435,"lng":12.14321},{"lat":48.34601,"lng":12.1209}],"stations":[{"name":"Angerskirchen","lat":48.314621,"lng":12.11176,"lines":null,"url":null},{"name":"Taufkirchen (Vils), Fichtenstr","lat":48.344166,"lng":12.116198,"lines":null,"url":null},{"name":"Babing","lat":48.314973,"lng":12.119351,"lines":null,"url":null},{"name":"Kienraching","lat":48.321216,"lng":12.121938,"lines":null,"url":null},{"name":"Taufk.(Vils) Olaf-Gulbrs.-Str.","lat":48.347116,"lng":12.122235,"lines":null,"url":null},{"name":"Taufkirchen (Vils), Erdinger Str","lat":48.344632,"lng":12.124166,"lines":null,"url":null},{"name":"Frauenvils","lat":48.32606,"lng":12.124732,"lines":null,"url":null},{"name":"Taufkirchen (Vils), Realschule","lat":48.345181,"lng":12.126196,"lines":null,"url":null},{"name":"Solching","lat":48.332283,"lng":12.128846,"lines":null,"url":null},{"name":"Taufkirchen (Vils), Busbahnhof","lat":48.345121,"lng":12.129322,"lines":null,"url":null},{"name":"Taufkirchen (Vils), Bahnhofstr","lat":48.339431,"lng":12.12996,"lines":null,"url":null},{"name":"Taufkirchen (Vils), Wieshofstr","lat":48.340375,"lng":12.130068,"lines":null,"url":null},{"name":"Taufkirchen(Vils), Friedhof","lat":48.335753,"lng":12.130311,"lines":null,"url":null},{"name":"Taufkirchen (Vils), Himolla","lat":48.349122,"lng":12.130508,"lines":null,"url":null},{"name":"Taufkirchen (Vils), Gewerbegeb.","lat":48.352829,"lng":12.131236,"lines":null,"url":null},{"name":"Taufkirchen (Vils), Bahnhof","lat":48.3385,"lng":12.131317,"lines":null,"url":null},{"name":"Taufkirchen (Vils) Bräuhausstr","lat":48.345623,"lng":12.132377,"lines":null,"url":null},{"name":"Taufkirchen (Vils), Bräuhausstraße","lat":48.346477,"lng":12.133985,"lines":null,"url":null},{"name":"Taufkirchen (Vils), Brunnholzring","lat":48.350895,"lng":12.135404,"lines":null,"url":null},{"name":"Ratzing, Abzw.","lat":48.34693,"lng":12.150442,"lines":null,"url":null}],"gauges":[],"depth_map":null}},"country":"DE","last_updated":"2026-05-05T21:21:02.224Z","error":false}