{"id":15304,"slug":"donau-bei-winzer-koppelrecht-josef-knapp","url":"https://www.hejfish.com/d/15304-donau-bei-winzer-koppelrecht-josef-knapp","name":"Donau bei Winzer (Koppelrecht Josef Knapp)","description":"","water_size_ha":null,"fish":["AalHechtZanderWelsDöbelFlussbarschNaseBrasseAlandRotaugeKarpfenSchleieQuappeBarbe"],"techniques":["AnsitzangelnFeedern… mehr"],"properties":["kein Boot\nNachtfischen\nTechniken:\nAnsitzangelnFeedern… mehr"],"season":null,"water_type":null,"rules_text":"","mobile_ticket":false,"print_required":false,"tickets":[],"manager":null,"main_image":null,"location_info":["Bayern","Kreis Deggendorf"],"lat":null,"lng":null,"geocode_source":null,"map_data":{"data":{"id":15304,"geojson":[],"locations":[{"lat":48.68953,"lng":13.08643},{"lat":48.689583,"lng":13.084999},{"lat":48.720548,"lng":13.039639},{"lat":48.720104,"lng":13.040451}],"stations":[{"name":"Ruckasing","lat":48.712721,"lng":13.033612,"lines":null,"url":null},{"name":"Arbing bei Osterhofen, Abzw","lat":48.690903,"lng":13.037025,"lines":null,"url":null},{"name":"Mahd, Abzw","lat":48.695967,"lng":13.044293,"lines":null,"url":null},{"name":"Käferling, Abzw","lat":48.684706,"lng":13.047122,"lines":null,"url":null},{"name":"Roßfelden, Abzw","lat":48.710889,"lng":13.04856,"lines":null,"url":null},{"name":"Angerpoint","lat":48.680169,"lng":13.052916,"lines":null,"url":null},{"name":"Arbing bei Osterhofen Wh","lat":48.702175,"lng":13.056016,"lines":null,"url":null},{"name":"Arbing bei Osterhofen, Wh.","lat":48.697147,"lng":13.058019,"lines":null,"url":null},{"name":"Zainach bei Osterhofen","lat":48.711287,"lng":13.060956,"lines":null,"url":null},{"name":"Arbing bei Osterhofen, Kirche","lat":48.698304,"lng":13.063975,"lines":null,"url":null},{"name":"Winzer, Feuerwehrhaus","lat":48.727928,"lng":13.066113,"lines":null,"url":null},{"name":"Oberwinzer, Gh Schrenck","lat":48.727205,"lng":13.067218,"lines":null,"url":null},{"name":"Langburg","lat":48.681753,"lng":13.067613,"lines":null,"url":null},{"name":"Unterwinzer, Kirche","lat":48.723111,"lng":13.076506,"lines":null,"url":null},{"name":"Endlau, Abzw Schnelldorf","lat":48.693862,"lng":13.080081,"lines":null,"url":null},{"name":"Bergham b.Winzer, Siedlung Wh","lat":48.730038,"lng":13.084807,"lines":null,"url":null},{"name":"Grafenhölzl, Abzw","lat":48.719324,"lng":13.08504,"lines":null,"url":null},{"name":"Loh bei Winzer","lat":48.716028,"lng":13.093502,"lines":null,"url":null}],"gauges":[{"id":68,"name":"Vilshofen","lat":48.637297,"lng":13.182429},{"id":43,"name":"Hofkirchen","lat":48.676675,"lng":13.115154}],"depth_map":null}},"country":"DE","last_updated":"2026-05-05T21:21:33.363Z","error":false}