{"id":15338,"slug":"fsv-ungedanken-vereinsgewaesser","url":"https://www.hejfish.com/d/15338-fsv-ungedanken-vereinsgewaesser","name":"FSV Ungedanken - Vereinsgewässer","description":"","water_size_ha":null,"fish":[],"techniques":[],"properties":["kein Boot\nKein Nachtfischen\nTechniken:"],"season":null,"water_type":null,"rules_text":"","mobile_ticket":false,"print_required":true,"tickets":[],"manager":null,"main_image":null,"location_info":["Hessen","Kreis Waldeck-Frankenberg"],"lat":null,"lng":null,"geocode_source":null,"map_data":{"data":{"id":15338,"geojson":[],"locations":[{"lat":51.127624,"lng":9.221044}],"stations":[{"name":"Fritzlar-Ungedanken Hauptstraße","lat":51.124322,"lng":9.219096,"lines":null,"url":null},{"name":"Fritzlar-Ungedanken Jüdischer Friedhof","lat":51.120886,"lng":9.220722,"lines":null,"url":null},{"name":"Fritzlar-Ungedanken Bahnhof","lat":51.124499,"lng":9.220939,"lines":null,"url":null},{"name":"Fritzlar-Ungedanken Dorfgemeinschaftshaus","lat":51.123805,"lng":9.221536,"lines":null,"url":null}],"gauges":[],"depth_map":null}},"country":"DE","last_updated":"2026-05-05T21:22:40.657Z","error":false}