{"id":15330,"slug":"saechsische-saale","url":"https://www.hejfish.com/d/15330-saechsische-saale","name":"Sächsische Saale","description":"","water_size_ha":null,"fish":["AalÄscheBachforelleDöbelDiv. WeißfischeQuappeHecht"],"techniques":["AnsitzangelnNaturköderangeln… mehr"],"properties":["kein Boot\nNachtfischen\nÖffisFangmeldung erforderlich\nTechniken:\nAnsitzangelnNaturköderangeln… mehr"],"season":null,"water_type":null,"rules_text":"","mobile_ticket":false,"print_required":false,"tickets":[],"manager":null,"main_image":null,"location_info":["Bayern","Kreis Hof"],"lat":null,"lng":null,"geocode_source":null,"map_data":{"data":{"id":15330,"geojson":[],"locations":[{"lat":50.185202,"lng":11.845717},{"lat":50.211278,"lng":11.869694}],"stations":[{"name":"Weißdorf","lat":50.185975,"lng":11.847575,"lines":null,"url":null},{"name":"Bug","lat":50.193308,"lng":11.847898,"lines":null,"url":null},{"name":"Weißdorf Schule","lat":50.183899,"lng":11.848114,"lines":null,"url":null},{"name":"Bug, Abzw","lat":50.198685,"lng":11.852543,"lines":null,"url":null},{"name":"Benk Weißdorf","lat":50.176047,"lng":11.8644,"lines":null,"url":null},{"name":"Bärlas","lat":50.194965,"lng":11.865721,"lines":null,"url":null},{"name":"Seulbitz","lat":50.209822,"lng":11.868775,"lines":null,"url":null}],"gauges":[{"id":1981,"name":"Hof","lat":50.3240077,"lng":11.9145268},{"id":1980,"name":"Oberkotzau","lat":50.2628112,"lng":11.9326937},{"id":1979,"name":"Weißdorf","lat":50.1862099,"lng":11.8463974}],"depth_map":null}},"country":"DE","last_updated":"2026-05-05T21:22:29.875Z","error":false}