{"id":15390,"slug":"schwarzweiher-bei-jarzt","url":"https://www.hejfish.com/d/15390-schwarzweiher-bei-jarzt","name":"Schwarzweiher bei Jarzt","description":"","water_size_ha":null,"fish":["SchuppenkarpfenSpiegelkarpfenAmurSchleieHechtZanderBrasseAalRotaugeRotfederKarauscheFlussbarsch"],"techniques":["AnsitzangelnFeedern… mehr"],"properties":["kein Boot\nKein NachtfischenFangmeldung erforderlich\nTechniken:\nAnsitzangelnFeedern… mehr"],"season":null,"water_type":null,"rules_text":"","mobile_ticket":false,"print_required":true,"tickets":[],"manager":null,"main_image":null,"location_info":["Bayern","Kreis Freising"],"lat":null,"lng":null,"geocode_source":null,"map_data":{"data":{"id":15390,"geojson":[],"locations":[{"lat":48.361182,"lng":11.568885}],"stations":[{"name":"Jarzt","lat":48.361466,"lng":11.563025,"lines":null,"url":null}],"gauges":[{"id":1600,"name":"Deutenhofen","lat":48.3675807,"lng":11.2761804},{"id":1387,"name":"Pfaffenhofen","lat":48.5259136,"lng":11.5024471},{"id":1561,"name":"Stegmaier","lat":48.2630373,"lng":11.8393755},{"id":1557,"name":"München Himmelreichbrücke","lat":48.1466988,"lng":11.5909162},{"id":1562,"name":"Oberding","lat":48.3182641,"lng":11.8204919},{"id":1590,"name":"Dachau","lat":48.2334677,"lng":11.4370078},{"id":1560,"name":"Freising","lat":48.4050937,"lng":11.7623064},{"id":1591,"name":"Bergkirchen","lat":48.2518833,"lng":11.3647805},{"id":1602,"name":"Hohenkammer","lat":48.4265581,"lng":11.5261551},{"id":1558,"name":"München Tierärztl. Hochschule","lat":48.1511433,"lng":11.5873482},{"id":1559,"name":"Freising","lat":48.4080949,"lng":11.7781592},{"id":1569,"name":"Inkofen","lat":48.4606575,"lng":11.8655273},{"id":1594,"name":"Obermenzing","lat":48.1671913,"lng":11.4589092},{"id":1601,"name":"Indersdorf","lat":48.3586567,"lng":11.3731231},{"id":1385,"name":"Pfaffenhofen","lat":48.5268266,"lng":11.5076259},{"id":1568,"name":"Ampermoching","lat":48.2971269,"lng":11.4919537},{"id":1384,"name":"Thalmannsdorf","lat":48.4306563,"lng":11.380437},{"id":1511,"name":"Freising","lat":48.3981362,"lng":11.7522685},{"id":1510,"name":"München","lat":48.1453412,"lng":11.5968443}],"depth_map":null}},"country":"DE","last_updated":"2026-05-05T21:23:46.326Z","error":false}