{"id":15430,"slug":"verlorener-bach-pestenacker","url":"https://www.hejfish.com/d/15430-verlorener-bach-pestenacker","name":"Verlorener Bach Pestenacker","description":"","water_size_ha":null,"fish":["Bachforelle"],"techniques":["FliegenfischenSpinnangeln"],"properties":["kein Boot\nKein NachtfischenFangmeldung erforderlich\nTechniken:\nFliegenfischenSpinnangeln"],"season":null,"water_type":null,"rules_text":"","mobile_ticket":false,"print_required":false,"tickets":[],"manager":null,"main_image":null,"location_info":["Bayern","Kreis Landsberg am Lech"],"lat":null,"lng":null,"geocode_source":null,"map_data":{"data":{"id":15430,"geojson":[],"locations":[{"lat":48.13796,"lng":10.94061},{"lat":48.16201,"lng":10.93181}],"stations":[{"name":"Neuweil","lat":48.129086,"lng":10.937177,"lines":null,"url":null},{"name":"Adelshausen","lat":48.144127,"lng":10.93936,"lines":null,"url":null},{"name":"Pestenacker Raiffeisenbank","lat":48.15573,"lng":10.942271,"lines":null,"url":null},{"name":"Pestenacker, Ort","lat":48.154975,"lng":10.943421,"lines":null,"url":null},{"name":"Pestenacker Steinplatt","lat":48.151319,"lng":10.946466,"lines":null,"url":null}],"gauges":[],"depth_map":null}},"country":"DE","last_updated":"2026-05-05T21:24:49.186Z","error":false}