{"id":15449,"slug":"lech-bei-fuessen","url":"https://www.hejfish.com/d/15449-lech-bei-fuessen","name":"Lech bei Füssen","description":"","water_size_ha":null,"fish":["BachforelleRegenbogenforelleSaiblingHuchenÄsche"],"techniques":["FliegenfischenSpinnangeln"],"properties":["kein Boot\nKein Nachtfischen\nÖffisFangmeldung erforderlich\nTechniken:\nFliegenfischenSpinnangeln"],"season":null,"water_type":null,"rules_text":"","mobile_ticket":false,"print_required":false,"tickets":[],"manager":null,"main_image":null,"location_info":["Bayern","Kreis Ostallgäu"],"lat":null,"lng":null,"geocode_source":null,"map_data":{"data":{"id":15449,"geojson":{"type":"FeatureCollection","features":[{"type":"Feature","properties":{"name":"Anfang Fliegenstrecke Richtung Süden","marker-color":"#f2d545","marker-size":"medium","marker-symbol":"circle"},"geometry":{"coordinates":[10.69482488016672,47.56174969174853],"type":"Point"},"id":0}]},"locations":[{"lat":47.566928,"lng":10.710495},{"lat":47.556883,"lng":10.684148},{"lat":47.556638,"lng":10.682502},{"lat":47.557327,"lng":10.677628}],"stations":[{"name":"Pinswang (Tirol) Weißhaus","lat":47.5561372,"lng":10.6868257,"lines":"100","url":"https://smartride.vvt.at/"},{"name":"Füssen Ziegelwies","lat":47.5580711,"lng":10.6939853,"lines":"100","url":null},{"name":"Füssen Tirolerstraße","lat":47.5651634,"lng":10.7002196,"lines":"100","url":null},{"name":"Schwangau, Horn","lat":47.567455,"lng":10.719776,"lines":null,"url":null},{"name":"Füssen, Morisse","lat":47.56777,"lng":10.694569,"lines":null,"url":null},{"name":"Füssen, Kemptener-/Birkstr. RS","lat":47.568139,"lng":10.684724,"lines":null,"url":null},{"name":"Füssen, Kemptener Str./Festpl.","lat":47.568327,"lng":10.675812,"lines":null,"url":null},{"name":"Füssen Pulverturm","lat":47.5684122,"lng":10.7043249,"lines":"100","url":null},{"name":"Füssen Bahnhof","lat":47.5704971,"lng":10.6978121,"lines":"100","url":null},{"name":"Füssen, Lehmannstr. RS","lat":47.570509,"lng":10.685173,"lines":null,"url":null},{"name":"Füssen, Gernspitzstr.","lat":47.5708,"lng":10.706005,"lines":null,"url":null},{"name":"Füssen, v. Freyberg/Herkomer","lat":47.571534,"lng":10.690904,"lines":null,"url":null},{"name":"Füssen, Augsburgerstr(Kurpark)","lat":47.572043,"lng":10.701747,"lines":null,"url":null},{"name":"Füssen, v. Freyberg/Kreuzstr.","lat":47.572206,"lng":10.687652,"lines":null,"url":null},{"name":"Füssen, Froschensee/Hiebeler","lat":47.572643,"lng":10.676953,"lines":null,"url":null},{"name":"Füssen, Welfenstr. (REWE)","lat":47.572752,"lng":10.684966,"lines":null,"url":null},{"name":"Füssen, Welfen/Ostlandstraße","lat":47.573079,"lng":10.681077,"lines":null,"url":null},{"name":"Füssen, Grund-/Mittelschule","lat":47.573249,"lng":10.700534,"lines":null,"url":null},{"name":"Füssen, Froschensee/Welfenstr","lat":47.573497,"lng":10.677879,"lines":null,"url":null},{"name":"Füssen, Schulzentrum Taxisweg","lat":47.573855,"lng":10.702753,"lines":null,"url":null},{"name":"Füssen, Gymnasium","lat":47.574,"lng":10.699761,"lines":null,"url":null},{"name":"Füssen, Erich Kästner Schule","lat":47.574606,"lng":10.699797,"lines":null,"url":null},{"name":"Füssen, Kreuzkopfstr.","lat":47.575079,"lng":10.70755,"lines":null,"url":null},{"name":"Füssen, Mariahilferstraße","lat":47.575406,"lng":10.684607,"lines":null,"url":null},{"name":"Füssen, Mariah./Froschenseestr","lat":47.575927,"lng":10.67937,"lines":null,"url":null}],"gauges":[{"id":1290,"name":"Rottachsee","lat":47.6327751,"lng":10.3638087},{"id":1353,"name":"Wertach","lat":47.6004803,"lng":10.4202278},{"id":1338,"name":"Moos","lat":47.572441,"lng":10.6476916},{"id":1337,"name":"Vilsen","lat":47.602069,"lng":10.6826008},{"id":1540,"name":"Griesen","lat":47.4771845,"lng":10.9403987},{"id":1340,"name":"Brunnen","lat":47.5872597,"lng":10.7515941},{"id":1339,"name":"Eschach","lat":47.5869866,"lng":10.683926},{"id":1336,"name":"Vils (Lände)","lat":47.5515475,"lng":10.6507979},{"id":1355,"name":"Leuterschach","lat":47.7481077,"lng":10.5833211},{"id":1342,"name":"Trauchgau","lat":47.6474316,"lng":10.8197182},{"id":1354,"name":"Görisried","lat":47.7059003,"lng":10.5111239},{"id":1575,"name":"Unternogg","lat":47.6443617,"lng":10.9659306},{"id":1343,"name":"Engen","lat":47.7267444,"lng":10.8918139},{"id":1341,"name":"Trauchgau","lat":47.6103521,"lng":10.8252573},{"id":1335,"name":"Pfronten Ried","lat":47.5806926,"lng":10.5575327},{"id":1289,"name":"Gschwend","lat":47.6487276,"lng":10.4122277},{"id":1349,"name":"Thalhofen","lat":47.7734131,"lng":10.5954215},{"id":1348,"name":"Haslach Werksabfluss","lat":47.6209228,"lng":10.4618524},{"id":1347,"name":"Grüntensee Seepegel","lat":47.6202768,"lng":10.4588799},{"id":1346,"name":"Sebastianskapelle","lat":47.6018293,"lng":10.4231911},{"id":1345,"name":"Wertach","lat":47.5849608,"lng":10.4091149},{"id":1331,"name":"Lechbruck","lat":47.6981636,"lng":10.7979982},{"id":1330,"name":"Roßhaupten Seepegel","lat":47.6548677,"lng":10.7447852},{"id":1329,"name":"Füssen","lat":47.5659134,"lng":10.7003477}],"depth_map":null}},"country":"DE","last_updated":"2026-05-05T21:25:37.263Z","error":false}