{"id":15457,"slug":"altenstadter-kanal-muehlbach","url":"https://www.hejfish.com/d/15457-altenstadter-kanal-muehlbach","name":"Altenstadter Kanal (Mühlbach)","description":"","water_size_ha":null,"fish":["ÄscheBachforelleBarbeHechtKarauscheNaseRegenbogenforelleRotaugeRotfeder"],"techniques":["AnsitzangelnFeedern… mehr"],"properties":["kein Boot\nNachtfischen\nÖffis\nTechniken:\nAnsitzangelnFeedern… mehr"],"season":null,"water_type":null,"rules_text":"","mobile_ticket":false,"print_required":false,"tickets":[],"manager":null,"main_image":null,"location_info":["Bayern","Kreis Neu-Ulm"],"lat":null,"lng":null,"geocode_source":null,"map_data":{"data":{"id":15457,"geojson":[],"locations":[{"lat":48.262617,"lng":10.080367},{"lat":48.289942,"lng":10.076695}],"stations":[{"name":"Vöhringen Zum Klärwerk","lat":48.286809,"lng":10.069234,"lines":null,"url":null},{"name":"Vöhringen R.-Bosch-Straße Nord","lat":48.295482,"lng":10.070303,"lines":null,"url":null},{"name":"Vöhringen Illerzeller Straße","lat":48.283229,"lng":10.070761,"lines":null,"url":null},{"name":"Vöhringen Gleisweg","lat":48.280455,"lng":10.072863,"lines":null,"url":null},{"name":"Vöhringen Wieland-Werke","lat":48.277675,"lng":10.073824,"lines":null,"url":null},{"name":"Vöhringen R.-Bosch-Straße Süd","lat":48.292732,"lng":10.074283,"lines":null,"url":null},{"name":"Vöhringen Kirchplatz","lat":48.275792,"lng":10.075217,"lines":null,"url":null},{"name":"Vöhringen Grundschule Nord","lat":48.284155,"lng":10.07545,"lines":null,"url":null},{"name":"Vöhringen Rathaus","lat":48.276629,"lng":10.075855,"lines":null,"url":null},{"name":"Vöhringen Realschule","lat":48.274255,"lng":10.075882,"lines":null,"url":null},{"name":"Vöhringen Rudolf-Diesel-Straße","lat":48.288728,"lng":10.076753,"lines":null,"url":null},{"name":"Vöhringen Alter Friedhof","lat":48.280042,"lng":10.077768,"lines":null,"url":null},{"name":"Vöhringen Am Kurzen Bach","lat":48.28333,"lng":10.07784,"lines":null,"url":null},{"name":"Vöhringen Fa. Fromm","lat":48.279361,"lng":10.077975,"lines":null,"url":null},{"name":"Vöhringen Nibelungenstraße","lat":48.26998,"lng":10.078262,"lines":null,"url":null},{"name":"Vöhringen Ulmer Straße","lat":48.277484,"lng":10.078711,"lines":null,"url":null},{"name":"Vöhringen Memminger Straße","lat":48.276647,"lng":10.079008,"lines":null,"url":null},{"name":"Vöhringen Martin-Luther-Kirche","lat":48.274243,"lng":10.080885,"lines":null,"url":null},{"name":"Vöhringen Beim Kreuz","lat":48.271278,"lng":10.082682,"lines":null,"url":null},{"name":"Bellenberg Leipziger Straße","lat":48.259234,"lng":10.08296,"lines":null,"url":null},{"name":"Vöhringen","lat":48.279092,"lng":10.083625,"lines":null,"url":null},{"name":"Vöhringen Sonnenstraße","lat":48.280766,"lng":10.085871,"lines":null,"url":null},{"name":"Vöhringen Haselnussweg","lat":48.278781,"lng":10.086329,"lines":null,"url":null},{"name":"Vöhringen Rue de Vizille","lat":48.27737,"lng":10.0865,"lines":null,"url":null},{"name":"Bellenberg Troppauer Straße","lat":48.255394,"lng":10.087048,"lines":null,"url":null},{"name":"Vöhringen Münchner Straße","lat":48.282786,"lng":10.088593,"lines":null,"url":null}],"gauges":[],"depth_map":null}},"country":"DE","last_updated":"2026-05-05T21:25:58.376Z","error":false}