{"id":15506,"slug":"tirschenreuther-waldnaab-bei-hohenthan","url":"https://www.hejfish.com/d/15506-tirschenreuther-waldnaab-bei-hohenthan","name":"Tirschenreuther Waldnaab bei Hohenthan","description":"","water_size_ha":null,"fish":["BachforelleÄscheRegenbogenforelleElritzeFlussbarschBachsaibling"],"techniques":["FliegenfischenNaturköderangeln… mehr"],"properties":["kein Boot\nKein NachtfischenFangmeldung erforderlich\nTechniken:\nFliegenfischenNaturköderangeln… mehr"],"season":null,"water_type":null,"rules_text":"","mobile_ticket":false,"print_required":false,"tickets":[],"manager":null,"main_image":null,"location_info":["Bayern","Kreis Tirschenreuth"],"lat":null,"lng":null,"geocode_source":null,"map_data":{"data":{"id":15506,"geojson":[],"locations":[{"lat":49.808518,"lng":12.363826},{"lat":49.811334,"lng":12.391554}],"stations":[{"name":"Ziegelhütte bei Hohenthan","lat":49.798544,"lng":12.35992,"lines":null,"url":null},{"name":"Thanhausen, Flusshüttenweg 10","lat":49.800191,"lng":12.398772,"lines":null,"url":null},{"name":"Hohenthan, Umgehung","lat":49.801588,"lng":12.382252,"lines":null,"url":null},{"name":"Thanhausen, Schlossplatz","lat":49.803055,"lng":12.400704,"lines":null,"url":null},{"name":"Hohenthan","lat":49.803229,"lng":12.386564,"lines":null,"url":null},{"name":"Thanhausen, Kreuz","lat":49.803785,"lng":12.397892,"lines":null,"url":null},{"name":"Kaltenmühle","lat":49.804649,"lng":12.39172,"lines":null,"url":null},{"name":"Bartmühle","lat":49.811287,"lng":12.401548,"lines":null,"url":null},{"name":"Iglersreuth","lat":49.813467,"lng":12.370817,"lines":null,"url":null},{"name":"Aussiedlerhof Gleißner","lat":49.815652,"lng":12.384489,"lines":null,"url":null},{"name":"Birkholmhof","lat":49.816614,"lng":12.390319,"lines":null,"url":null}],"gauges":[],"depth_map":null}},"country":"DE","last_updated":"2026-05-05T21:26:51.856Z","error":false}