{"id":15547,"slug":"grosse-hase","url":"https://www.hejfish.com/d/15547-grosse-hase","name":"Große Hase","description":"","water_size_ha":null,"fish":["AalForelleFlussbarschDiv. WeißfischeDöbelHechtWelsZanderBarbeKarpfenQuappeSchleie"],"techniques":["AnsitzangelnFeedern… mehr"],"properties":["kein Boot\nNachtfischenFangmeldung erforderlich\nTechniken:\nAnsitzangelnFeedern… mehr"],"season":null,"water_type":null,"rules_text":"","mobile_ticket":false,"print_required":false,"tickets":[],"manager":null,"main_image":null,"location_info":["Niedersachsen","Kreis Cloppenburg"],"lat":null,"lng":null,"geocode_source":null,"map_data":{"data":{"id":15547,"geojson":[],"locations":[{"lat":52.718360498815,"lng":7.9090081693093},{"lat":52.722600501817,"lng":7.877956626982},{"lat":52.72097950473,"lng":7.867276253964}],"stations":[{"name":"Ahausen(Essen(Oldb)) Poggenschlot","lat":52.713133,"lng":7.907064,"lines":null,"url":null},{"name":"Essen(Oldenburg)-Ahausen Grüß","lat":52.723596,"lng":7.914159,"lines":null,"url":null},{"name":"Farwick(Löningen) Ort","lat":52.724331,"lng":7.874903,"lines":null,"url":null},{"name":"Sandloh Sextro","lat":52.729919,"lng":7.917189,"lines":null,"url":null},{"name":"Bunnen Ort","lat":52.73021,"lng":7.859459,"lines":null,"url":null},{"name":"Bunnen Grundschule","lat":52.731605,"lng":7.861407,"lines":null,"url":null}],"gauges":[],"depth_map":null}},"country":"DE","last_updated":"2026-05-05T21:28:12.591Z","error":false}