{"id":15542,"slug":"calhorner-muehlenbach","url":"https://www.hejfish.com/d/15542-calhorner-muehlenbach","name":"Calhorner Mühlenbach","description":"","water_size_ha":null,"fish":["AalForelleFlussbarschDiv. WeißfischeDöbelHechtBarbeKarpfenQuappeZanderSchleie"],"techniques":["AnsitzangelnFeedern… mehr"],"properties":["kein Boot\nNachtfischen\nÖffisFangmeldung erforderlich\nTechniken:\nAnsitzangelnFeedern… mehr"],"season":null,"water_type":null,"rules_text":"","mobile_ticket":false,"print_required":false,"tickets":[],"manager":null,"main_image":null,"location_info":["Niedersachsen","Kreis Cloppenburg"],"lat":null,"lng":null,"geocode_source":null,"map_data":{"data":{"id":15542,"geojson":[],"locations":[{"lat":52.708746246943,"lng":8.0110625073121},{"lat":52.778550142286,"lng":8.0409266613813},{"lat":52.713039002371,"lng":8.0114718306907},{"lat":52.72816304778,"lng":8.0166489153453},{"lat":52.742044533025,"lng":8.022457}],"stations":[{"name":"Uptloh Wulfenauer Straße","lat":52.703546,"lng":8.006064,"lines":null,"url":null},{"name":"Lage(Essen(Oldb)) Lager Mühle","lat":52.711948,"lng":8.04681,"lines":null,"url":null},{"name":"Addrup alte K 280","lat":52.715936,"lng":8.028229,"lines":null,"url":null},{"name":"Addrup Schmiede","lat":52.722942,"lng":8.026489,"lines":null,"url":null},{"name":"Bevern(Essen(Oldb)) Feuerwehr","lat":52.725463,"lng":8.007483,"lines":null,"url":null},{"name":"Bevern(Essen(Oldb)) Grundschule","lat":52.725878,"lng":8.003225,"lines":null,"url":null},{"name":"Addrup Wernsing","lat":52.726386,"lng":8.034665,"lines":null,"url":null},{"name":"Addrup Kriegerdenkmal","lat":52.727483,"lng":8.020505,"lines":null,"url":null},{"name":"Bevern(Essen(Oldb)) Kirche","lat":52.727923,"lng":8.0093,"lines":null,"url":null},{"name":"Stadtsholte(Essen(Oldb))","lat":52.72855,"lng":8.049099,"lines":null,"url":null},{"name":"Calhorn Mühle","lat":52.743343,"lng":8.018716,"lines":null,"url":null},{"name":"Calhorn Müller","lat":52.743548,"lng":8.038583,"lines":null,"url":null},{"name":"Calhorn Schierholt","lat":52.748893,"lng":8.018497,"lines":null,"url":null},{"name":"Calhorn Wilking","lat":52.751147,"lng":8.027542,"lines":null,"url":null},{"name":"Darrel Calhorner Kirchweg","lat":52.752397,"lng":8.004338,"lines":null,"url":null},{"name":"Darrel Warnstedter Straße","lat":52.760609,"lng":8.011558,"lines":null,"url":null},{"name":"Warnstedt(Cappeln) Wilking","lat":52.778452,"lng":8.038192,"lines":null,"url":null},{"name":"Elsten Kirche","lat":52.778799,"lng":8.050167,"lines":null,"url":null},{"name":"Warnstedt(Cappeln) ehem. Schule","lat":52.779248,"lng":8.023548,"lines":null,"url":null}],"gauges":[],"depth_map":null}},"country":"DE","last_updated":"2026-05-05T21:27:58.420Z","error":false}