{"id":15636,"slug":"speldroper-see","url":"https://www.hejfish.com/d/15636-speldroper-see","name":"Speldroper See","description":"","water_size_ha":null,"fish":["AalFlussbarschDiv. WeißfischeHechtKarpfenZanderWelsBrasseRegenbogenforelle"],"techniques":["AnsitzangelnPosenangelnSpinnangeln"],"properties":["kein Boot\nNachtfischen\nÖffisFangmeldung erforderlich\nTechniken:\nAnsitzangelnPosenangelnSpinnangeln"],"season":null,"water_type":null,"rules_text":"","mobile_ticket":false,"print_required":false,"tickets":[],"manager":null,"main_image":null,"location_info":["Nordrhein-Westfalen","Kreis Kleve"],"lat":null,"lng":null,"geocode_source":null,"map_data":{"data":{"id":15636,"geojson":[],"locations":[{"lat":51.78032,"lng":6.380181},{"lat":51.779005,"lng":6.377833}],"stations":[{"name":"Rees Speldrop Brücker","lat":51.789703,"lng":6.373915,"lines":null,"url":null},{"name":"Rees Esserden Ort","lat":51.770206,"lng":6.37688,"lines":null,"url":null},{"name":"Rees Speldrop","lat":51.777166,"lng":6.37944,"lines":null,"url":null},{"name":"Rees Esserden B 8","lat":51.772841,"lng":6.384929,"lines":null,"url":null}],"gauges":[],"depth_map":null}},"country":"DE","last_updated":"2026-05-05T21:30:19.638Z","error":false}