{"id":15711,"slug":"zenn-2","url":"https://www.hejfish.com/d/15711-zenn-2","name":"Zenn 2","description":"","water_size_ha":null,"fish":["KarpfenForelleSchleieBachforelle"],"techniques":["AnsitzangelnFriedfischangeln… mehr"],"properties":["kein Boot\nKein Nachtfischen\nÖffisFangmeldung erforderlich\nTechniken:\nAnsitzangelnFriedfischangeln… mehr"],"season":null,"water_type":null,"rules_text":"","mobile_ticket":false,"print_required":false,"tickets":[],"manager":null,"main_image":null,"location_info":["Bayern","Fürth"],"lat":null,"lng":null,"geocode_source":null,"map_data":{"data":{"id":15711,"geojson":[],"locations":[{"lat":49.51073,"lng":10.95644},{"lat":49.52246,"lng":10.97057}],"stations":[{"name":"Atzenhof Bauhof","lat":49.503338,"lng":10.950903,"lines":null,"url":null},{"name":"Atzenhof","lat":49.505514,"lng":10.951631,"lines":null,"url":null},{"name":"Atzenhof Milchhaus","lat":49.505794,"lng":10.952305,"lines":null,"url":null},{"name":"Atzenhof Ost","lat":49.507054,"lng":10.957102,"lines":null,"url":null},{"name":"Flexdorf","lat":49.511458,"lng":10.958512,"lines":null,"url":null},{"name":"Vach Peter-Hannweg-Straße","lat":49.517256,"lng":10.959491,"lines":null,"url":null},{"name":"Vach Rothenberger Weg","lat":49.521705,"lng":10.962141,"lines":null,"url":null},{"name":"Atzenhof O.-Lilienthal-Schule","lat":49.503887,"lng":10.963309,"lines":null,"url":null},{"name":"Vach Schönblick","lat":49.521239,"lng":10.964019,"lines":null,"url":null},{"name":"Vach Am Altengraben","lat":49.516591,"lng":10.964037,"lines":null,"url":null},{"name":"Vacher Brücke","lat":49.512123,"lng":10.964414,"lines":null,"url":null},{"name":"Vach Nord","lat":49.530359,"lng":10.965483,"lines":null,"url":null},{"name":"Vach Am Vacher Markt","lat":49.526213,"lng":10.966121,"lines":null,"url":null},{"name":"Atzenhof Fraunhofer Institut","lat":49.500865,"lng":10.966516,"lines":null,"url":null},{"name":"Atzenhof Gustav-Weißkopf-Str.","lat":49.501699,"lng":10.968286,"lines":null,"url":null},{"name":"Mannhof b. Fürth Seestr.","lat":49.525443,"lng":10.974942,"lines":null,"url":null},{"name":"Stadeln Fischerberg","lat":49.513243,"lng":10.976344,"lines":null,"url":null},{"name":"Mannhof b. Fürth","lat":49.524434,"lng":10.977035,"lines":null,"url":null},{"name":"Stadeln Gebr.-Grimm-Str.","lat":49.509545,"lng":10.978006,"lines":null,"url":null},{"name":"Stadeln Waldschänke","lat":49.506261,"lng":10.978392,"lines":null,"url":null},{"name":"Stadeln Hans-Sachs-Str.","lat":49.512817,"lng":10.978599,"lines":null,"url":null},{"name":"Stadeln Waldringstr.","lat":49.503519,"lng":10.98053,"lines":null,"url":null}],"gauges":[],"depth_map":null}},"country":"DE","last_updated":"2026-05-05T21:32:51.812Z","error":false}