{"id":15718,"slug":"schwarze-laber-fv-fuerth","url":"https://www.hejfish.com/d/15718-schwarze-laber-fv-fuerth","name":"Schwarze Laber (FV Fürth)","description":"","water_size_ha":null,"fish":["ForelleKarpfen"],"techniques":["AnsitzangelnFriedfischangeln… mehr"],"properties":["kein Boot\nKein Nachtfischen\nTechniken:\nAnsitzangelnFriedfischangeln… mehr"],"season":null,"water_type":null,"rules_text":"","mobile_ticket":false,"print_required":false,"tickets":[],"manager":null,"main_image":null,"location_info":["Bayern","Kreis Regensburg"],"lat":null,"lng":null,"geocode_source":null,"map_data":{"data":{"id":15718,"geojson":[],"locations":[{"lat":49.07047,"lng":11.86769},{"lat":49.06573,"lng":11.88043}],"stations":[{"name":"Laaber Marktplatz","lat":49.065484,"lng":11.885708,"lines":null,"url":null},{"name":"Laaber","lat":49.070022,"lng":11.884055,"lines":null,"url":null},{"name":"Papiermühle","lat":49.070181,"lng":11.872773,"lines":null,"url":null},{"name":"Endorf","lat":49.077472,"lng":11.86917,"lines":null,"url":null}],"gauges":[],"depth_map":null}},"country":"DE","last_updated":"2026-05-05T21:33:08.659Z","error":false}