{"id":15716,"slug":"sulzach-fv-fuerth","url":"https://www.hejfish.com/d/15716-sulzach-fv-fuerth","name":"Sulzach (FV Fürth)","description":"","water_size_ha":null,"fish":["KarpfenHechtZanderRotaugeRotfederWels"],"techniques":["AnsitzangelnFriedfischangeln… mehr"],"properties":["kein Boot\nKein Nachtfischen\nÖffis\nTechniken:\nAnsitzangelnFriedfischangeln… mehr"],"season":null,"water_type":null,"rules_text":"","mobile_ticket":false,"print_required":false,"tickets":[],"manager":null,"main_image":null,"location_info":["Bayern","Kreis Ansbach"],"lat":null,"lng":null,"geocode_source":null,"map_data":{"data":{"id":15716,"geojson":[],"locations":[{"lat":49.100186,"lng":10.436421},{"lat":49.099769,"lng":10.437401},{"lat":49.083379,"lng":10.44774}],"stations":[{"name":"Oberkemmathen Mitte","lat":49.102739,"lng":10.434453,"lines":null,"url":null},{"name":"Abzw. Oberkemmathen","lat":49.098957,"lng":10.438801,"lines":null,"url":null},{"name":"Dorfkemmathen","lat":49.08425,"lng":10.444326,"lines":null,"url":null},{"name":"Langfurth Oberkemmather Str.","lat":49.098163,"lng":10.451629,"lines":null,"url":null},{"name":"Langfurth Schule","lat":49.100757,"lng":10.454728,"lines":null,"url":null},{"name":"Langfurth Friedhof","lat":49.105638,"lng":10.455285,"lines":null,"url":null}],"gauges":[{"id":1319,"name":"Rödenweiler","lat":49.226203,"lng":10.3218416}],"depth_map":null}},"country":"DE","last_updated":"2026-05-05T21:33:04.663Z","error":false}