{"id":15775,"slug":"silbersee-langenhagen","url":"https://www.hejfish.com/d/15775-silbersee-langenhagen","name":"Silbersee Langenhagen","description":"","water_size_ha":null,"fish":["AalBrasseFlussbarschHechtKarpfenRotaugeSchleie"],"techniques":["AnsitzangelnFeedern… mehr"],"properties":["kein Boot\nNachtfischen\nÖffisFangmeldung erforderlich\nTechniken:\nAnsitzangelnFeedern… mehr"],"season":null,"water_type":null,"rules_text":"","mobile_ticket":false,"print_required":false,"tickets":[],"manager":null,"main_image":null,"location_info":["Niedersachsen","Region Hannover"],"lat":null,"lng":null,"geocode_source":null,"map_data":{"data":{"id":15775,"geojson":[],"locations":[{"lat":52.4314,"lng":9.7596}],"stations":[{"name":"Langenhagen Elbeweg","lat":52.434652,"lng":9.753054,"lines":null,"url":null},{"name":"Langenhagen Theodor-Heuss-Str.","lat":52.439822,"lng":9.753818,"lines":null,"url":null},{"name":"Langenhagen Erich-Ollenh.-Str.","lat":52.432796,"lng":9.75388,"lines":null,"url":null},{"name":"Langenhagen","lat":52.436761,"lng":9.754024,"lines":null,"url":null},{"name":"Langenhagen Paracelsus-Klinik","lat":52.435123,"lng":9.756998,"lines":null,"url":null},{"name":"Langenhagen Silbersee","lat":52.433557,"lng":9.759162,"lines":null,"url":null}],"gauges":[],"depth_map":null}},"country":"DE","last_updated":"2026-05-05T21:34:22.164Z","error":false}