{"id":15841,"slug":"soellbach","url":"https://www.hejfish.com/d/15841-soellbach","name":"Söllbach","description":"","water_size_ha":null,"fish":["Bachforelle"],"techniques":["FliegenfischenSpinnangeln"],"properties":["kein Boot\nKein Nachtfischen\nÖffis\nTechniken:\nFliegenfischenSpinnangeln"],"season":null,"water_type":null,"rules_text":"","mobile_ticket":false,"print_required":false,"tickets":[],"manager":null,"main_image":null,"location_info":["Bayern","Kreis Bad Tölz-Wolfratshausen"],"lat":null,"lng":null,"geocode_source":null,"map_data":{"data":{"id":15841,"geojson":[],"locations":[{"lat":47.652403,"lng":11.646925},{"lat":47.706117,"lng":11.740389}],"stations":[{"name":"Kreuth (Kr Miesbach) Riedlerbrücke","lat":47.643993,"lng":11.7451759,"lines":"9550","url":null},{"name":"Kreuth Schule","lat":47.645712,"lng":11.743784,"lines":null,"url":null},{"name":"Kreuth (Kr Miesbach) Rathaus","lat":47.6471159,"lng":11.7463168,"lines":"9550","url":null},{"name":"Kreuth (Kr Miesbach) Brunnbichl","lat":47.6529859,"lng":11.7474666,"lines":"9550","url":null},{"name":"Kreuth (Kr Miesbach) Grundnerweg","lat":47.661227,"lng":11.7486793,"lines":"9550","url":null},{"name":"Kreuth (Kr Miesbach) Hirschbergweg","lat":47.6656677,"lng":11.7473768,"lines":"9550","url":null},{"name":"Riedsäge","lat":47.68991,"lng":11.747826,"lines":null,"url":null},{"name":"Ringsee","lat":47.698532,"lng":11.730965,"lines":null,"url":null},{"name":"Bad Wiessee Söllbach","lat":47.701857,"lng":11.727578,"lines":null,"url":null},{"name":"Bad Wiessee Krinner Hof","lat":47.702534,"lng":11.732141,"lines":null,"url":null},{"name":"Bad Wiessee Abwinkel","lat":47.705146,"lng":11.735762,"lines":null,"url":null},{"name":"Bad Wiessee, Abwinkl (Schiff)","lat":47.705811,"lng":11.740496,"lines":null,"url":null},{"name":"Bad Wiessee Hotel Bussi Baby","lat":47.706107,"lng":11.729707,"lines":null,"url":null},{"name":"Bad Wiessee Lindenplatz","lat":47.712278,"lng":11.725584,"lines":null,"url":null},{"name":"Bad Wiessee, Ortsmitte","lat":47.712925,"lng":11.727533,"lines":null,"url":null},{"name":"Bad Wiessee Adrian-Stoop-Str.","lat":47.716098,"lng":11.725099,"lines":null,"url":null}],"gauges":[{"id":1672,"name":"Bad Wiessee","lat":47.7050478,"lng":11.736178}],"depth_map":null}},"country":"DE","last_updated":"2026-05-05T21:35:41.799Z","error":false}