{"id":15844,"slug":"weser-bei-stahle","url":"https://www.hejfish.com/d/15844-weser-bei-stahle","name":"Weser bei Stahle","description":"","water_size_ha":null,"fish":["AalBrasseDiv. WeißfischeFlussbarschKarpfenHechtZanderWelsRapfen"],"techniques":["AnsitzangelnFriedfischangeln… mehr"],"properties":["kein Boot\nKein NachtfischenFangmeldung erforderlich\nTechniken:\nAnsitzangelnFriedfischangeln… mehr"],"season":null,"water_type":null,"rules_text":"","mobile_ticket":false,"print_required":false,"tickets":[],"manager":null,"main_image":null,"location_info":["Nordrhein-Westfalen","Kreis Höxter"],"lat":null,"lng":null,"geocode_source":null,"map_data":{"data":{"id":15844,"geojson":[],"locations":[{"lat":51.8186721546,"lng":9.4316246516862},{"lat":51.862929295684,"lng":9.4589945730814}],"stations":[{"name":"Hx-Stahle, Siedlung","lat":51.830719,"lng":9.425474,"lines":null,"url":null},{"name":"Hx-Stahle, Weintalstraße","lat":51.838679,"lng":9.429229,"lines":null,"url":null},{"name":"Hx-Stahle, Corveyer Straße","lat":51.832801,"lng":9.429256,"lines":null,"url":null},{"name":"Hx-Stahle, Heinser Straße","lat":51.834183,"lng":9.430667,"lines":null,"url":null},{"name":"Hx-Stahle, Holzmindener Straße","lat":51.830242,"lng":9.4377,"lines":null,"url":null},{"name":"Holzminden Schwimmbad","lat":51.827557,"lng":9.440437,"lines":null,"url":null},{"name":"Holzminden Kleine Steinbreite","lat":51.83416,"lng":9.441213,"lines":null,"url":null},{"name":"Holzminden Lehmkuhle","lat":51.831517,"lng":9.44374,"lines":null,"url":null},{"name":"Holzminden Johannismarkt","lat":51.827334,"lng":9.44483,"lines":null,"url":null},{"name":"Holzminden Stiebel-Eltron","lat":51.812458,"lng":9.446039,"lines":null,"url":null},{"name":"Holzminden Wallstraße","lat":51.830842,"lng":9.446489,"lines":null,"url":null},{"name":"Holzminden Wilhelmshütte","lat":51.812136,"lng":9.448233,"lines":null,"url":null},{"name":"Holzminden Fürstenberger Straße","lat":51.814421,"lng":9.448647,"lines":null,"url":null},{"name":"Holzminden Gartenstraße","lat":51.82349,"lng":9.448723,"lines":null,"url":null},{"name":"Holzminden Lindenhof","lat":51.818501,"lng":9.448915,"lines":null,"url":null},{"name":"Holzminden Hafendamm","lat":51.826598,"lng":9.449189,"lines":null,"url":null},{"name":"Holzminden Forster Weg/Karlstraße","lat":51.830728,"lng":9.449941,"lines":null,"url":null},{"name":"Holzminden Haarmannplatz","lat":51.827254,"lng":9.450291,"lines":null,"url":null},{"name":"Holzminden Haarmannplatz/Schramme","lat":51.827277,"lng":9.450298,"lines":null,"url":null},{"name":"Holzminden Bahnhofstraße","lat":51.825154,"lng":9.450461,"lines":null,"url":null},{"name":"Holzminden Forster Weg","lat":51.831055,"lng":9.451574,"lines":null,"url":null},{"name":"Holzminden Brombeerweg","lat":51.812204,"lng":9.452357,"lines":null,"url":null},{"name":"Holzminden Himbeerbusch","lat":51.814146,"lng":9.452391,"lines":null,"url":null},{"name":"Holzminden Bahnhof","lat":51.820537,"lng":9.453063,"lines":null,"url":null},{"name":"Holzminden Krankenhaus","lat":51.834229,"lng":9.45369,"lines":null,"url":null},{"name":"Holzminden","lat":51.820268,"lng":9.453743,"lines":null,"url":null},{"name":"Holzminden Böntalstraße","lat":51.822103,"lng":9.454235,"lines":null,"url":null},{"name":"Holzminden Wacholderweg","lat":51.815942,"lng":9.455934,"lines":null,"url":null},{"name":"Holzminden Pollmannsgrund","lat":51.819433,"lng":9.455936,"lines":null,"url":null},{"name":"Holzminden Mozartstraße","lat":51.818473,"lng":9.456098,"lines":null,"url":null},{"name":"Holzminden Sparenberg","lat":51.816791,"lng":9.456436,"lines":null,"url":null},{"name":"Holzminden Mühlenfeldstraße","lat":51.825741,"lng":9.457042,"lines":null,"url":null},{"name":"Holzminden Allersheimer Tor","lat":51.832869,"lng":9.457117,"lines":null,"url":null},{"name":"Holzminden Unter dem Kiekenstein","lat":51.838132,"lng":9.45782,"lines":null,"url":null},{"name":"Holzminden Bergblick","lat":51.815954,"lng":9.459236,"lines":null,"url":null},{"name":"Holzminden Stadthalle","lat":51.827754,"lng":9.461414,"lines":null,"url":null},{"name":"Holzminden Neuer Friedhof","lat":51.840149,"lng":9.461425,"lines":null,"url":null},{"name":"Holzminden Friedhof","lat":51.835717,"lng":9.461831,"lines":null,"url":null},{"name":"Holzminden Schlüterstraße","lat":51.817864,"lng":9.462568,"lines":null,"url":null},{"name":"Holzminden Von-Langen-Allee","lat":51.81977,"lng":9.462612,"lines":null,"url":null},{"name":"Holzminden Hellingweg","lat":51.833017,"lng":9.462686,"lines":null,"url":null},{"name":"Holzminden Riemenschneiderstraße","lat":51.82161,"lng":9.463062,"lines":null,"url":null},{"name":"Holzminden Lortzingstraße","lat":51.812994,"lng":9.463937,"lines":null,"url":null},{"name":"Holzminden Liethstraße/BBS","lat":51.816713,"lng":9.464918,"lines":null,"url":null},{"name":"Holzminden Holbeinplatz","lat":51.820757,"lng":9.465055,"lines":null,"url":null},{"name":"Holzminden Liethstraße","lat":51.81931,"lng":9.465112,"lines":null,"url":null},{"name":"Holzminden Kopernikusstraße","lat":51.842209,"lng":9.465479,"lines":null,"url":null},{"name":"Holzminden Kopernikusstraße","lat":51.842214,"lng":9.465483,"lines":null,"url":null},{"name":"Holzminden Bülte","lat":51.840176,"lng":9.466119,"lines":null,"url":null},{"name":"Holzminden Schulzentrum","lat":51.836514,"lng":9.46706,"lines":null,"url":null},{"name":"Holzminden Fröbelweg","lat":51.834037,"lng":9.467274,"lines":null,"url":null},{"name":"Holzminden Schneckenbergstraße","lat":51.825522,"lng":9.467521,"lines":null,"url":null},{"name":"Holzminden Bebelstraße","lat":51.829977,"lng":9.467674,"lines":null,"url":null},{"name":"Holzminden Rumortalstraße","lat":51.822669,"lng":9.46824,"lines":null,"url":null},{"name":"Holzminden Altendorfer Straße","lat":51.824078,"lng":9.468901,"lines":null,"url":null}],"gauges":[{"id":261,"name":"Höxter","lat":51.775801,"lng":9.40047}],"depth_map":null}},"country":"DE","last_updated":"2026-05-05T21:35:49.396Z","error":false}