{"id":15860,"slug":"ems-strecke-lathen","url":"https://www.hejfish.com/d/15860-ems-strecke-lathen","name":"Ems - Strecke Lathen","description":"","water_size_ha":null,"fish":["AalFlussbarschHechtSchleieDiv. WeißfischeZanderWels"],"techniques":["AnsitzangelnFeedern… mehr"],"properties":["kein Boot\nNachtfischen\nTechniken:\nAnsitzangelnFeedern… mehr"],"season":null,"water_type":null,"rules_text":"","mobile_ticket":false,"print_required":false,"tickets":[],"manager":null,"main_image":null,"location_info":["Niedersachsen","Kreis Emsland"],"lat":null,"lng":null,"geocode_source":null,"map_data":{"data":{"id":15860,"geojson":[],"locations":[{"lat":52.920903528187,"lng":7.3012926853329},{"lat":52.827506661268,"lng":7.2624018118317}],"stations":[{"name":"Niederlangen, Erdhütte","lat":52.882396,"lng":7.26093,"lines":null,"url":null},{"name":"Niederlangen, Groß Horst","lat":52.881117,"lng":7.263122,"lines":null,"url":null},{"name":"Oberlangen, Im Dreieck","lat":52.846229,"lng":7.263697,"lines":null,"url":null},{"name":"Niederlangen, Sand","lat":52.867855,"lng":7.264137,"lines":null,"url":null},{"name":"Walchum, Zum Wald","lat":52.929803,"lng":7.264604,"lines":null,"url":null},{"name":"Sustrum, Mühle","lat":52.911448,"lng":7.269913,"lines":null,"url":null},{"name":"Oberlangen, Dorfplatz","lat":52.848899,"lng":7.274791,"lines":null,"url":null},{"name":"Walchum, Grundschule","lat":52.930442,"lng":7.277683,"lines":null,"url":null},{"name":"Sustrum, Neub.geb/Haukw.","lat":52.90992,"lng":7.278411,"lines":null,"url":null},{"name":"Niederlangen, Grundschule","lat":52.853032,"lng":7.28107,"lines":null,"url":null},{"name":"Niederl. , Mehrzweckhalle","lat":52.858283,"lng":7.281223,"lines":null,"url":null},{"name":"Walchum, Krallmann (Post)","lat":52.930627,"lng":7.282346,"lines":null,"url":null},{"name":"Sustrum, Kirche","lat":52.910798,"lng":7.282651,"lines":null,"url":null},{"name":"Hilter, Dorf","lat":52.832582,"lng":7.283145,"lines":null,"url":null},{"name":"Walchum, Denkmal","lat":52.927248,"lng":7.283442,"lines":null,"url":null},{"name":"Niederlangen, Ahlers","lat":52.856954,"lng":7.285094,"lines":null,"url":null},{"name":"Walchum, Marinapark","lat":52.926289,"lng":7.295147,"lines":null,"url":null},{"name":"Steinbild, Kirche","lat":52.925076,"lng":7.30316,"lines":null,"url":null},{"name":"Steinbild, Sparkasse","lat":52.926045,"lng":7.304525,"lines":null,"url":null},{"name":"Ahlen, Steinbild","lat":52.926316,"lng":7.304552,"lines":null,"url":null},{"name":"Hilter, Hilterberg","lat":52.828664,"lng":7.307184,"lines":null,"url":null},{"name":"Düthe, Schwering","lat":52.894348,"lng":7.309322,"lines":null,"url":null},{"name":"Kathen, Frackel","lat":52.848025,"lng":7.309654,"lines":null,"url":null},{"name":"Fresenburg, Abzw. Dorfplatz","lat":52.884435,"lng":7.310813,"lines":null,"url":null}],"gauges":[{"id":101,"name":"Versen Wehr OP","lat":52.731304,"lng":7.247822},{"id":56,"name":"Papenburg","lat":53.108191,"lng":7.365595},{"id":71,"name":"Hasehubbrücke","lat":52.694191,"lng":7.292912},{"id":291,"name":"Versen Trennspitze","lat":52.731187,"lng":7.260856},{"id":57,"name":"Herbrum Hafendamm","lat":53.041915,"lng":7.317135},{"id":292,"name":"Rhede","lat":53.072418,"lng":7.286979},{"id":104,"name":"Rühle","lat":52.67002,"lng":7.255831},{"id":105,"name":"Versen Wehrdurchstich","lat":52.732983,"lng":7.241939}],"depth_map":null}},"country":"DE","last_updated":"2026-05-05T21:36:05.178Z","error":false}