{"id":15897,"slug":"muehlweiher-in-weisendorf","url":"https://www.hejfish.com/d/15897-muehlweiher-in-weisendorf","name":"Mühlweiher in Weisendorf","description":"","water_size_ha":null,"fish":["HechtKarpfenRotfederSchleieWelsZanderAmurGiebelRotaugeQuappeAalFlussbarschStörKatzenwels"],"techniques":["AnsitzangelnFriedfischangeln… mehr"],"properties":["kein Boot\nNachtfischen\nÖffis\nTechniken:\nAnsitzangelnFriedfischangeln… mehr"],"season":null,"water_type":null,"rules_text":"","mobile_ticket":false,"print_required":false,"tickets":[],"manager":null,"main_image":null,"location_info":["Bayern","Kreis Erlangen-Höchstadt"],"lat":null,"lng":null,"geocode_source":null,"map_data":{"data":{"id":15897,"geojson":[],"locations":[{"lat":49.62439,"lng":10.83472}],"stations":[{"name":"Weisendorf Hauptstr.","lat":49.622213,"lng":10.824861,"lines":null,"url":null},{"name":"Weisendorf Badweiher","lat":49.622137,"lng":10.826181,"lines":null,"url":null},{"name":"Weisendorf Erlanger Str.","lat":49.624628,"lng":10.827367,"lines":null,"url":null},{"name":"Weisendorf Schule","lat":49.621683,"lng":10.830538,"lines":null,"url":null},{"name":"Weisendorf Gewerbegebiet","lat":49.627171,"lng":10.838309,"lines":null,"url":null},{"name":"Weisendorf Waldfriedhof","lat":49.617982,"lng":10.839647,"lines":null,"url":null}],"gauges":[{"id":1906,"name":"Greiendorf","lat":49.6942942,"lng":10.7784037},{"id":1910,"name":"Gutenstetten Rückhaltebecken","lat":49.6189569,"lng":10.6217555},{"id":1893,"name":"Frauenaurach","lat":49.567312,"lng":10.9638763},{"id":1895,"name":"Erlangen","lat":49.6016591,"lng":11.0201898},{"id":1912,"name":"Burghaslach Rückhaltebecken","lat":49.7310995,"lng":10.591269},{"id":1908,"name":"Hallerndorf","lat":49.7591552,"lng":10.9840717},{"id":1911,"name":"Röbersdorf","lat":49.7999593,"lng":10.9264261},{"id":1881,"name":"Nürnberg Lederersteg","lat":49.4557996,"lng":11.0525762},{"id":1886,"name":"Hiltmannsdorf HW","lat":49.4825038,"lng":10.8875663},{"id":1889,"name":"Kreppendorf","lat":49.5076231,"lng":10.9021673},{"id":1875,"name":"Weinzierlein","lat":49.4265091,"lng":10.8956081},{"id":1913,"name":"Vorra","lat":49.8224927,"lng":10.8417586},{"id":1890,"name":"Frauenkreuz","lat":49.5204287,"lng":11.0895495},{"id":1907,"name":"Laufermühle","lat":49.7259364,"lng":10.9324164},{"id":1849,"name":"Pettstadt","lat":49.832729,"lng":10.9490049},{"id":1888,"name":"Laubendorf","lat":49.4933931,"lng":10.7541531},{"id":1891,"name":"Emskirchen","lat":49.5446087,"lng":10.7099932},{"id":1905,"name":"Rappoldshofen","lat":49.621309,"lng":10.6720249},{"id":1848,"name":"Hüttendorf","lat":49.5460775,"lng":10.9736837},{"id":1904,"name":"Birkenfeld","lat":49.5732249,"lng":10.567594},{"id":1853,"name":"Neumühle","lat":49.4360567,"lng":10.9912097}],"depth_map":null}},"country":"DE","last_updated":"2026-05-05T21:37:12.008Z","error":false}