{"id":15895,"slug":"heller-1","url":"https://www.hejfish.com/d/15895-heller-1","name":"Heller 1","description":"","water_size_ha":null,"fish":["KarpfenRotfederSchleieAmurBrasseFlussbarschGiebelRotaugeZander"],"techniques":["AnsitzangelnFriedfischangeln… mehr"],"properties":["kein Boot\nNachtfischen\nÖffis\nTechniken:\nAnsitzangelnFriedfischangeln… mehr"],"season":null,"water_type":null,"rules_text":"","mobile_ticket":false,"print_required":false,"tickets":[],"manager":null,"main_image":null,"location_info":["Bayern","Kreis Erlangen-Höchstadt"],"lat":null,"lng":null,"geocode_source":null,"map_data":{"data":{"id":15895,"geojson":[],"locations":[{"lat":49.57309,"lng":10.92063}],"stations":[{"name":"Niederndorf/Herzo Pommernweg","lat":49.567152,"lng":10.910695,"lines":null,"url":null},{"name":"Niederndorf/Herzo Frankenstr.","lat":49.567217,"lng":10.913758,"lines":null,"url":null},{"name":"Niederndorf/Herzo Feuerwehr","lat":49.563581,"lng":10.915195,"lines":null,"url":null},{"name":"Herzo Base Olympiaring Süd","lat":49.574423,"lng":10.916103,"lines":null,"url":null},{"name":"Herzo Base Konrad-Wormser-Str.","lat":49.575873,"lng":10.92028,"lines":null,"url":null},{"name":"Neuses (b. Erlangen)","lat":49.563342,"lng":10.925517,"lines":null,"url":null}],"gauges":[],"depth_map":null}},"country":"DE","last_updated":"2026-05-05T21:37:05.744Z","error":false}