{"id":15908,"slug":"idasee","url":"https://www.hejfish.com/d/15908-idasee","name":"Idasee","description":"","water_size_ha":null,"fish":["AalFlussbarschDiv. WeißfischeHechtKaulbarschKarpfenZanderSchleie"],"techniques":["AnsitzangelnFeedern… mehr"],"properties":["kein Boot\nNachtfischen\nTechniken:\nAnsitzangelnFeedern… mehr"],"season":null,"water_type":null,"rules_text":"","mobile_ticket":false,"print_required":false,"tickets":[],"manager":null,"main_image":null,"location_info":["Niedersachsen","Kreis Leer"],"lat":null,"lng":null,"geocode_source":null,"map_data":{"data":{"id":15908,"geojson":[],"locations":[{"lat":53.151403697674,"lng":7.6434918994442}],"stations":[{"name":"Idafehn-Nord 17","lat":53.143117,"lng":7.637784,"lines":null,"url":null},{"name":"Idafehn-Nord/Im Wiesengrund","lat":53.147476,"lng":7.638674,"lines":null,"url":null},{"name":"Idafehn Ahornstraße","lat":53.153324,"lng":7.639821,"lines":null,"url":null},{"name":"Idafehn Idasee","lat":53.156574,"lng":7.640539,"lines":null,"url":null},{"name":"Idafehn Meinders","lat":53.16001,"lng":7.641299,"lines":null,"url":null}],"gauges":[],"depth_map":null}},"country":"DE","last_updated":"2026-05-05T21:37:33.914Z","error":false}