{"id":15916,"slug":"jonnys-kuhle","url":"https://www.hejfish.com/d/15916-jonnys-kuhle","name":"Jonnys Kuhle","description":"","water_size_ha":null,"fish":["AalFlussbarschDiv. WeißfischeHechtKaulbarschKarpfenZanderSchleie"],"techniques":["AnsitzangelnFeedern… mehr"],"properties":["kein Boot\nNachtfischen\nTechniken:\nAnsitzangelnFeedern… mehr"],"season":null,"water_type":null,"rules_text":"","mobile_ticket":false,"print_required":false,"tickets":[],"manager":null,"main_image":null,"location_info":["Niedersachsen","Kreis Leer"],"lat":null,"lng":null,"geocode_source":null,"map_data":{"data":{"id":15916,"geojson":[],"locations":[{"lat":53.164559735258,"lng":7.5238068122011}],"stations":[{"name":"Collinghorst","lat":53.15928,"lng":7.529944,"lines":null,"url":null},{"name":"Collinghorst Backemoorer Straße 6","lat":53.159598,"lng":7.529813,"lines":null,"url":null},{"name":"Collinghorst B 438/Patersweg","lat":53.160197,"lng":7.521926,"lines":null,"url":null},{"name":"Collinghorst Schule","lat":53.161558,"lng":7.528331,"lines":null,"url":null},{"name":"Collinghorst Fockpoolstraße","lat":53.163487,"lng":7.531753,"lines":null,"url":null},{"name":"Collinghorst B 438/Wittmoorstraße","lat":53.163881,"lng":7.513873,"lines":null,"url":null},{"name":"Collinghorst K20/Mühlenweg","lat":53.166536,"lng":7.533008,"lines":null,"url":null}],"gauges":[],"depth_map":null}},"country":"DE","last_updated":"2026-05-06T06:34:42.592Z","error":false}