{"id":15930,"slug":"untere-sieg-siegen","url":"https://www.hejfish.com/d/15930-untere-sieg-siegen","name":"Untere Sieg (Siegen)","description":"","water_size_ha":null,"fish":["BachforelleÄscheDöbelRegenbogenforelleNaseHechtBarbeFlussbarsch"],"techniques":["FliegenfischenSpinnangeln"],"properties":["kein Boot\nKein Nachtfischen\nÖffisFangmeldung erforderlich\nTechniken:\nFliegenfischenSpinnangeln"],"season":null,"water_type":null,"rules_text":"","mobile_ticket":false,"print_required":false,"tickets":[],"manager":null,"main_image":null,"location_info":["Nordrhein-Westfalen","Kreis Siegen-Wittgenstein"],"lat":null,"lng":null,"geocode_source":null,"map_data":{"data":{"id":15930,"geojson":[],"locations":[{"lat":50.846345278528,"lng":7.985414819843},{"lat":50.865352041831,"lng":8.0060302051976}],"stations":[{"name":"Niederschelden Waldstraße","lat":50.846993,"lng":7.976761,"lines":null,"url":null},{"name":"Niederschelden Gorch-Fock-Str.","lat":50.844525,"lng":7.977237,"lines":null,"url":null},{"name":"Niederschelden Altes Rathaus","lat":50.838756,"lng":7.97836,"lines":null,"url":null},{"name":"Niederschelden Heinrichstraße","lat":50.845416,"lng":7.979429,"lines":null,"url":null},{"name":"Niederschelden Am Hubenwald","lat":50.840696,"lng":7.980004,"lines":null,"url":null},{"name":"Gosenbacher Höhe","lat":50.859549,"lng":7.98031,"lines":null,"url":null},{"name":"Siegen Achenbach Ort","lat":50.869386,"lng":7.981109,"lines":null,"url":null},{"name":"Niederschelden Hubenf. Schule","lat":50.84718,"lng":7.981864,"lines":null,"url":null},{"name":"Niederschelden Rundturnhalle","lat":50.84663,"lng":7.98278,"lines":null,"url":null},{"name":"Eiserfeld Bühlstraße","lat":50.837968,"lng":7.982978,"lines":null,"url":null},{"name":"Siegen Im Samelsfeld","lat":50.866409,"lng":7.984379,"lines":null,"url":null},{"name":"Eiserfeld Bf","lat":50.847134,"lng":7.986742,"lines":null,"url":null},{"name":"Eiserfeld Abzw. Bahnhof","lat":50.846102,"lng":7.98737,"lines":null,"url":null},{"name":"Eiserfeld IHW-Park","lat":50.843465,"lng":7.987622,"lines":null,"url":null},{"name":"Eiserfeld Hallenbad","lat":50.838104,"lng":7.987685,"lines":null,"url":null},{"name":"Eiserfeld Gilbergstraße","lat":50.839919,"lng":7.987909,"lines":null,"url":null},{"name":"Eiserfeld Gilbergschule","lat":50.840407,"lng":7.988421,"lines":null,"url":null},{"name":"Siegen In der Engsbach","lat":50.866296,"lng":7.988781,"lines":null,"url":null},{"name":"Siegen Rothenberg Ende","lat":50.857836,"lng":7.988817,"lines":null,"url":null},{"name":"Eiserfeld Grabettstraße","lat":50.847004,"lng":7.989338,"lines":null,"url":null},{"name":"Siegen Achenbacher Furt","lat":50.86536,"lng":7.989347,"lines":null,"url":null},{"name":"Eiserfeld Freiheitsstraße","lat":50.846624,"lng":7.99002,"lines":null,"url":null},{"name":"Eiserfeld Am Hengsberg","lat":50.839369,"lng":7.990101,"lines":null,"url":null},{"name":"Siegen Am Ginsterhang","lat":50.858772,"lng":7.990775,"lines":null,"url":null},{"name":"Siegen Grünberger Straße","lat":50.874238,"lng":7.991862,"lines":null,"url":null},{"name":"Eiserfeld An der Siegtalbrücke","lat":50.849704,"lng":7.991871,"lines":null,"url":null},{"name":"Niederschelden In der Dreisb.","lat":50.856384,"lng":7.993389,"lines":null,"url":null},{"name":"Niederschelden Waldesruh","lat":50.855057,"lng":7.993488,"lines":null,"url":null},{"name":"Siegen Rothenberg Anfang","lat":50.858624,"lng":7.994189,"lines":null,"url":null},{"name":"Siegen Heidenberg Schuß","lat":50.866466,"lng":7.994341,"lines":null,"url":null},{"name":"Siegen Achenbacher Schule","lat":50.866449,"lng":7.994817,"lines":null,"url":null},{"name":"Niederschelden H.-Schütz-Str.","lat":50.854456,"lng":7.994988,"lines":null,"url":null},{"name":"Niederschelden Bonhoefferstr.","lat":50.856589,"lng":7.995617,"lines":null,"url":null},{"name":"Siegen Abzw. Rothenberg","lat":50.859894,"lng":7.995832,"lines":null,"url":null},{"name":"Eiserfeld Impfzentrum SI-WI","lat":50.850209,"lng":7.995877,"lines":null,"url":null},{"name":"Siegen Rosenhof","lat":50.874346,"lng":7.996012,"lines":null,"url":null},{"name":"Siegen Abzw. Fischbacherberg","lat":50.869675,"lng":7.996075,"lines":null,"url":null},{"name":"Eiserfeld Flußbergstraße","lat":50.849664,"lng":7.996111,"lines":null,"url":null},{"name":"Siegen Heidenberg","lat":50.86688,"lng":7.996452,"lines":null,"url":null},{"name":"Siegen Eichert Mitte","lat":50.858783,"lng":7.99736,"lines":null,"url":null},{"name":"Siegen Am Witschert","lat":50.867492,"lng":7.997369,"lines":null,"url":null},{"name":"Siegen Fortunastraße","lat":50.86434,"lng":7.997369,"lines":null,"url":null},{"name":"Siegen Am Witschert","lat":50.867492,"lng":7.997369,"lines":null,"url":null},{"name":"Siegen Gewerbepark Heidenberg","lat":50.86485,"lng":7.998581,"lines":null,"url":null},{"name":"Siegen Bergmannsweg","lat":50.857802,"lng":7.999884,"lines":null,"url":null},{"name":"Siegen Oranienhof","lat":50.872056,"lng":8.00054,"lines":null,"url":null},{"name":"Siegen Friedrich-Friesen-Str.","lat":50.870582,"lng":8.001375,"lines":null,"url":null},{"name":"Siegen IKEA","lat":50.86193,"lng":8.001573,"lines":null,"url":null},{"name":"Eiserfeld Christus-Kirche","lat":50.849381,"lng":8.002552,"lines":null,"url":null},{"name":"Siegen Wallhausenstraße","lat":50.864533,"lng":8.002866,"lines":null,"url":null},{"name":"Eiserfeld Betriebshof","lat":50.85212,"lng":8.002992,"lines":null,"url":null},{"name":"Siegen Abzw. Johanneshütte","lat":50.871489,"lng":8.003136,"lines":null,"url":null},{"name":"Eiserfeld Hengsbach","lat":50.851354,"lng":8.00336,"lines":null,"url":null},{"name":"Eiserfeld Hengsbachstraße 26","lat":50.849675,"lng":8.006073,"lines":null,"url":null},{"name":"Siegen Hubertusweg","lat":50.873297,"lng":8.006136,"lines":null,"url":null},{"name":"Siegen Ziegenberg","lat":50.872186,"lng":8.006585,"lines":null,"url":null},{"name":"Siegen Emmy-Noether-Campus","lat":50.873036,"lng":8.00822,"lines":null,"url":null},{"name":"Eiserfeld Oberer Hengsb. Weg","lat":50.84617,"lng":8.008705,"lines":null,"url":null},{"name":"Siegen P+R Siegerlandhalle","lat":50.867827,"lng":8.008795,"lines":null,"url":null},{"name":"Siegen Eintracht","lat":50.866619,"lng":8.008813,"lines":null,"url":null},{"name":"Siegen Pützhorn","lat":50.855488,"lng":8.010331,"lines":null,"url":null},{"name":"Siegen Am Stadtwald","lat":50.874845,"lng":8.010502,"lines":null,"url":null},{"name":"Siegen Rinsenau","lat":50.861726,"lng":8.012227,"lines":null,"url":null},{"name":"Siegen Hammerstraße","lat":50.869731,"lng":8.012433,"lines":null,"url":null},{"name":"Siegen Kreishaus","lat":50.870502,"lng":8.014167,"lines":null,"url":null},{"name":"Siegen Diakonie Wende","lat":50.850872,"lng":8.015038,"lines":null,"url":null},{"name":"Siegen Aehlstraße","lat":50.866421,"lng":8.015353,"lines":null,"url":null},{"name":"Siegen Rabenflugstraße","lat":50.864981,"lng":8.015694,"lines":null,"url":null},{"name":"Siegen Radschläfe","lat":50.856401,"lng":8.015703,"lines":null,"url":null},{"name":"Siegen Berliner Straße","lat":50.871976,"lng":8.015757,"lines":null,"url":null},{"name":"Siegen Ziegelwerkstraße","lat":50.869085,"lng":8.015955,"lines":null,"url":null},{"name":"Siegen Wichernstraße","lat":50.851978,"lng":8.015955,"lines":null,"url":null},{"name":"Siegen AWO-Seniorenzentrum","lat":50.857933,"lng":8.016009,"lines":null,"url":null}],"gauges":[{"id":1001,"name":"Hüppcherhammer","lat":51.024296,"lng":7.815173},{"id":1004,"name":"Olpe","lat":51.030006,"lng":7.850694},{"id":1014,"name":"Rüblinghausen","lat":51.020615,"lng":7.841854}],"depth_map":null}},"country":"DE","last_updated":"2026-05-06T06:35:14.336Z","error":false}