{"id":15949,"slug":"altarm-detern","url":"https://www.hejfish.com/d/15949-altarm-detern","name":"Altarm Detern","description":"","water_size_ha":null,"fish":["AalForelleDiv. WeißfischeFlussbarschHechtZanderWelsSchleie"],"techniques":["AnsitzangelnFeedern… mehr"],"properties":["kein Boot\nNachtfischenFangmeldung erforderlich\nTechniken:\nAnsitzangelnFeedern… mehr"],"season":null,"water_type":null,"rules_text":"","mobile_ticket":false,"print_required":false,"tickets":[],"manager":null,"main_image":null,"location_info":["Niedersachsen","Kreis Leer"],"lat":null,"lng":null,"geocode_source":null,"map_data":{"data":{"id":15949,"geojson":[],"locations":[{"lat":53.20595728122,"lng":7.6816286501694}],"stations":[{"name":"Detern Kirche","lat":53.209453,"lng":7.67197,"lines":null,"url":null},{"name":"Detern Denkmal-/Osterstraße","lat":53.210673,"lng":7.675398,"lines":null,"url":null},{"name":"Detern Graf-Egge-Straße/Hinterloosweg","lat":53.214253,"lng":7.679285,"lines":null,"url":null}],"gauges":[{"id":144,"name":"Dreyschloot","lat":53.177994,"lng":7.66914}],"depth_map":null}},"country":"DE","last_updated":"2026-05-06T06:36:01.732Z","error":false}