{"id":15962,"slug":"fliegenstrecke-ferndorf-siegen","url":"https://www.hejfish.com/d/15962-fliegenstrecke-ferndorf-siegen","name":"Fliegenstrecke Ferndorf (Siegen)","description":"","water_size_ha":null,"fish":["BachforelleÄscheDöbelRegenbogenforelleNaseHechtBarbeFlussbarsch"],"techniques":["Fliegenfischen"],"properties":["kein Boot\nKein Nachtfischen\nÖffisFangmeldung erforderlich\nTechniken:\nFliegenfischen"],"season":null,"water_type":null,"rules_text":"","mobile_ticket":false,"print_required":false,"tickets":[],"manager":null,"main_image":null,"location_info":["Nordrhein-Westfalen","Kreis Siegen-Wittgenstein"],"lat":null,"lng":null,"geocode_source":null,"map_data":{"data":{"id":15962,"geojson":[],"locations":[{"lat":50.92778315836,"lng":8.0111144496953},{"lat":50.893385663988,"lng":8.0234931438237}],"stations":[{"name":"Geisweid Birlenbacher Str. 60","lat":50.908237,"lng":8.001303,"lines":null,"url":null},{"name":"Geisweid Am Grünen Hang 7","lat":50.904125,"lng":8.001887,"lines":null,"url":null},{"name":"Geisweid Am Grünen Hang 31","lat":50.906277,"lng":8.001995,"lines":null,"url":null},{"name":"Geisweid Albert-Nöll-Straße","lat":50.91338,"lng":8.002004,"lines":null,"url":null},{"name":"Geisweid Wenscht Süd","lat":50.912389,"lng":8.002237,"lines":null,"url":null},{"name":"Buschhütten Mattenbachstraße","lat":50.936993,"lng":8.0023,"lines":null,"url":null},{"name":"Geisweid Am Sammetshain","lat":50.911013,"lng":8.00248,"lines":null,"url":null},{"name":"Geisweid Lehmkule","lat":50.914711,"lng":8.003558,"lines":null,"url":null},{"name":"Geisweid Zeppelinstraße Anfang","lat":50.904827,"lng":8.00372,"lines":null,"url":null},{"name":"Geisweid Hüttentalschule","lat":50.904323,"lng":8.004133,"lines":null,"url":null},{"name":"Geisweid Am Kindergarten","lat":50.909653,"lng":8.004232,"lines":null,"url":null},{"name":"Geisweid Gerberstraße","lat":50.906385,"lng":8.004349,"lines":null,"url":null},{"name":"Buschhütten Achenbach","lat":50.934938,"lng":8.004879,"lines":null,"url":null},{"name":"Geisweid Stormstraße 29/31","lat":50.924622,"lng":8.004932,"lines":null,"url":null},{"name":"Buschhütten Alte Schulstraße","lat":50.935487,"lng":8.005103,"lines":null,"url":null},{"name":"Geisweider Schule","lat":50.920137,"lng":8.005346,"lines":null,"url":null},{"name":"Geisweid Stormstraße 47","lat":50.923778,"lng":8.005516,"lines":null,"url":null},{"name":"Geisweid Hebbelstraße West","lat":50.922572,"lng":8.005633,"lines":null,"url":null},{"name":"Geisweid Thymianweg","lat":50.917481,"lng":8.006145,"lines":null,"url":null},{"name":"Geisweid Am Sammetshain Anfang","lat":50.910917,"lng":8.006343,"lines":null,"url":null},{"name":"Geisweid Gottfried-Keller-Str.","lat":50.921604,"lng":8.006549,"lines":null,"url":null},{"name":"Geisweid Zeppelinstraße Mitte","lat":50.905705,"lng":8.006693,"lines":null,"url":null},{"name":"Geisweid Technologiezentrum","lat":50.908232,"lng":8.00672,"lines":null,"url":null},{"name":"Geisweid Reckhammerstraße","lat":50.906442,"lng":8.006747,"lines":null,"url":null},{"name":"Geisweid Ruhrststraße","lat":50.915612,"lng":8.00716,"lines":null,"url":null},{"name":"Geisweid Stormstraße 17","lat":50.924288,"lng":8.007493,"lines":null,"url":null},{"name":"Buschhütten Grundschule","lat":50.934621,"lng":8.00752,"lines":null,"url":null},{"name":"Geisweid Ludwig-Kenter-Straße","lat":50.906396,"lng":8.007564,"lines":null,"url":null},{"name":"Geisweid Spielplatz Bergstraße","lat":50.92059,"lng":8.008184,"lines":null,"url":null},{"name":"Buschhütten Charlottenstraße","lat":50.930822,"lng":8.008499,"lines":null,"url":null},{"name":"Siegen Steubenstraße","lat":50.883948,"lng":8.008499,"lines":null,"url":null},{"name":"Geisweid Friesenhalle","lat":50.911279,"lng":8.008624,"lines":null,"url":null},{"name":"Siegen Hermelsbacher Friedhof","lat":50.886333,"lng":8.008822,"lines":null,"url":null},{"name":"Geisweid Hebbelstraße Nord","lat":50.922912,"lng":8.009208,"lines":null,"url":null},{"name":"Geisweid Breitscheidstraße","lat":50.907422,"lng":8.010026,"lines":null,"url":null},{"name":"Geisweid Markt","lat":50.914626,"lng":8.010412,"lines":null,"url":null},{"name":"Geisweid Rathaus","lat":50.913092,"lng":8.010484,"lines":null,"url":null},{"name":"Geisweid Zeppelinstraße 74","lat":50.904742,"lng":8.010655,"lines":null,"url":null},{"name":"Geisweid Berufsbildungszentrum","lat":50.905836,"lng":8.01096,"lines":null,"url":null},{"name":"Dillnhütten Ortsmitte","lat":50.927198,"lng":8.01167,"lines":null,"url":null},{"name":"Buschhütten Berliner Straße","lat":50.934428,"lng":8.011984,"lines":null,"url":null},{"name":"Dillnhütten Reuter","lat":50.924497,"lng":8.012263,"lines":null,"url":null},{"name":"Geisweid Marktstraße","lat":50.91952,"lng":8.012397,"lines":null,"url":null},{"name":"Geisweid ZOB","lat":50.916677,"lng":8.01246,"lines":null,"url":null},{"name":"Buschhütten Theodor-Heuss-Weg","lat":50.932458,"lng":8.012874,"lines":null,"url":null},{"name":"Geisweid Stahlwerke","lat":50.911744,"lng":8.01308,"lines":null,"url":null},{"name":"Geisweid Bergstraße","lat":50.919633,"lng":8.013224,"lines":null,"url":null},{"name":"Buschhütten Bottenbacher Str.","lat":50.935685,"lng":8.013377,"lines":null,"url":null},{"name":"Geisweid P+R Birlenbacher Str.","lat":50.909472,"lng":8.013619,"lines":null,"url":null},{"name":"Weidenau P+R Kirche","lat":50.906572,"lng":8.013781,"lines":null,"url":null},{"name":"Siegen-Geisweid Bf","lat":50.915669,"lng":8.014356,"lines":null,"url":null},{"name":"Buschhütten Goetheweg","lat":50.932367,"lng":8.01502,"lines":null,"url":null},{"name":"Weidenau P+R Ferndorfbrücke","lat":50.905739,"lng":8.016584,"lines":null,"url":null},{"name":"Buschhütten Bolzplatz","lat":50.93483,"lng":8.017662,"lines":null,"url":null},{"name":"Buschhütten Tilsiter Straße","lat":50.93423,"lng":8.017994,"lines":null,"url":null},{"name":"Siegen DRK-Kinderklinik","lat":50.883834,"lng":8.018452,"lines":null,"url":null},{"name":"Niedersetzen Setzetalstraße","lat":50.92431,"lng":8.01909,"lines":null,"url":null},{"name":"Weidenau Krankenhaus","lat":50.904414,"lng":8.019252,"lines":null,"url":null},{"name":"Weidenau FJM-Gymnasium","lat":50.903694,"lng":8.019539,"lines":null,"url":null},{"name":"Siegen An der Allee","lat":50.887138,"lng":8.020994,"lines":null,"url":null},{"name":"Weidenau Ev. Gymnasium","lat":50.898947,"lng":8.021066,"lines":null,"url":null},{"name":"Weidenau Grube Neue Haardt","lat":50.904992,"lng":8.022863,"lines":null,"url":null},{"name":"Siegen Haroldstraße","lat":50.887093,"lng":8.022962,"lines":null,"url":null},{"name":"Siegen Hofgutstraße","lat":50.888158,"lng":8.023492,"lines":null,"url":null},{"name":"Weidenau Brucknerweg","lat":50.908719,"lng":8.023617,"lines":null,"url":null},{"name":"Siegen Am Haardtchen","lat":50.886288,"lng":8.023743,"lines":null,"url":null},{"name":"Weidenau Brückenstraße","lat":50.901202,"lng":8.024606,"lines":null,"url":null},{"name":"Weidenau Bismarckplatz","lat":50.894607,"lng":8.02474,"lines":null,"url":null},{"name":"Weidenau Henry-Dunant-Haus","lat":50.891575,"lng":8.025153,"lines":null,"url":null},{"name":"Weidenau Adolf-Reichwein-Str.","lat":50.912429,"lng":8.025432,"lines":null,"url":null},{"name":"Weidenau Albrecht-Dürer-Straße","lat":50.907003,"lng":8.026043,"lines":null,"url":null},{"name":"Weidenau Robert-Schumann-Str.","lat":50.909223,"lng":8.026456,"lines":null,"url":null},{"name":"Weidenau Haardter Brücke","lat":50.89812,"lng":8.027327,"lines":null,"url":null},{"name":"Weidenau Hölderlinstraße","lat":50.905632,"lng":8.02792,"lines":null,"url":null},{"name":"Weidenau ZOB","lat":50.89634,"lng":8.028109,"lines":null,"url":null},{"name":"Weidenau Polizei","lat":50.892301,"lng":8.028208,"lines":null,"url":null},{"name":"Siegen Sieghütte","lat":50.887529,"lng":8.028819,"lines":null,"url":null},{"name":"Siegen Porschestraße","lat":50.884435,"lng":8.029205,"lines":null,"url":null},{"name":"Siegen-Weidenau Bf","lat":50.895865,"lng":8.029861,"lines":null,"url":null},{"name":"Weidenau W.-v.-Humboldt-Platz","lat":50.905484,"lng":8.030157,"lines":null,"url":null},{"name":"Weidenau Breite Straße","lat":50.891689,"lng":8.030445,"lines":null,"url":null},{"name":"Weidenau Andreas-Schlüter-Straße","lat":50.908849,"lng":8.030525,"lines":null,"url":null},{"name":"Weidenau Untere Rolandstraße","lat":50.890125,"lng":8.030795,"lines":null,"url":null},{"name":"Weidenau Auf den Hütten","lat":50.899145,"lng":8.031541,"lines":null,"url":null},{"name":"Weidenau Bäckerstraße","lat":50.896256,"lng":8.031882,"lines":null,"url":null},{"name":"Weidenau Am Eichenhang","lat":50.905212,"lng":8.032044,"lines":null,"url":null},{"name":"Weidenau F.-Flender-Platz","lat":50.898301,"lng":8.03278,"lines":null,"url":null},{"name":"Weidenau Welterstraße","lat":50.88996,"lng":8.032825,"lines":null,"url":null},{"name":"Weidenau Hofstraße","lat":50.896584,"lng":8.033364,"lines":null,"url":null}],"gauges":[{"id":1000,"name":"Kraghammer","lat":51.109138,"lng":7.872948},{"id":1001,"name":"Hüppcherhammer","lat":51.024296,"lng":7.815173},{"id":1004,"name":"Olpe","lat":51.030006,"lng":7.850694},{"id":1005,"name":"Ahausen","lat":51.140255,"lng":7.955005},{"id":1006,"name":"Attendorn","lat":51.116508,"lng":7.900813},{"id":1012,"name":"Börlinghausen","lat":51.077717,"lng":7.779974},{"id":1014,"name":"Rüblinghausen","lat":51.020615,"lng":7.841854}],"depth_map":null}},"country":"DE","last_updated":"2026-05-06T06:36:36.164Z","error":false}