{"id":15967,"slug":"legerade-sued","url":"https://www.hejfish.com/d/15967-legerade-sued","name":"Legerade Süd","description":"","water_size_ha":null,"fish":["HechtSchleieRotaugeRotfederFlussbarsch"],"techniques":["AnsitzangelnFeedern… mehr"],"properties":["kein Boot\nNachtfischenFangmeldung erforderlich\nTechniken:\nAnsitzangelnFeedern… mehr"],"season":null,"water_type":null,"rules_text":"","mobile_ticket":false,"print_required":false,"tickets":[],"manager":null,"main_image":null,"location_info":["Schleswig-Holstein","Kreis Nordfriesland"],"lat":null,"lng":null,"geocode_source":null,"map_data":{"data":{"id":15967,"geojson":[],"locations":[{"lat":54.773358,"lng":8.83495},{"lat":54.772546,"lng":8.835973}],"stations":[{"name":"Risum-Lindholm Kornkoog Nord","lat":54.767125,"lng":8.832597,"lines":null,"url":null},{"name":"Niebüll Weidenweg","lat":54.772871,"lng":8.825918,"lines":null,"url":null},{"name":"Niebüll Legerade/Zeltplatz","lat":54.7758,"lng":8.844604,"lines":null,"url":null},{"name":"Niebüll Busch-Johannsen-Straße","lat":54.78008,"lng":8.833926,"lines":null,"url":null},{"name":"Niebüll-Deezbüll","lat":54.782153,"lng":8.826946,"lines":null,"url":null},{"name":"Niebüll Jawoll","lat":54.782871,"lng":8.831335,"lines":null,"url":null},{"name":"Niebüll Meiers","lat":54.783295,"lng":8.826406,"lines":null,"url":null}],"gauges":[],"depth_map":null}},"country":"DE","last_updated":"2026-05-06T06:36:51.854Z","error":false}