{"id":15963,"slug":"fraenkische-saale","url":"https://www.hejfish.com/d/15963-fraenkische-saale","name":"Fränkische Saale","description":"","water_size_ha":null,"fish":["AalÄscheBachforelleBarbeHechtKarpfenRegenbogenforelleSchleieZanderDiv. WeißfischeFlussbarschBrasseQuappeRotaugeRotfederDöbelWels"],"techniques":["AnsitzangelnFeedern… mehr"],"properties":["kein Boot\nKein Nachtfischen\nÖffisFangmeldung erforderlich\nTechniken:\nAnsitzangelnFeedern… mehr"],"season":null,"water_type":null,"rules_text":"","mobile_ticket":false,"print_required":false,"tickets":[],"manager":null,"main_image":null,"location_info":["Bayern","Kreis Bad Kissingen"],"lat":null,"lng":null,"geocode_source":null,"map_data":{"data":{"id":15963,"geojson":[],"locations":[{"lat":50.110755,"lng":9.913698},{"lat":50.116123,"lng":9.877302}],"stations":[{"name":"Pfaffenhausen Linde","lat":50.10212,"lng":9.896614,"lines":null,"url":null},{"name":"Hammelburg Abzw. Pfaffenhausen","lat":50.102921,"lng":9.890766,"lines":null,"url":null},{"name":"Hammelburg Feuerwehrhaus","lat":50.110969,"lng":9.895599,"lines":null,"url":null},{"name":"Hammelburg Sportzentrum","lat":50.111234,"lng":9.89903,"lines":null,"url":null},{"name":"Hammelburg Grundschule","lat":50.112934,"lng":9.892347,"lines":null,"url":null},{"name":"Hammelburg Friedhofstr.","lat":50.113331,"lng":9.894116,"lines":null,"url":null},{"name":"Hammelburg Friedhofstr.","lat":50.113331,"lng":9.894116,"lines":null,"url":null},{"name":"Hammelburg Schulzentrum","lat":50.114408,"lng":9.89965,"lines":null,"url":null},{"name":"Hammelburg Kissinger Str./Schulz.","lat":50.114737,"lng":9.899327,"lines":null,"url":null},{"name":"Hammelburg ZOB / Turnhouter Str.","lat":50.11544,"lng":9.888385,"lines":null,"url":null},{"name":"Hammelburg Kissinger Str.","lat":50.115451,"lng":9.894287,"lines":null,"url":null},{"name":"Hammelburg Ost","lat":50.115889,"lng":9.902111,"lines":null,"url":null},{"name":"Hammelburg Am Bahndamm","lat":50.115975,"lng":9.895572,"lines":null,"url":null},{"name":"Hammelburg Berliner Str.","lat":50.117571,"lng":9.90239,"lines":null,"url":null},{"name":"Hammelburg Breslauerstraße","lat":50.117899,"lng":9.902444,"lines":null,"url":null},{"name":"Hammelburg Museum/Saaletalstr.","lat":50.118153,"lng":9.885627,"lines":null,"url":null},{"name":"Hammelburg Betriebshof KOB","lat":50.118734,"lng":9.880588,"lines":null,"url":null},{"name":"Hammelburg","lat":50.120042,"lng":9.882968,"lines":null,"url":null},{"name":"Hammelburg Abzw. Weberstraße","lat":50.122029,"lng":9.883301,"lines":null,"url":null},{"name":"Hammelburg Schauppstraße","lat":50.123803,"lng":9.88499,"lines":null,"url":null}],"gauges":[{"id":1928,"name":"Wolfsmünster","lat":50.0874427,"lng":9.7353712},{"id":1927,"name":"Bad Kissingen Golfplatz","lat":50.1806086,"lng":10.073091},{"id":1926,"name":"Bad Kissingen Prinzreg.-bau","lat":50.1973697,"lng":10.0744755}],"depth_map":null}},"country":"DE","last_updated":"2026-05-06T06:36:39.719Z","error":false}