{"id":1597,"slug":"rhein-bei-neuenburg-am-rhein","url":"https://www.hejfish.com/d/1597-rhein-bei-neuenburg-am-rhein","name":"Rhein bei Neuenburg am Rhein","description":"Deutschland, Österreich, Niederlande","water_size_ha":null,"fish":[],"techniques":["Schleie","Schleie","Karpfen","Karpfen","Forelle","Forelle","Hecht","Hecht","Barbe","Barbe","Zander","Zander","Nase","Nase","Wels","Wels","Bachforelle","Bachforelle","Regenbogenforelle","Regenbogenforelle","Äsche","Äsche","Quappe","Quappe","Kaulbarsch","Kaulbarsch","Rapfen","Rapfen","Aland","Aland","Brasse","Brasse","Döbel","Döbel","Elritze","Elritze","Giebel","Giebel","Rotauge","Rotauge"],"properties":["Schleie","Schleie","Karpfen","Karpfen","Forelle","Forelle","Hecht","Hecht","Barbe","Barbe","Zander","Zander","Nase","Nase","Wels","Wels","Bachforelle","Bachforelle","Regenbogenforelle","Regenbogenforelle","Äsche","Äsche","Quappe","Quappe","Kaulbarsch","Kaulbarsch","Rapfen","Rapfen","Aland","Aland","Brasse","Brasse","Döbel","Döbel","Elritze","Elritze","Giebel","Giebel","Rotauge","Rotauge"],"tickets":[{"name":"Anglerverein Neuenburg e.V.","price":"ANGELKARTEN AB 11,00 €"}],"manager":null,"lat":47.75033428405,"lng":7.542122446169,"geocode_source":"hejfish_api_map","map_data":{"id":1597,"geojson":[],"locations":[{"lat":47.75033428405,"lng":7.542122446169},{"lat":47.856872391353,"lng":7.5625490282607}],"stations":[{"name":"Neuenburg Grenze","lat":47.814231,"lng":7.54937,"lines":null,"url":null},{"name":"Neuenburg Freudenbergstraße","lat":47.806183,"lng":7.551822,"lines":null,"url":null},{"name":"Neuenburg Otto-Lilienthal-Str.","lat":47.799987,"lng":7.552604,"lines":null,"url":null},{"name":"Steinenstadt Eichacker","lat":47.773152,"lng":7.554894,"lines":null,"url":null},{"name":"Neuenburg Gottlieb-Daimler-Str","lat":47.807674,"lng":7.554984,"lines":null,"url":null},{"name":"Steinenstadt Kirche","lat":47.768165,"lng":7.555397,"lines":null,"url":null},{"name":"Neuenburg Rudolf-Diesel-Str.","lat":47.806877,"lng":7.555604,"lines":null,"url":null},{"name":"Steinenstadt Malzacker","lat":47.770761,"lng":7.556044,"lines":null,"url":null},{"name":"Neuenburg Fischerstraße","lat":47.811812,"lng":7.558236,"lines":null,"url":null},{"name":"Steinenstadt Thermalsportbad","lat":47.760381,"lng":7.558542,"lines":null,"url":null},{"name":"Neuenburg Breisacher Straße","lat":47.81428,"lng":7.559081,"lines":null,"url":null},{"name":"Neuenburg Ensisheimer Str.","lat":47.818213,"lng":7.559961,"lines":null,"url":null},{"name":"Neuenburg Rathausplatz","lat":47.813737,"lng":7.56156,"lines":null,"url":null},{"name":"Neuenburg Bleicheweg","lat":47.821814,"lng":7.561946,"lines":null,"url":null},{"name":"Neuenburg (Baden) Bahnhof","lat":47.811619,"lng":7.562683,"lines":null,"url":null},{"name":"Neuenburg Sägeweg","lat":47.809894,"lng":7.562961,"lines":null,"url":null},{"name":"Neuenburg Beethovenstraße","lat":47.809562,"lng":7.563985,"lines":null,"url":null},{"name":"Neuenburg Rohrkopf","lat":47.822929,"lng":7.565162,"lines":null,"url":null},{"name":"Neuenburg Freiburger Str.","lat":47.819811,"lng":7.567147,"lines":null,"url":null},{"name":"Neuenburg Kreisgymnasium","lat":47.819841,"lng":7.567893,"lines":null,"url":null},{"name":"Neuenburg Freib.Str./Bierlehof","lat":47.81922,"lng":7.568109,"lines":null,"url":null},{"name":"Schliengen Bahnhof","lat":47.760889,"lng":7.56854,"lines":null,"url":null},{"name":"Neuenburg Friedhofstr(Hallenb)","lat":47.81466,"lng":7.568612,"lines":null,"url":null},{"name":"Neuenburg Müllheimerstraße","lat":47.811993,"lng":7.569187,"lines":null,"url":null},{"name":"Neuenburg Rheinfeldener Str.","lat":47.824703,"lng":7.569771,"lines":null,"url":null},{"name":"Schliengen Umgehungstraße","lat":47.760267,"lng":7.56978,"lines":null,"url":null},{"name":"Schliengen Eisenbahnstraße","lat":47.759759,"lng":7.570076,"lines":null,"url":null},{"name":"Neuenburg Einkaufsmärkte","lat":47.810714,"lng":7.570516,"lines":null,"url":null}],"gauges":[{"id":28,"name":"Rheinweiler","lat":47.711059,"lng":7.529275}],"depth_map":null},"last_updated":"2026-05-06T18:10:55.993Z","error":false}