{"id":15988,"slug":"sulz-bei-berching","url":"https://www.hejfish.com/d/15988-sulz-bei-berching","name":"Sulz bei Berching","description":"","water_size_ha":null,"fish":["BachforelleRegenbogenforelleÄscheKarpfenHechtFlussbarschAalDiv. Weißfische"],"techniques":["AnsitzangelnFeedern… mehr"],"properties":["kein Boot\nNachtfischen\nTechniken:\nAnsitzangelnFeedern… mehr"],"season":null,"water_type":null,"rules_text":"","mobile_ticket":false,"print_required":false,"tickets":[],"manager":null,"main_image":null,"location_info":["Bayern","Kreis Neumarkt in der Oberpfalz"],"lat":null,"lng":null,"geocode_source":null,"map_data":{"data":{"id":15988,"geojson":[],"locations":[{"lat":49.158738,"lng":11.452642},{"lat":49.08548,"lng":11.450677}],"stations":[{"name":"Berching Nordtangente","lat":49.110207,"lng":11.4408,"lines":null,"url":null},{"name":"Berching Schlesier Str.","lat":49.104121,"lng":11.44106,"lines":null,"url":null},{"name":"Berching Pettenkofer Platz","lat":49.106091,"lng":11.441312,"lines":null,"url":null},{"name":"Berching Reischelhaus","lat":49.118557,"lng":11.441842,"lines":null,"url":null},{"name":"Berching Vorstadt","lat":49.106608,"lng":11.44407,"lines":null,"url":null},{"name":"Abzw. Grubmühle","lat":49.125124,"lng":11.44424,"lines":null,"url":null},{"name":"Berching Maria-Hilf-Str.","lat":49.102103,"lng":11.444258,"lines":null,"url":null},{"name":"Berching Neumarkter Tor","lat":49.108967,"lng":11.444456,"lines":null,"url":null},{"name":"Mühlhausen (NM) Am Rohrfeld","lat":49.16527,"lng":11.44619,"lines":null,"url":null},{"name":"Berching Helios-Klinik","lat":49.10882,"lng":11.447268,"lines":null,"url":null},{"name":"Breitenfurt","lat":49.139325,"lng":11.448364,"lines":null,"url":null},{"name":"Wegscheid (b. Berching)","lat":49.134299,"lng":11.448849,"lines":null,"url":null},{"name":"Eglasmühle Ort","lat":49.078855,"lng":11.449064,"lines":null,"url":null},{"name":"Rappersdorf Ortsmitte","lat":49.127534,"lng":11.450016,"lines":null,"url":null},{"name":"Rappersdorf Berchinger Str.","lat":49.126787,"lng":11.450457,"lines":null,"url":null},{"name":"Pollanten Industriegebiet","lat":49.138872,"lng":11.453385,"lines":null,"url":null},{"name":"Abzw. Eglasmühle","lat":49.078772,"lng":11.4544,"lines":null,"url":null},{"name":"Pollanten Nord","lat":49.145665,"lng":11.458658,"lines":null,"url":null},{"name":"Pollanten Süd","lat":49.14261,"lng":11.458829,"lines":null,"url":null}],"gauges":[],"depth_map":null}},"country":"DE","last_updated":"2026-05-06T06:37:22.514Z","error":false}