{"id":16015,"slug":"suederau","url":"https://www.hejfish.com/d/16015-suederau","name":"Süderau","description":"","water_size_ha":null,"fish":["AalFlussbarschHechtDiv. WeißfischeZander"],"techniques":["AnsitzangelnFeedern… mehr"],"properties":["kein Boot\nNachtfischen\nÖffisFangmeldung erforderlich\nTechniken:\nAnsitzangelnFeedern… mehr"],"season":null,"water_type":null,"rules_text":"","mobile_ticket":false,"print_required":false,"tickets":[],"manager":null,"main_image":null,"location_info":["Schleswig-Holstein","Kreis Nordfriesland"],"lat":null,"lng":null,"geocode_source":null,"map_data":{"data":{"id":16015,"geojson":[],"locations":[{"lat":54.903839,"lng":8.910101},{"lat":54.905526,"lng":8.83708}],"stations":[{"name":"Süderlügum Neuflützholm","lat":54.896397,"lng":8.882853,"lines":null,"url":null},{"name":"Ellhöft-Böglum B5","lat":54.898685,"lng":8.912094,"lines":null,"url":null},{"name":"Toender [Grenze]","lat":54.899235,"lng":8.872908,"lines":null,"url":null},{"name":"Ellhöft-Böglum Grenze","lat":54.903161,"lng":8.910666,"lines":null,"url":null},{"name":"Aventoft Hungerburg","lat":54.903911,"lng":8.830244,"lines":null,"url":null}],"gauges":[{"id":493,"name":"Dagebüll","lat":54.730507,"lng":8.686973}],"depth_map":null}},"country":"DE","last_updated":"2026-05-06T06:37:55.493Z","error":false}