{"id":16026,"slug":"froschgrundsee-schoenstaedtspeicher","url":"https://www.hejfish.com/d/16026-froschgrundsee-schoenstaedtspeicher","name":"Froschgrundsee (Schönstädtspeicher)","description":"","water_size_ha":null,"fish":["ForelleKarpfenHechtDiv. WeißfischeZander"],"techniques":["AnsitzangelnFeedern… mehr"],"properties":["kein Boot\nKein Nachtfischen\nÖffisFangmeldung erforderlich\nTechniken:\nAnsitzangelnFeedern… mehr"],"season":null,"water_type":null,"rules_text":"","mobile_ticket":false,"print_required":false,"tickets":[],"manager":null,"main_image":null,"location_info":["Bayern","Kreis Coburg"],"lat":null,"lng":null,"geocode_source":null,"map_data":{"data":{"id":16026,"geojson":[],"locations":[{"lat":50.349472,"lng":11.029889},{"lat":50.353889,"lng":11.023722}],"stations":[{"name":"Fischbach (b. Rödental)","lat":50.340898,"lng":11.033845,"lines":null,"url":null},{"name":"Schönstädt","lat":50.341615,"lng":11.02876,"lines":null,"url":null},{"name":"Froschgrundsee Nord","lat":50.356398,"lng":11.023514,"lines":null,"url":null}],"gauges":[{"id":1829,"name":"Schönstädt Seepegel","lat":50.3492879,"lng":11.0276549}],"depth_map":null}},"country":"DE","last_updated":"2026-05-06T06:43:08.737Z","error":false}