{"id":16029,"slug":"teupitzer-see-silbersee-mielitzsee-schweriner-see-zemminsee","url":"https://www.hejfish.com/d/16029-teupitzer-see-silbersee-mielitzsee-schweriner-see-zemminsee","name":"Teupitzer See | Silbersee | Mielitzsee | Schweriner See | Zemminsee","description":"","water_size_ha":null,"fish":["AalBrasseDiv. WeißfischeFlussbarschHechtKarpfenSchleieWelsZander"],"techniques":["AnsitzangelnFeedern… mehr"],"properties":["kein Boot\nNachtfischen\nÖffis\nTechniken:\nAnsitzangelnFeedern… mehr"],"season":null,"water_type":null,"rules_text":"","mobile_ticket":false,"print_required":false,"tickets":[],"manager":null,"main_image":null,"location_info":["Brandenburg","Kreis Dahme-Spreewald"],"lat":null,"lng":null,"geocode_source":null,"map_data":{"data":{"id":16029,"geojson":[],"locations":[{"lat":52.139979284023,"lng":13.602435082661},{"lat":52.146667494624,"lng":13.627010574264},{"lat":52.149302639414,"lng":13.635888064418},{"lat":52.153974655733,"lng":13.623149226962},{"lat":52.161347029815,"lng":13.637006772568}],"stations":[{"name":"Teupitz, Kaufhalle","lat":52.132641,"lng":13.608859,"lines":null,"url":null},{"name":"Teupitz, Markt","lat":52.135883,"lng":13.609735,"lines":null,"url":null},{"name":"Teupitz, Schule","lat":52.134506,"lng":13.615119,"lines":null,"url":null},{"name":"Teupitz, Bahnhofstr.","lat":52.134836,"lng":13.615291,"lines":null,"url":null},{"name":"Teupitz, Bergstr.","lat":52.135971,"lng":13.619714,"lines":null,"url":null},{"name":"Teupitz, Gesenberg","lat":52.131408,"lng":13.621264,"lines":null,"url":null},{"name":"Schwerin (LDS), Feuerwehr","lat":52.149098,"lng":13.621389,"lines":null,"url":null},{"name":"Schwerin (LDS), Bergfrieden","lat":52.140775,"lng":13.628537,"lines":null,"url":null},{"name":"Schwerin (LDS), Waldstr.","lat":52.147218,"lng":13.637041,"lines":null,"url":null},{"name":"Schwerin (LDS), Seglerheim","lat":52.152989,"lng":13.64282,"lines":null,"url":null}],"gauges":[{"id":286,"name":"Berlin-Schmöckwitz","lat":52.374398,"lng":13.653581},{"id":1179,"name":"Märkisch Buchholz 1 OP","lat":52.10662024,"lng":13.76100267},{"id":1187,"name":"Mittenwalde, Verteilerwehr OP","lat":52.2627165,"lng":13.51119529},{"id":287,"name":"Neue Mühle Schleuse UP","lat":52.297475,"lng":13.649641},{"id":288,"name":"Neue Mühle Schleuse OP","lat":52.296816,"lng":13.651758},{"id":629,"name":"Kummersdorf UP","lat":52.268776,"lng":13.8646},{"id":630,"name":"Kummersdorf OP","lat":52.267397,"lng":13.866129},{"id":631,"name":"Storkow UP","lat":52.258404,"lng":13.931064},{"id":632,"name":"Storkow OP","lat":52.258571,"lng":13.933564},{"id":1083,"name":"Teupitz 2","lat":52.13765156,"lng":13.6065515},{"id":1109,"name":"Prieros, Schleuse UP","lat":52.21822591,"lng":13.77281579},{"id":1228,"name":"Prieros, Schleuse OP","lat":52.21818539,"lng":13.77324143},{"id":621,"name":"Wernsdorf UP","lat":52.372628,"lng":13.707554},{"id":622,"name":"Wernsdorf OP","lat":52.371176,"lng":13.711208},{"id":1024,"name":"Märkisch Buchholz 2","lat":52.10711203,"lng":13.7471315},{"id":1205,"name":"Prierow 2","lat":51.97551006,"lng":13.61821266},{"id":1049,"name":"Leibsch, Spreewehr UP","lat":52.08516225,"lng":13.87720403},{"id":1030,"name":"Leibsch, Spreewehr OP","lat":52.08466381,"lng":13.87679328}],"depth_map":null}},"country":"DE","last_updated":"2026-05-06T06:38:04.031Z","error":false}