{"id":16046,"slug":"grosses-moor-tellingstedt","url":"https://www.hejfish.com/d/16046-grosses-moor-tellingstedt","name":"Großes Moor Tellingstedt","description":"","water_size_ha":null,"fish":["AalFlussbarschDiv. WeißfischeHechtSchleieZanderKarpfen"],"techniques":["AnsitzangelnFriedfischangeln… mehr"],"properties":["kein Boot\nNachtfischenFangmeldung erforderlich\nTechniken:\nAnsitzangelnFriedfischangeln… mehr"],"season":null,"water_type":null,"rules_text":"","mobile_ticket":false,"print_required":false,"tickets":[],"manager":null,"main_image":null,"location_info":["Schleswig-Holstein","Kreis Dithmarschen"],"lat":null,"lng":null,"geocode_source":null,"map_data":{"data":{"id":16046,"geojson":[],"locations":[{"lat":54.242738,"lng":9.331976}],"stations":[{"name":"Süderdorf Lendernhude","lat":54.23329,"lng":9.335305,"lines":null,"url":null}],"gauges":[{"id":242,"name":"Friedrichstadt Treene","lat":54.373651,"lng":9.083813},{"id":208,"name":"NOK Dükerswisch","lat":54.04072,"lng":9.302243},{"id":80,"name":"Lexfähre Oberwasser","lat":54.222472,"lng":9.436143},{"id":81,"name":"Lexfähre Unterwasser","lat":54.223219,"lng":9.435676},{"id":209,"name":"NOK Breiholz","lat":54.200164,"lng":9.552319},{"id":210,"name":"NOK Rendsburg","lat":54.297692,"lng":9.693628},{"id":38,"name":"Nordfeld Oberwasser","lat":54.338733,"lng":9.139643},{"id":39,"name":"Nordfeld Unterwasser","lat":54.339462,"lng":9.138247},{"id":40,"name":"Friedrichstadt Strassenbrücke","lat":54.368469,"lng":9.094603}],"depth_map":null}},"country":"DE","last_updated":"2026-05-06T06:38:22.439Z","error":false}