{"id":16059,"slug":"trammer-see","url":"https://www.hejfish.com/d/16059-trammer-see","name":"Trammer See","description":"","water_size_ha":null,"fish":["AalFlussbarschDiv. WeißfischeHechtKarpfenSchleie"],"techniques":["AnsitzangelnFriedfischangeln… mehr"],"properties":["Boot\nKein NachtfischenFangmeldung erforderlich\nTechniken:\nAnsitzangelnFriedfischangeln… mehr"],"season":null,"water_type":null,"rules_text":"","mobile_ticket":false,"print_required":false,"tickets":[],"manager":null,"main_image":null,"location_info":["Schleswig-Holstein","Kreis Plön"],"lat":null,"lng":null,"geocode_source":null,"map_data":{"data":{"id":16059,"geojson":[],"locations":[{"lat":54.170806936973,"lng":10.410663658733}],"stations":[{"name":"Plön Rodomstorschule","lat":54.161,"lng":10.41856,"lines":null,"url":null},{"name":"Plön Appelwarder","lat":54.161293,"lng":10.405469,"lines":null,"url":null},{"name":"Plön Katholische Kirche","lat":54.162019,"lng":10.413228,"lines":null,"url":null},{"name":"Plön Trentseeweg","lat":54.16275,"lng":10.40853,"lines":null,"url":null},{"name":"Plön Brückenstraße","lat":54.16303,"lng":10.41798,"lines":null,"url":null},{"name":"Plön Kleingärten","lat":54.16347,"lng":10.40406,"lines":null,"url":null},{"name":"Plön Schiffsthal","lat":54.16435,"lng":10.41876,"lines":null,"url":null},{"name":"Rathjensdorf-Tramm Ort","lat":54.171635,"lng":10.4037,"lines":null,"url":null}],"gauges":[],"depth_map":null}},"country":"DE","last_updated":"2026-05-06T06:38:37.032Z","error":false}