{"id":16062,"slug":"schwarzach-abschnitt-i","url":"https://www.hejfish.com/d/16062-schwarzach-abschnitt-i","name":"Schwarzach - Abschnitt I","description":"","water_size_ha":null,"fish":["AalHechtZanderWelsBachforelleRegenbogenforelleÄscheFlussbarschQuappeDöbelKarpfenSchleieBarbeNaseDiv. Weißfische"],"techniques":["AnsitzangelnFliegenfischen… mehr"],"properties":["kein Boot\nNachtfischen\nÖffisFangmeldung erforderlich\nTechniken:\nAnsitzangelnFliegenfischen… mehr"],"season":null,"water_type":null,"rules_text":"","mobile_ticket":false,"print_required":false,"tickets":[],"manager":null,"main_image":null,"location_info":["Bayern","Kreis Schwandorf"],"lat":null,"lng":null,"geocode_source":null,"map_data":{"data":{"id":16062,"geojson":[],"locations":[{"lat":49.351133,"lng":12.389036},{"lat":49.364517,"lng":12.398253}],"stations":[{"name":"Mitteraschau","lat":49.369717,"lng":12.379207,"lines":null,"url":null},{"name":"Neunburg v.W., ev.Kirche","lat":49.34719,"lng":12.379557,"lines":null,"url":null},{"name":"Neunburg v.W., ev.Kirche","lat":49.34719,"lng":12.379557,"lines":null,"url":null},{"name":"Neunburg v.W., Ärztehaus","lat":49.348215,"lng":12.382378,"lines":null,"url":null},{"name":"Neunburg v.W., Freibad","lat":49.351421,"lng":12.382818,"lines":null,"url":null},{"name":"Neunburg v.W., Grundschule","lat":49.347109,"lng":12.383618,"lines":null,"url":null},{"name":"Neunburg vorm Wald, Ost","lat":49.347343,"lng":12.388747,"lines":null,"url":null},{"name":"Neunburg v.W., Ost/ Stadthalle","lat":49.348074,"lng":12.38969,"lines":null,"url":null},{"name":"Neunburg v.W., Kröblitzer Str.","lat":49.354031,"lng":12.39128,"lines":null,"url":null},{"name":"Kröblitz","lat":49.361515,"lng":12.399823,"lines":null,"url":null},{"name":"Neumurnthal","lat":49.369126,"lng":12.404566,"lines":null,"url":null}],"gauges":[{"id":1446,"name":"Witzelsmühle Silberseeabfluss","lat":49.4047357,"lng":12.6050916},{"id":1443,"name":"Warnbach","lat":49.4044349,"lng":12.2109781},{"id":1444,"name":"Tiefenbach","lat":49.4353829,"lng":12.5961098},{"id":1442,"name":"Eixendorf Speicherabfluss","lat":49.3595073,"lng":12.4479791},{"id":1440,"name":"Rötz Speicherzufluss","lat":49.3372353,"lng":12.5152108},{"id":1439,"name":"Hocha Perlseeabfluss","lat":49.3893702,"lng":12.6963594},{"id":1437,"name":"Höll","lat":49.4095812,"lng":12.7044426}],"depth_map":null}},"country":"DE","last_updated":"2026-05-06T06:38:45.484Z","error":false}