{"id":16065,"slug":"schwarzach-abschnitt-iv","url":"https://www.hejfish.com/d/16065-schwarzach-abschnitt-iv","name":"Schwarzach - Abschnitt IV","description":"","water_size_ha":null,"fish":["AalHechtZanderWelsBachforelleRegenbogenforelleÄscheFlussbarschQuappeDöbelKarpfenSchleieBarbeNaseDiv. Weißfische"],"techniques":["AnsitzangelnFliegenfischen… mehr"],"properties":["kein Boot\nNachtfischen\nÖffisFangmeldung erforderlich\nTechniken:\nAnsitzangelnFliegenfischen… mehr"],"season":null,"water_type":null,"rules_text":"","mobile_ticket":false,"print_required":false,"tickets":[],"manager":null,"main_image":null,"location_info":["Bayern","Kreis Schwandorf"],"lat":null,"lng":null,"geocode_source":null,"map_data":{"data":{"id":16065,"geojson":[],"locations":[{"lat":49.355456,"lng":12.373284},{"lat":49.357931,"lng":12.363966}],"stations":[{"name":"Pettendorf","lat":49.354043,"lng":12.357611,"lines":null,"url":null},{"name":"Katzdorf (Neunburg)","lat":49.352252,"lng":12.36257,"lines":null,"url":null},{"name":"Götzenhof","lat":49.361766,"lng":12.36725,"lines":null,"url":null},{"name":"Neunburg v.W., Berufsschule","lat":49.34602,"lng":12.371706,"lines":null,"url":null},{"name":"Neunburg v.W., Schulzentrum","lat":49.347963,"lng":12.371796,"lines":null,"url":null},{"name":"Neunburg v.W., Amberger Str.","lat":49.346242,"lng":12.373889,"lines":null,"url":null},{"name":"Unteraschau","lat":49.354646,"lng":12.376368,"lines":null,"url":null},{"name":"Neunburg v.W., ev.Kirche","lat":49.34719,"lng":12.379557,"lines":null,"url":null},{"name":"Neunburg v.W., ev.Kirche","lat":49.34719,"lng":12.379557,"lines":null,"url":null},{"name":"Neunburg v.W., Ärztehaus","lat":49.348215,"lng":12.382378,"lines":null,"url":null},{"name":"Neunburg v.W., Freibad","lat":49.351421,"lng":12.382818,"lines":null,"url":null}],"gauges":[{"id":1446,"name":"Witzelsmühle Silberseeabfluss","lat":49.4047357,"lng":12.6050916},{"id":1443,"name":"Warnbach","lat":49.4044349,"lng":12.2109781},{"id":1444,"name":"Tiefenbach","lat":49.4353829,"lng":12.5961098},{"id":1442,"name":"Eixendorf Speicherabfluss","lat":49.3595073,"lng":12.4479791},{"id":1440,"name":"Rötz Speicherzufluss","lat":49.3372353,"lng":12.5152108},{"id":1439,"name":"Hocha Perlseeabfluss","lat":49.3893702,"lng":12.6963594}],"depth_map":null}},"country":"DE","last_updated":"2026-05-06T06:38:53.638Z","error":false}