{"id":16068,"slug":"ascha","url":"https://www.hejfish.com/d/16068-ascha","name":"Ascha","description":"","water_size_ha":null,"fish":["AalHechtZanderWelsBachforelleRegenbogenforelleÄscheFlussbarschQuappeDöbelKarpfenSchleieBarbeNaseDiv. Weißfische"],"techniques":["AnsitzangelnFliegenfischen… mehr"],"properties":["kein Boot\nNachtfischen\nÖffisFangmeldung erforderlich\nTechniken:\nAnsitzangelnFliegenfischen… mehr"],"season":null,"water_type":null,"rules_text":"","mobile_ticket":false,"print_required":false,"tickets":[],"manager":null,"main_image":null,"location_info":["Bayern","Kreis Schwandorf"],"lat":null,"lng":null,"geocode_source":null,"map_data":{"data":{"id":16068,"geojson":[],"locations":[{"lat":49.404007,"lng":12.395632},{"lat":49.403182,"lng":12.408465}],"stations":[{"name":"Bach bei Dieterskirchen","lat":49.402499,"lng":12.391756,"lines":null,"url":null},{"name":"Prackendorf","lat":49.399552,"lng":12.414151,"lines":null,"url":null}],"gauges":[{"id":1490,"name":"Balbersdorf","lat":49.2914872,"lng":12.6792994},{"id":1436,"name":"Lohma","lat":49.6204856,"lng":12.4176744},{"id":1449,"name":"Fronhof","lat":49.4107489,"lng":12.3089204},{"id":1446,"name":"Witzelsmühle Silberseeabfluss","lat":49.4047357,"lng":12.6050916},{"id":1445,"name":"Witzelsmühle Seepegel","lat":49.4087623,"lng":12.6040769},{"id":1443,"name":"Warnbach","lat":49.4044349,"lng":12.2109781},{"id":1444,"name":"Tiefenbach","lat":49.4353829,"lng":12.5961098},{"id":1435,"name":"Trausnitz u. d. Mühle","lat":49.5193279,"lng":12.2642866},{"id":1447,"name":"Untereppenried","lat":49.4320463,"lng":12.4593714},{"id":1448,"name":"Gartenried","lat":49.487284,"lng":12.4493589},{"id":1434,"name":"Böhmischbruck","lat":49.5722984,"lng":12.3403433},{"id":1468,"name":"Nittenau","lat":49.1988304,"lng":12.271486},{"id":1442,"name":"Eixendorf Speicherabfluss","lat":49.3595073,"lng":12.4479791},{"id":1441,"name":"Eixendorf Seepegel","lat":49.3568813,"lng":12.4485392},{"id":1433,"name":"Pfrentsch","lat":49.6182406,"lng":12.4931003},{"id":1440,"name":"Rötz Speicherzufluss","lat":49.3372353,"lng":12.5152108},{"id":1413,"name":"Schwandorf","lat":49.3325507,"lng":12.1045986},{"id":1467,"name":"Kienhof","lat":49.1899559,"lng":12.4952381},{"id":1439,"name":"Hocha Perlseeabfluss","lat":49.3893702,"lng":12.6963594},{"id":1438,"name":"Hocha Seepegel","lat":49.389848,"lng":12.6982975},{"id":1437,"name":"Höll","lat":49.4095812,"lng":12.7044426},{"id":1412,"name":"Unterköblitz","lat":49.5355977,"lng":12.1539901}],"depth_map":null}},"country":"DE","last_updated":"2026-05-06T06:39:01.994Z","error":false}