{"id":16061,"slug":"schoehsee","url":"https://www.hejfish.com/d/16061-schoehsee","name":"Schöhsee","description":"","water_size_ha":null,"fish":["AalFlussbarschDiv. WeißfischeHechtKarpfenSchleie"],"techniques":["AnsitzangelnFriedfischangeln… mehr"],"properties":["Boot\nKein NachtfischenFangmeldung erforderlich\nTechniken:\nAnsitzangelnFriedfischangeln… mehr"],"season":null,"water_type":null,"rules_text":"","mobile_ticket":false,"print_required":false,"tickets":[],"manager":null,"main_image":null,"location_info":["Schleswig-Holstein","Kreis Plön"],"lat":null,"lng":null,"geocode_source":null,"map_data":{"data":{"id":16061,"geojson":[],"locations":[{"lat":54.165382838708,"lng":10.439387131324}],"stations":[{"name":"Plön Schwimmhalle","lat":54.155554,"lng":10.448301,"lines":null,"url":null},{"name":"Plön Schillener Straße","lat":54.156422,"lng":10.442913,"lines":null,"url":null},{"name":"Plön Danziger Straße","lat":54.15703,"lng":10.44663,"lines":null,"url":null},{"name":"Plön Breitenauschule","lat":54.157198,"lng":10.439042,"lines":null,"url":null},{"name":"Plön Hipperstraße","lat":54.157535,"lng":10.4392,"lines":null,"url":null},{"name":"Plön Scharweg","lat":54.15896,"lng":10.434645,"lines":null,"url":null},{"name":"Plön Ulmenstraße","lat":54.15896,"lng":10.44776,"lines":null,"url":null},{"name":"Plön Kindergarten","lat":54.15947,"lng":10.44389,"lines":null,"url":null},{"name":"Plön Osterkirche","lat":54.15987,"lng":10.43969,"lines":null,"url":null},{"name":"Plön Meisenweg","lat":54.16436,"lng":10.42979,"lines":null,"url":null},{"name":"Plön Behler Weg","lat":54.169413,"lng":10.434914,"lines":null,"url":null}],"gauges":[],"depth_map":null}},"country":"DE","last_updated":"2026-05-06T06:38:40.321Z","error":false}