{"id":16071,"slug":"altenufer-weiher","url":"https://www.hejfish.com/d/16071-altenufer-weiher","name":"Altenufer Weiher","description":"","water_size_ha":null,"fish":["HechtZanderKarpfenSchleieAalFlussbarschWelsRotaugeRotfederBrasseKarausche"],"techniques":["AnsitzangelnFriedfischangeln… mehr"],"properties":["kein Boot\nNachtfischen\nTechniken:\nAnsitzangelnFriedfischangeln… mehr"],"season":null,"water_type":null,"rules_text":"","mobile_ticket":false,"print_required":false,"tickets":[],"manager":null,"main_image":null,"location_info":["Bayern","Kreis Deggendorf"],"lat":null,"lng":null,"geocode_source":null,"map_data":{"data":{"id":16071,"geojson":[],"locations":[{"lat":48.761806,"lng":13.039778}],"stations":[{"name":"Niederalteich, Gymnasium","lat":48.765684,"lng":13.031078,"lines":null,"url":null},{"name":"Hengersberg, Gewerbegebiet","lat":48.767674,"lng":13.045963,"lines":null,"url":null},{"name":"Altenufer","lat":48.762001,"lng":13.046619,"lines":null,"url":null}],"gauges":[{"id":68,"name":"Vilshofen","lat":48.637297,"lng":13.182429},{"id":43,"name":"Hofkirchen","lat":48.676675,"lng":13.115154},{"id":214,"name":"Deggendorf","lat":48.824944,"lng":12.96235}],"depth_map":null}},"country":"DE","last_updated":"2026-05-06T06:39:10.814Z","error":false}