{"id":16093,"slug":"grosse-huettener-au","url":"https://www.hejfish.com/d/16093-grosse-huettener-au","name":"Große Hüttener Au","description":"","water_size_ha":null,"fish":["AalFlussbarschHechtDiv. WeißfischeZanderKarpfenBachforelleMeerforelle"],"techniques":["AnsitzangelnFriedfischangeln… mehr"],"properties":["kein Boot\nKein NachtfischenFangmeldung erforderlich\nTechniken:\nAnsitzangelnFriedfischangeln… mehr"],"season":null,"water_type":null,"rules_text":"","mobile_ticket":false,"print_required":false,"tickets":[],"manager":null,"main_image":null,"location_info":["Schleswig-Holstein","Kreis Rendsburg-Eckernförde"],"lat":null,"lng":null,"geocode_source":null,"map_data":{"data":{"id":16093,"geojson":[],"locations":[{"lat":54.49138,"lng":9.70751},{"lat":54.4905,"lng":9.69994},{"lat":54.47198,"lng":9.71402}],"stations":[{"name":"Hummelfeld An der Au","lat":54.462099,"lng":9.718307,"lines":null,"url":null},{"name":"Hummelfeld Kirchdiek","lat":54.462589,"lng":9.702961,"lines":null,"url":null},{"name":"Fleckeby Engsiek","lat":54.472763,"lng":9.722825,"lines":null,"url":null},{"name":"Fleckeby Götheby-Holm Lehmsiekberg","lat":54.475929,"lng":9.722398,"lines":null,"url":null},{"name":"Götheby-Holm Möhlhorster Weg","lat":54.480712,"lng":9.715943,"lines":null,"url":null},{"name":"Fleckeby Schmiederedder","lat":54.481465,"lng":9.6964,"lines":null,"url":null},{"name":"Fleckeby Große Hüttener Au","lat":54.483037,"lng":9.701212,"lines":null,"url":null},{"name":"Fleckeby Bäckerweg","lat":54.483945,"lng":9.713345,"lines":null,"url":null},{"name":"Fleckeby Schule","lat":54.484319,"lng":9.704861,"lines":null,"url":null},{"name":"Götheby-Holm Kreisstraße","lat":54.485859,"lng":9.708973,"lines":null,"url":null},{"name":"Götheby-Holm Mühlenweg","lat":54.487394,"lng":9.714436,"lines":null,"url":null}],"gauges":[],"depth_map":null}},"country":"DE","last_updated":"2026-05-06T06:39:39.741Z","error":false}