{"id":16097,"slug":"ilz-gewaesserabschnitt-d-stausee-oberilzmuehle-von-kraftwerk-oberilzmuehle-bis-hinweistafel-bei-ca-fkm-12-6","url":"https://www.hejfish.com/d/16097-ilz-gewaesserabschnitt-d-stausee-oberilzmuehle-von-kraftwerk-oberilzmuehle-bis-hinweistafel-bei-ca-fkm-12-6","name":"Ilz - Gewässerabschnitt D (Stausee Oberilzmühle von Kraftwerk Oberilzmühle bis Hinweistafel bei ca. Fkm 12,6)","description":"","water_size_ha":null,"fish":["BachforelleRegenbogenforelleÄscheHechtZanderHuchenKarpfenSchleie"],"techniques":["FliegenfischenSpinnangeln… mehr"],"properties":["Boot\nNachtfischenFangmeldung erforderlich\nTechniken:\nFliegenfischenSpinnangeln… mehr"],"season":null,"water_type":null,"rules_text":"","mobile_ticket":false,"print_required":false,"tickets":[],"manager":null,"main_image":null,"location_info":["Bayern","Kreis Passau"],"lat":null,"lng":null,"geocode_source":null,"map_data":{"data":{"id":16097,"geojson":[],"locations":[{"lat":48.607612,"lng":13.445429},{"lat":48.63871,"lng":13.437698}],"stations":[{"name":"Moos bei Passau","lat":48.60459,"lng":13.428789,"lines":null,"url":null},{"name":"Jägerreuth","lat":48.599065,"lng":13.433973,"lines":null,"url":null},{"name":"Eggersdorf b. Salzweg,Ambrosmühl","lat":48.613844,"lng":13.44689,"lines":null,"url":null},{"name":"Atzmannsdorf,Ambrosmühl","lat":48.632988,"lng":13.450484,"lines":null,"url":null},{"name":"Ratzing b. Salzweg,Ambrosmühl","lat":48.628149,"lng":13.451759,"lines":null,"url":null}],"gauges":[{"id":1632,"name":"Kalteneck","lat":48.6887257,"lng":13.4519099},{"id":1631,"name":"Schrottenbaummühle","lat":48.7313355,"lng":13.4391896}],"depth_map":null}},"country":"DE","last_updated":"2026-05-06T06:39:51.529Z","error":false}