{"id":16095,"slug":"ilz-gewaesserabschnitt-b-von-wehr-hals-bis-hinweistafel-ca-100m-unterhalb-von-fkm-6-0","url":"https://www.hejfish.com/d/16095-ilz-gewaesserabschnitt-b-von-wehr-hals-bis-hinweistafel-ca-100m-unterhalb-von-fkm-6-0","name":"Ilz - Gewässerabschnitt B (von Wehr Hals bis Hinweistafel ca. 100m unterhalb von Fkm 6.0)","description":"","water_size_ha":null,"fish":["BachforelleRegenbogenforelleÄscheHechtZanderHuchenKarpfenSchleie"],"techniques":["FliegenfischenSpinnangeln… mehr"],"properties":["kein Boot\nNachtfischen\nÖffisFangmeldung erforderlich\nTechniken:\nFliegenfischenSpinnangeln… mehr"],"season":null,"water_type":null,"rules_text":"","mobile_ticket":false,"print_required":false,"tickets":[],"manager":null,"main_image":null,"location_info":["Bayern","Kreis Passau"],"lat":null,"lng":null,"geocode_source":null,"map_data":{"data":{"id":16095,"geojson":[],"locations":[{"lat":48.590254,"lng":13.460899},{"lat":48.597035,"lng":13.45461}],"stations":[{"name":"Passau, Abzw Freudenhain","lat":48.581781,"lng":13.450583,"lines":null,"url":null},{"name":"Ries, Rennweg","lat":48.587004,"lng":13.452298,"lines":null,"url":null},{"name":"Passau, Bockhofweg","lat":48.582512,"lng":13.452828,"lines":null,"url":null},{"name":"Hals, Hochstein","lat":48.594687,"lng":13.462521,"lines":null,"url":null},{"name":"Hals","lat":48.589238,"lng":13.462674,"lines":null,"url":null},{"name":"Passau, Landrichterstr.","lat":48.588632,"lng":13.463617,"lines":null,"url":null},{"name":"Stromlänge, Achatiusstraße","lat":48.587028,"lng":13.46421,"lines":null,"url":null},{"name":"Passau, Rosensteig","lat":48.585899,"lng":13.466168,"lines":null,"url":null},{"name":"Kinsing b. Salzweg,Ambrosmühl","lat":48.605695,"lng":13.468675,"lines":null,"url":null},{"name":"Stromlänge, Oetkersiedlung","lat":48.58499,"lng":13.46925,"lines":null,"url":null},{"name":"Sieglgut","lat":48.591407,"lng":13.470678,"lines":null,"url":null}],"gauges":[{"id":1632,"name":"Kalteneck","lat":48.6887257,"lng":13.4519099},{"id":1631,"name":"Schrottenbaummühle","lat":48.7313355,"lng":13.4391896}],"depth_map":null}},"country":"DE","last_updated":"2026-05-06T06:39:46.876Z","error":false}