{"id":16105,"slug":"untere-ach-maxlried","url":"https://www.hejfish.com/d/16105-untere-ach-maxlried","name":"Untere Ach (Maxlried)","description":"","water_size_ha":null,"fish":["BachforelleRegenbogenforelleÄscheAalBarbeKarpfenDöbelHecht"],"techniques":["Fliegenfischen"],"properties":["kein Boot\nKein NachtfischenFangmeldung erforderlich\nTechniken:\nFliegenfischen"],"season":null,"water_type":null,"rules_text":"","mobile_ticket":false,"print_required":false,"tickets":[],"manager":null,"main_image":null,"location_info":["Bayern","Kreis Weilheim-Schongau"],"lat":null,"lng":null,"geocode_source":null,"map_data":{"data":{"id":16105,"geojson":{"type":"FeatureCollection","features":[{"type":"Feature","properties":{"name":"Parkhinweis: mögliche Parkstelle","marker-color":"#19d72f","marker-size":"medium","marker-symbol":"circle"},"geometry":{"coordinates":[11.113602725038618,47.76167246317317],"type":"Point"},"id":1},{"type":"Feature","properties":{"name":"Parkhinweis: ab hier flussabwärts parken und befahren für Angler verboten - im Gewerbegebiet darf nach der STGVO frei geparkt werden sowie in Unter und Obermaxlried","marker-color":"#19d72f","marker-size":"medium","marker-symbol":"circle"},"geometry":{"coordinates":[11.110474076137223,47.777419176926486],"type":"Point"},"id":2},{"type":"Feature","properties":{"name":"Parkhinweis: ab diesem Punkt Fluss aufwärts-Befahren und Parken für Fischer verboten","marker-color":"#19d72f","marker-size":"medium","marker-symbol":"circle"},"geometry":{"coordinates":[11.123256161909438,47.76791670418015],"type":"Point"},"id":2}]},"locations":[{"lat":47.784076,"lng":11.107718},{"lat":47.760505,"lng":11.116683}],"stations":[{"name":"Untermaxlried Brücke","lat":47.774818,"lng":11.111477,"lines":null,"url":null},{"name":"Obermaxlried","lat":47.768002,"lng":11.119913,"lines":null,"url":null},{"name":"Oberhausen West","lat":47.775162,"lng":11.120425,"lines":null,"url":null},{"name":"Oberhausen Abzw. Obermaxlried","lat":47.77448,"lng":11.125275,"lines":null,"url":null},{"name":"Oberhausen Abzw. Thalhsn.","lat":47.787343,"lng":11.12647,"lines":null,"url":null}],"gauges":[{"id":1552,"name":"Hechendorf","lat":47.6576844,"lng":11.2079367},{"id":1554,"name":"Benediktbeuern","lat":47.6975955,"lng":11.4166337},{"id":1595,"name":"Seeshaupt","lat":47.8192222,"lng":11.321821},{"id":1587,"name":"Obermühlhausen","lat":47.9877792,"lng":11.0059763},{"id":1581,"name":"Herrsching","lat":47.9982072,"lng":11.1792925},{"id":1553,"name":"Dürnhausen","lat":47.728838,"lng":11.3038084},{"id":1578,"name":"Oberhausen","lat":47.7677486,"lng":11.1232232},{"id":1556,"name":"Bruggen","lat":47.8335379,"lng":11.4159799},{"id":1343,"name":"Engen","lat":47.7267444,"lng":10.8918139},{"id":1539,"name":"Beuerberg","lat":47.8352052,"lng":11.4150015},{"id":1538,"name":"Maxkron","lat":47.7715825,"lng":11.4019483},{"id":1582,"name":"Obermühlhausen","lat":47.9822634,"lng":11.0028945},{"id":1576,"name":"Obernach","lat":47.692762,"lng":11.1220154},{"id":1537,"name":"Kochel","lat":47.6657425,"lng":11.3630243},{"id":1535,"name":"Schlehdorf","lat":47.667474,"lng":11.324977},{"id":1534,"name":"Eschenlohe Brücke","lat":47.597492,"lng":11.1869236}],"depth_map":null}},"country":"DE","last_updated":"2026-05-06T06:39:59.877Z","error":false}