{"id":1611,"slug":"moehnesee","url":"https://www.hejfish.com/d/1611-moehnesee","name":"Möhnesee","description":"Deutschland, Österreich, Niederlande","water_size_ha":null,"fish":[],"techniques":["Aal","Aal","Flussbarsch","Flussbarsch","Brasse","Brasse","Hecht","Hecht","Karpfen","Karpfen","Seeforelle","Seeforelle","Zander","Zander","Rotauge","Rotauge","Wels","Wels","Quappe","Quappe","Große Maräne","Große Maräne","Kleine Maräne","Kleine Maräne","Rapfen","Rapfen"],"properties":["Aal","Aal","Flussbarsch","Flussbarsch","Brasse","Brasse","Hecht","Hecht","Karpfen","Karpfen","Seeforelle","Seeforelle","Zander","Zander","Rotauge","Rotauge","Wels","Wels","Quappe","Quappe","Große Maräne","Große Maräne","Kleine Maräne","Kleine Maräne","Rapfen","Rapfen"],"tickets":[{"name":"Ruhrverband Flussgebietsmanagement","price":"ANGELKARTEN AB 10,00 €"},{"name":"BOOTSPLAKETTEN","price":"94,50 €*"},{"name":"BOOTSPLAKETTEN","price":"44,50 €*"},{"name":"BOOTSPLAKETTEN","price":"44,50 €*"},{"name":"BOOTSPLAKETTEN","price":"44,50 €*"},{"name":"BOOTSPLAKETTEN","price":"44,50 €*"},{"name":"BOOTSPLAKETTEN","price":"44,50 €*"},{"name":"49,00 €","price":"49,00 €"},{"name":"49,00 €","price":"statt 79,00 €"}],"manager":null,"lat":51.47603,"lng":8.12317,"geocode_source":"hejfish_api_map","map_data":{"id":1611,"geojson":[],"locations":[{"lat":51.47603,"lng":8.12317}],"stations":[{"name":"Südufer, Möhneturm","lat":51.483696,"lng":8.120069,"lines":null,"url":null},{"name":"Südufer, Joseph-Joos-Weg","lat":51.483505,"lng":8.126412,"lines":null,"url":null},{"name":"Südufer, Jugendherberge","lat":51.483181,"lng":8.12855,"lines":null,"url":null},{"name":"Neuhaus, St. Meinolf","lat":51.468175,"lng":8.130867,"lines":null,"url":null}],"gauges":[{"id":997,"name":"Günne","lat":51.492889,"lng":8.047048},{"id":1003,"name":"Völlinghausen","lat":51.475666,"lng":8.200882}],"depth_map":null},"last_updated":"2026-05-06T18:10:56.048Z","error":false}