{"id":1611,"slug":"moehnesee","url":"https://www.hejfish.com/d/1611-moehnesee","name":"Möhnesee","description":"","water_size_ha":null,"fish":["AalFlussbarschBrasseHechtKarpfenSeeforelleZanderRotaugeWelsQuappeGroße MaräneKleine MaräneRapfen"],"techniques":["AnsitzangelnNaturköderangeln… mehr"],"properties":["Boot\nNachtfischen\nTechniken:\nAnsitzangelnNaturköderangeln… mehr"],"season":null,"water_type":null,"rules_text":"","mobile_ticket":false,"print_required":false,"tickets":[],"manager":null,"main_image":null,"location_info":["Nordrhein-Westfalen","Kreis Soest"],"lat":null,"lng":null,"geocode_source":null,"map_data":{"data":{"id":1611,"geojson":[],"locations":[{"lat":51.47603,"lng":8.12317}],"stations":[{"name":"Südufer, Möhneturm","lat":51.483696,"lng":8.120069,"lines":null,"url":null},{"name":"Südufer, Joseph-Joos-Weg","lat":51.483505,"lng":8.126412,"lines":null,"url":null},{"name":"Südufer, Jugendherberge","lat":51.483181,"lng":8.12855,"lines":null,"url":null},{"name":"Neuhaus, St. Meinolf","lat":51.468175,"lng":8.130867,"lines":null,"url":null}],"gauges":[{"id":997,"name":"Günne","lat":51.492889,"lng":8.047048},{"id":1003,"name":"Völlinghausen","lat":51.475666,"lng":8.200882}],"depth_map":null}},"country":"DE","last_updated":"2026-05-05T19:50:54.114Z","error":false}