{"id":16127,"slug":"hirseteich","url":"https://www.hejfish.com/d/16127-hirseteich","name":"Hirseteich","description":"","water_size_ha":null,"fish":["ForelleFlussbarschKarpfenSchleieDiv. Weißfische"],"techniques":["AnsitzangelnFriedfischangeln… mehr"],"properties":["kein Boot\nKein Nachtfischen\nTechniken:\nAnsitzangelnFriedfischangeln… mehr"],"season":null,"water_type":null,"rules_text":"","mobile_ticket":false,"print_required":false,"tickets":[],"manager":null,"main_image":null,"location_info":["Niedersachsen","Kreis Osterode am Harz"],"lat":null,"lng":null,"geocode_source":null,"map_data":{"data":{"id":16127,"geojson":[],"locations":[{"lat":51.592443412996,"lng":10.599233992821},{"lat":51.592468852986,"lng":10.597636957879}],"stations":[{"name":"Walkenried Mönchswald","lat":51.597747,"lng":10.601263,"lines":null,"url":null},{"name":"Walkenried","lat":51.584876,"lng":10.608814,"lines":null,"url":null},{"name":"Walkenried Bahnhof","lat":51.585208,"lng":10.608884,"lines":null,"url":null},{"name":"Walkenried Freizeitzentrum","lat":51.591814,"lng":10.609182,"lines":null,"url":null}],"gauges":[],"depth_map":null}},"country":"DE","last_updated":"2026-05-06T06:40:04.564Z","error":false}