{"id":16130,"slug":"hoellteich","url":"https://www.hejfish.com/d/16130-hoellteich","name":"Höllteich","description":"","water_size_ha":null,"fish":["ForelleFlussbarschKarpfenSchleieDiv. Weißfische"],"techniques":["AnsitzangelnFriedfischangeln… mehr"],"properties":["kein Boot\nKein Nachtfischen\nÖffis\nTechniken:\nAnsitzangelnFriedfischangeln… mehr"],"season":null,"water_type":null,"rules_text":"","mobile_ticket":false,"print_required":false,"tickets":[],"manager":null,"main_image":null,"location_info":["Niedersachsen","Kreis Osterode am Harz"],"lat":null,"lng":null,"geocode_source":null,"map_data":{"data":{"id":16130,"geojson":[],"locations":[{"lat":51.582914016744546,"lng":10.606927081492387},{"lat":51.583078283596784,"lng":10.606022698995716}],"stations":[{"name":"Walkenried","lat":51.584876,"lng":10.608814,"lines":null,"url":null},{"name":"Walkenried Bahnhof","lat":51.585208,"lng":10.608884,"lines":null,"url":null},{"name":"Walkenried Freizeitzentrum","lat":51.591814,"lng":10.609182,"lines":null,"url":null},{"name":"Walkenried Grundschule","lat":51.587678,"lng":10.614477,"lines":null,"url":null}],"gauges":[],"depth_map":null}},"country":"DE","last_updated":"2026-05-06T06:40:48.899Z","error":false}