{"id":1616,"slug":"listersee","url":"https://www.hejfish.com/d/1616-listersee","name":"Listersee","description":"","water_size_ha":null,"fish":["AalFlussbarschBrasseHechtKarpfenSeeforelleZanderBlaufelchenRotaugeWelsKleine MaräneSeesaibling"],"techniques":["AnsitzangelnNaturköderangeln… mehr"],"properties":["Boot\nNachtfischen\nÖffis\nTechniken:\nAnsitzangelnNaturköderangeln… mehr"],"season":null,"water_type":null,"rules_text":"","mobile_ticket":false,"print_required":false,"tickets":[],"manager":null,"main_image":null,"location_info":["Nordrhein-Westfalen","Kreis Olpe"],"lat":null,"lng":null,"geocode_source":null,"map_data":{"data":{"id":1616,"geojson":[],"locations":[{"lat":51.094174,"lng":7.837675}],"stations":[{"name":"Eichen","lat":51.094265,"lng":7.82959,"lines":null,"url":null},{"name":"Eichen Langenohl","lat":51.098456,"lng":7.83525,"lines":null,"url":null},{"name":"Weuste Listersperrmauer","lat":51.09541,"lng":7.841556,"lines":null,"url":null}],"gauges":[{"id":1012,"name":"Börlinghausen","lat":51.077717,"lng":7.779974}],"depth_map":null}},"country":"DE","last_updated":"2026-05-05T19:50:58.349Z","error":false}