{"id":1616,"slug":"listersee","url":"https://www.hejfish.com/d/1616-listersee","name":"Listersee","description":"Deutschland, Österreich, Niederlande","water_size_ha":null,"fish":[],"techniques":["Aal","Aal","Flussbarsch","Flussbarsch","Brasse","Brasse","Hecht","Hecht","Karpfen","Karpfen","Seeforelle","Seeforelle","Zander","Zander","Blaufelchen","Blaufelchen","Rotauge","Rotauge","Wels","Wels","Kleine Maräne","Kleine Maräne","Seesaibling","Seesaibling"],"properties":["Aal","Aal","Flussbarsch","Flussbarsch","Brasse","Brasse","Hecht","Hecht","Karpfen","Karpfen","Seeforelle","Seeforelle","Zander","Zander","Blaufelchen","Blaufelchen","Rotauge","Rotauge","Wels","Wels","Kleine Maräne","Kleine Maräne","Seesaibling","Seesaibling"],"tickets":[{"name":"Ruhrverband Flussgebietsmanagement","price":"ANGELKARTEN AB 10,00 €"},{"name":"49,00 €","price":"49,00 €"},{"name":"49,00 €","price":"statt 79,00 €"}],"manager":null,"lat":51.094174,"lng":7.837675,"geocode_source":"hejfish_api_map","map_data":{"id":1616,"geojson":[],"locations":[{"lat":51.094174,"lng":7.837675}],"stations":[{"name":"Eichen","lat":51.094265,"lng":7.82959,"lines":null,"url":null},{"name":"Eichen Langenohl","lat":51.098456,"lng":7.83525,"lines":null,"url":null},{"name":"Weuste Listersperrmauer","lat":51.09541,"lng":7.841556,"lines":null,"url":null}],"gauges":[{"id":1012,"name":"Börlinghausen","lat":51.077717,"lng":7.779974}],"depth_map":null},"last_updated":"2026-05-06T18:10:58.708Z","error":false}