{"id":13057,"slug":"lohne","url":"https://www.hejfish.com/d/13057-lohne","name":"Lohne","description":"","water_size_ha":null,"fish":["HechtZanderAalForelleBrasseSchleieKarpfenFlussbarschQuappe"],"techniques":["AnsitzangelnFeedern... mehr"],"properties":["kein Boot Nachtfischen Techniken: AnsitzangelnFeedern... mehr"],"season":null,"water_type":null,"rules_text":"","mobile_ticket":false,"print_required":true,"tickets":[],"manager":null,"main_image":null,"location_info":["Niedersachsen","Kreis Diepholz"],"lat":52.546438,"lng":8.372595,"geocode_source":"hejfish_api_map","map_data":{"data":{"id":13057,"geojson":[],"locations":[{"lat":52.546438,"lng":8.372595},{"lat":52.588327,"lng":8.376281}],"stations":[{"name":"Diepholz Lüderstraße","lat":52.596996,"lng":8.365646,"lines":null,"url":null},{"name":"Graftlage Stickforth","lat":52.565105,"lng":8.365737,"lines":null,"url":null},{"name":"Lembruch Bente Langhorst","lat":52.543264,"lng":8.375765,"lines":null,"url":null},{"name":"Heeder Bruch Funke","lat":52.576893,"lng":8.386171,"lines":null,"url":null}],"gauges":[],"depth_map":null}},"country":"DE","last_updated":"2026-05-07T09:38:57.182Z","error":false,"source_platform":"hejfish","global_id":"hejfish-13057","external_ids":{"hejfish":13057}}