{"id":12401,"slug":"schoepfwerk-hinter-dem-huchtinger-bahnhof","url":"https://www.hejfish.com/d/12401-schoepfwerk-hinter-dem-huchtinger-bahnhof","name":"Schöpfwerk hinter dem Huchtinger Bahnhof","description":"","water_size_ha":null,"fish":["Hecht","Zander","Karpfen","Schleie","Flussbarsch","Kaulbarsch","Brasse","Div. Weißfische"],"techniques":[],"properties":[],"tickets":[{"name":"Sportfischereiverein Bremen Stuhr e.V.","price":"ANGELKARTEN AB 15,00 €"},{"name":"49,00 €","price":"49,00 €"},{"name":"49,00 €","price":"statt 79,00 €"}],"manager":null,"lat":53.062307,"lng":8.735991,"geocode_source":"hejfish_api_map","map_data":{"id":12401,"geojson":[],"locations":[{"lat":53.062307,"lng":8.735991},{"lat":53.061868,"lng":8.731723},{"lat":53.062007,"lng":8.733597},{"lat":53.07338,"lng":8.728473}],"stations":[{"name":"Bremen Carl-Hurtzig-Straße","lat":53.055035,"lng":8.739491,"lines":null,"url":null},{"name":"Bremen Mittelshuchtinger Dorfstraße","lat":53.056921,"lng":8.723051,"lines":null,"url":null},{"name":"Bremen Harriersand","lat":53.057644,"lng":8.728433,"lines":null,"url":null},{"name":"Bremen Zum Huchtinger Bahnhof","lat":53.05814,"lng":8.735178,"lines":null,"url":null},{"name":"Bremen-Huchting Bahnhof","lat":53.061248,"lng":8.736591,"lines":null,"url":null},{"name":"Bremen-Huchting Bahnübergang","lat":53.062867,"lng":8.741742,"lines":null,"url":null},{"name":"Bremen Köhler Brücke","lat":53.076718,"lng":8.722993,"lines":null,"url":null},{"name":"Bremen Güterbahnhof Grolland","lat":53.0795,"lng":8.741807,"lines":null,"url":null},{"name":"Bremen Stromer Berg","lat":53.079807,"lng":8.73703,"lines":null,"url":null},{"name":"Bremen Ludwig-Erhard-Straße","lat":53.081246,"lng":8.730619,"lines":null,"url":null}],"gauges":[],"depth_map":null},"last_updated":"2026-05-06T18:12:06.082Z","error":false,"source_platform":"hejfish","global_id":"hejfish-12401","external_ids":{"hejfish":12401}}