{"id":13209,"slug":"kreuzweiher-in-hirschau","url":"https://www.hejfish.com/d/13209-kreuzweiher-in-hirschau","name":"Kreuzweiher in Hirschau","seo_name":"Kreuzweiher in Hirschau","description":"<p>Nur für Vereinsmitglieder !</p> <p>Lage: an der Kreisstraße nach Amberg</p> <p>Fläche: ca. 3 ha</p> <p>Gewässerbewuchs: keine Wasserpflanzen</p> <p>Uferbewuchs: große Eichen u. Erlen</p> <p>Gewässerbeschaffenheit: überwiegend schlammiger Boden</p> <p>Durchschnittliche Tiefe: ca. 1,5 Meter</p> <p>Der Kreuzweiher bietet an vielen Stellen geräumige Angelplätze. </p> <p>Letzte Bestandskontrolle: 1986<br></p>","intro":"","details":"","borders":"<p>Lage: Der Kreuzweiher befindet sich an der Amberger Strasse (Staatsstr 2238) am Ortsausgang von Hirschau in Richtung Amberg.<br></p>","image":"https://file.hejfish.com/image/cc1200x900/a3/74/a374ffb1365d01bb298fcb24559c1b76490162c1.jpeg","water_size_ha":null,"fish":["Spiegelkarpfen","Wels","Zander","Aal","Amur","Hecht","Schleie","Karpfen","Schuppenkarpfen","Div. Weißfische"],"techniques":["Ansitzangeln","Feedern","Friedfischangeln","Karpfenangeln","Naturköderangeln","Posenangeln","Raubfischangeln","Spinnangeln","Stippangeln"],"properties":[],"water_type":"Teich (Weiher)","rules_text":"","rules_files":[],"tickets":[],"ticket_types":[],"manager":{"id":1782,"name":"Hirschauer Anglerfreunde 1982 e.V","street":"Fasanenweg 8","postal_code":"92242 ","city":"Hirschau","telephone":"+49 9622 703050","email":"info@hirschauer-anglerfreunde.de","website":"http://www.hirschauer-anglerfreunde.de/index.php","logo":"https://file.hejfish.com/image/r200x200/db/c9/dbc968ba59f2d6828e8e4cbd64dbee700bc4c241.jpeg","slug":"hirschauer-anglerfreunde-1982-e-v"},"season_begin":"0001-01-01","season_end":"0001-12-31","features":{"accessible":false,"public_transport":true,"boat":false,"belly_boat":false,"digital_ticket":true,"night_fishing":true,"ice_fishing":false,"depth_map":false,"has_gauges":true},"location":{"city":{"id":34358,"name":"Hirschau"},"district":{"id":448,"name":"Kreis Amberg-Sulzbach"},"state":{"id":10,"name":"Bayern","slug":"bayern"},"country":{"id":2,"name":"Deutschland","code":"de","slug":"deutschland"}},"products":[],"points_of_interest":[],"catch_reports":[],"news":[{"id":6915,"text":"<p><b>Ab dem 27.04.2026 sind die Gewässer der Hirschauer Anglerfreunde 1982 wieder geöffnet.</b></p>","valid_from":null,"valid_till":null}],"hejfish_fee":[{"min":137,"max":297,"percent":8.9,"fisher_type":"guest"}],"lat":49.538851,"lng":11.934588,"geocode_source":"hejfish_api_map","map_data":{"id":13209,"geojson":[],"locations":[{"lat":49.538851,"lng":11.934588},{"lat":49.539043,"lng":11.934175},{"lat":49.53746,"lng":11.929778},{"lat":49.53721,"lng":11.929965}],"stations":[{"name":"Hirschau Kreuzweiher B14","lat":49.540328,"lng":11.933328,"lines":null,"url":null},{"name":"Hirschau Kreuzweiher","lat":49.539978,"lng":11.935161,"lines":null,"url":null},{"name":"Hirschau Burgstr.","lat":49.54305,"lng":11.943156,"lines":null,"url":null},{"name":"Hirschau Schule","lat":49.548739,"lng":11.944386,"lines":null,"url":null}],"gauges":[{"id":1460,"name":"Raigering","lat":49.4580816,"lng":11.895453},{"id":1458,"name":"Vilseck","lat":49.6258339,"lng":11.7992383},{"id":1432,"name":"Kettnitzmühle","lat":49.5492115,"lng":12.1231186},{"id":1430,"name":"Wildenau","lat":49.608343,"lng":12.1282828},{"id":1459,"name":"Obersdorf","lat":49.4943554,"lng":11.797942},{"id":1457,"name":"Langenbruck","lat":49.6403791,"lng":11.8314776},{"id":1461,"name":"Gärmersdorf","lat":49.4328748,"lng":11.8989614},{"id":1431,"name":"Grafenwöhr","lat":49.7181961,"lng":11.9159532},{"id":1443,"name":"Warnbach","lat":49.4044349,"lng":12.2109781},{"id":1435,"name":"Trausnitz u. d. Mühle","lat":49.5193279,"lng":12.2642866},{"id":1450,"name":"Unterpennading","lat":49.4409753,"lng":11.9920029},{"id":1426,"name":"Hammerles","lat":49.7308886,"lng":12.0456101},{"id":1454,"name":"Amberg","lat":49.4481514,"lng":11.8548648},{"id":1453,"name":"Hahnbach","lat":49.532803,"lng":11.799571},{"id":1452,"name":"Vilseck","lat":49.6119607,"lng":11.8015028},{"id":1451,"name":"Gressenwöhr","lat":49.6296842,"lng":11.8303031},{"id":1412,"name":"Unterköblitz","lat":49.5355977,"lng":12.1539901},{"id":1418,"name":"Weiden","lat":49.669672,"lng":12.166388}],"depth_map":null},"extractor_schema_version":2,"last_updated":"2026-05-07T11:42:15.872Z","error":false,"source_platform":"hejfish","global_id":"hejfish-13209","external_ids":{"hejfish":13209}}