{"id":"hejfish-13177","source_platform":"hejfish","source_ids":{"hejfish":13177},"name":"Sandsee 2","water_type":"See","country":"DE","center":{"lat":49.16601,"lng":11.179597,"source":"hejfish_api_map_geojson","confidence":"high"},"geometry":{"points":[{"lat":49.165966,"lng":11.179599}],"lines":[],"polygons":[[{"lat":49.165634,"lng":11.179721},{"lat":49.166007,"lng":11.17945},{"lat":49.165781,"lng":11.179276},{"lat":49.165741,"lng":11.179149},{"lat":49.165701,"lng":11.17912}],[{"lat":49.165636,"lng":11.179726},{"lat":49.165848,"lng":11.179782},{"lat":49.166007,"lng":11.179839},{"lat":49.166244,"lng":11.180075},{"lat":49.166386,"lng":11.179788},{"lat":49.166372,"lng":11.179745},{"lat":49.166255,"lng":11.179734},{"lat":49.166016,"lng":11.179453},{"lat":49.165972,"lng":11.179479},{"lat":49.166253,"lng":11.179828},{"lat":49.166227,"lng":11.179903},{"lat":49.165778,"lng":11.179619}]],"source":"hejfish_api_map_geojson","confidence":"high"},"links":{"source":"https://www.hejfish.com/d/13177-sandsee-2","hejfish":"https://www.hejfish.com/d/13177-sandsee-2","alleangeln":null,"image":"https://file.hejfish.com/image/cc1200x900/dc/fb/dcfb1de6ae251199037cdd48cf639391c7f23cf6.jpeg"},"fish":["Karpfen","Zander","Wels","Sonstige","Giebel"],"metadata":{"platform":"hejfish","geocode_source":"hejfish_api_map_geojson","slug":"sandsee-2","seo_name":"Sandsee 2","description":"<p>Angelkarten nur für Mitglieder verfügbar<br></p>","borders":"<p>Ufer.<br></p>","techniques":["Ansitzangeln","Feedern","Friedfischangeln","Karpfenangeln","Posenangeln"],"manager":{"id":1775,"name":"Angelfreunde Eckersmühlen 05 e.V.","street":"Am Föhrenbaum 13","postal_code":"91154 ","city":"Roth-Eckersmühlen","telephone":"","email":"info@angelfreunde-eckersmuehlen.de","website":"https://angelfreunde-eckersmuehlen.de/","logo":"https://file.hejfish.com/image/r200x200/af/d8/afd82cd906a4c2a1551ed0bf78546a6d5f2b5065.png","slug":"angelfreunde-eckersmuehlen-05-e-v"},"season_begin":"0001-01-01","season_end":"0001-12-31","features":{"accessible":false,"public_transport":false,"boat":true,"belly_boat":true,"digital_ticket":true,"night_fishing":true,"ice_fishing":false,"depth_map":false,"has_gauges":false},"location":{"city":{"id":33986,"name":"Hilpoltstein"},"district":{"id":440,"name":"Kreis Roth"},"state":{"id":10,"name":"Bayern","slug":"bayern"},"country":{"id":2,"name":"Deutschland","code":"de","slug":"deutschland"}},"source_last_updated":"2026-05-07T11:42:12.780Z","error":false},"last_updated":"2026-05-07T11:42:12.780Z"}