{"id":"hejfish-14101","source_platform":"hejfish","source_ids":{"hejfish":14101},"name":"Lübtheener Bach bei Lübtheen","water_type":"Bach","country":"DE","center":{"lat":53.29747,"lng":11.044357,"source":"hejfish_api_map_geojson","confidence":"high"},"geometry":{"points":[{"lat":53.301893,"lng":11.040613},{"lat":53.30228,"lng":11.045812},{"lat":53.3029,"lng":11.0451}],"lines":[[{"lat":53.3051,"lng":11.075078},{"lat":53.304895,"lng":11.072117},{"lat":53.304651,"lng":11.06925},{"lat":53.30423,"lng":11.063204},{"lat":53.303836,"lng":11.058238},{"lat":53.303638,"lng":11.055284},{"lat":53.30336,"lng":11.051634},{"lat":53.303144,"lng":11.048755},{"lat":53.302809,"lng":11.044667},{"lat":53.302742,"lng":11.044066},{"lat":53.301995,"lng":11.040937},{"lat":53.300745,"lng":11.035769},{"lat":53.298017,"lng":11.031843},{"lat":53.294674,"lng":11.026982},{"lat":53.294519,"lng":11.026859},{"lat":53.294408,"lng":11.026544},{"lat":53.293471,"lng":11.025397},{"lat":53.290883,"lng":11.022206},{"lat":53.2908,"lng":11.022059},{"lat":53.290735,"lng":11.021865},{"lat":53.290694,"lng":11.021622},{"lat":53.290186,"lng":11.016934},{"lat":53.28984,"lng":11.013637}]],"polygons":[],"source":"hejfish_api_map_geojson","confidence":"high"},"links":{"source":"https://www.hejfish.com/d/14101-luebtheener-bach-bei-luebtheen","hejfish":"https://www.hejfish.com/d/14101-luebtheener-bach-bei-luebtheen","alleangeln":null,"image":null},"fish":["Flussbarsch","Rotauge"],"metadata":{"platform":"hejfish","geocode_source":"hejfish_api_map_geojson","slug":"luebtheener-bach-bei-luebtheen","seo_name":"Lübtheener Bach bei Lübtheen","techniques":["Spinnangeln","Fliegenfischen","Ansitzangeln","Feedern","Stippangeln","Posenangeln","Oberflächenangeln","Raubfischangeln","Friedfischangeln","Karpfenangeln"],"rules_files":[{"id":293082,"name":"satellitenbild","description":null,"file":"https://api.hejfish.com/files/download/0488df18dddb06cb7dfbe670672b679065e46f2c/satellitenbild.pdf"},{"id":884564,"name":"Gewaesserordnung 01.01.2023","description":null,"file":"https://api.hejfish.com/files/download/d4cbab17110d09a2062535e73af3194f406fe45b/Gewaesserordnung%2001.01.2023.pdf"}],"tickets":[{"name":"Tageskarte - Erwachsene","price":"16,00 EUR","ticket_type_id":6434,"price_id":100587},{"name":"Tageskarte - Jugend","price":"4,00 EUR","ticket_type_id":6434,"price_id":100588},{"name":"2-Tageskarte - Erwachsene","price":"32,00 EUR","ticket_type_id":6435,"price_id":100589},{"name":"2-Tageskarte - Jugend","price":"8,00 EUR","ticket_type_id":6435,"price_id":100590},{"name":"Wochenkarte - Erwachsene","price":"92,00 EUR","ticket_type_id":6436,"price_id":100591},{"name":"Wochenkarte - Jugend","price":"20,00 EUR","ticket_type_id":6436,"price_id":100592},{"name":"Monatskarte - Erwachsene","price":"172,00 EUR","ticket_type_id":6437,"price_id":100593}],"manager":{"id":1834,"name":"Landesanglerverband Mecklenburg-Vorpommern e.V.","street":"OT Görslow, Siedlung 18a","postal_code":"19067","city":"Leezen","telephone":"","email":"","website":"https://www.lav-mv.de/","logo":"https://file.hejfish.com/image/r200x200/37/cb/37cb2792d40e6c06eadde2bd767e4c1c68624403.png","slug":"landesanglerverband-mecklenburg-vorpommern-e-v"},"season_begin":"0001-01-01","season_end":"0001-12-31","features":{"accessible":false,"public_transport":false,"boat":true,"belly_boat":true,"digital_ticket":true,"night_fishing":true,"ice_fishing":false,"depth_map":false,"has_gauges":false},"location":{"city":{"id":8995,"name":"Lübtheen"},"district":{"id":150,"name":"Kreis Ludwigslust-Parchim"},"state":{"id":20,"name":"Mecklenburg-Vorpommern","slug":"mecklenburg-vorpommern"},"country":{"id":2,"name":"Deutschland","code":"de","slug":"deutschland"}},"source_last_updated":"2026-05-07T11:43:55.044Z","error":false},"last_updated":"2026-05-07T11:43:55.044Z"}