{"id":"hejfish-14982","source_platform":"hejfish","source_ids":{"hejfish":14982},"name":"Oberer und unterer Mühlenteich bei Dobritz","water_type":"Teich (Weiher)","country":"DE","center":{"lat":52.023862,"lng":12.243897,"source":"hejfish_api_map_geojson","confidence":"high"},"geometry":{"points":[{"lat":52.023942,"lng":12.243997}],"lines":[],"polygons":[[{"lat":52.024363,"lng":12.24316},{"lat":52.023914,"lng":12.243225},{"lat":52.023592,"lng":12.243337},{"lat":52.023285,"lng":12.243632},{"lat":52.023371,"lng":12.243944},{"lat":52.023579,"lng":12.244327},{"lat":52.023937,"lng":12.244633},{"lat":52.024439,"lng":12.244445},{"lat":52.024303,"lng":12.243901},{"lat":52.024391,"lng":12.243482}]],"source":"hejfish_api_map_geojson","confidence":"high"},"links":{"source":"https://www.hejfish.com/d/14982-oberer-und-unterer-muehlenteich-bei-dobritz","hejfish":"https://www.hejfish.com/d/14982-oberer-und-unterer-muehlenteich-bei-dobritz","alleangeln":null,"image":null},"fish":["Rotauge","Rotfeder","Schleie"],"metadata":{"platform":"hejfish","geocode_source":"hejfish_api_map_geojson","slug":"oberer-und-unterer-muehlenteich-bei-dobritz","seo_name":"Oberer und unterer Mühlenteich bei Dobritz","description":"<p><b>Gewässer-Nummer: </b>7-490-08<br><b>Größe:</b> 0,50 ha</p> <p><b>Bootangeln verboten!</b></p> <p><b>Die Gültigkeit des Erlaubnisscheins beginnt frühestens 1 Stunde nach der Buchung und wird dokumentiert!</b><br></p>","borders":"<p>Gewässer-Grenzen siehe Anhang.</p>","techniques":["Ansitzangeln","Feedern","Fliegenfischen","Friedfischangeln","Karpfenangeln","Oberflächenangeln","Posenangeln","Raubfischangeln","Spinnangeln","Stippangeln"],"rules_text":"<h3 style=\"font-family: \" helvetica=\"\" neue\",=\"\" helvetica,=\"\" arial,=\"\" sans-serif;=\"\" color:=\"\" rgb(0,=\"\" 0,=\"\" 0);\"=\"\"><b>Die Gültigkeit beginnt frühestens 1 Stunde nach der\r\nBuchung und wird dokumentiert!</b><span style=\"font-weight: 700;\"><br></span></h3><h3 style=\"font-family: \" helvetica=\"\" neue\",=\"\" helvetica,=\"\" arial,=\"\" sans-serif;=\"\" color:=\"\" rgb(0,=\"\" 0,=\"\" 0);\"=\"\"><span style=\"font-weight: 700;\">B</span><span style=\"font-weight: 700;\">estimmungen siehe Anhang!</span></h3><p><b>Gewässer-Grenzen:</b></p><ul><li><b>Kiesgrube Waldfrieden Zerbst</b>: Auf der Südseite des Gewässers ist das Angeln verboten. Die Benutzung eines Bootes ist ebenfalls verboten.</li><li><b>Stauanlage Gollbogen</b>: Das gesamte Gewässer darf gefischt werden. </li><li><b>Bonscher Teich:</b> Das gesamte Gewässer darf gefischt werden. </li><li><b>Ziegeleiteich bei Niederlepte</b>: Das gesamte Gewässer darf gefischt werden. </li><li><b>Oberer und unterer Mühlenteich bei Dobritz</b>: Das gesamte Gewässer darf gefischt werden.</li><li><b>Ziegeleiteich 1 und 2 bei Leitzkau:</b> Das gesamte Gewässer darf gefischt werden.</li><li><b>Schloßteich Leitzkau:</b> Das gesamte Gewässer darf gefischt werden.</li><li><b>Dornburger Se</b>e: Das gesamte Gewässer darf gefischt werden.</li></ul><p><span style=\"color: rgb(5, 5, 5); font-family: \"Segoe UI Historic\", \"Segoe UI\", Helvetica, Arial, sans-serif; font-size: 15px; white-space-collapse: preserve;\">Beim Spinnangeln in Salmonidengewässern dürfen nur künstliche Spinnköder oder Wobbler mit einem Einfachhaken verwendet werden.</span><br></p><h3><br></h3>","rules_files":[{"id":898120,"name":"anglerverein-zerbst-e-v-bestimmungen","description":null,"file":"https://api.hejfish.com/files/download/7d30e893f1d63074c7f559e164e7741d502bad77/anglerverein-zerbst-e-v-bestimmungen.pdf"}],"tickets":[{"name":"Kombi-Tageskarte - Normalpreis inkl. Servicegebühr","price":"18,00 EUR","ticket_type_id":7791,"price_id":102148},{"name":"Kombi-Wochenkarte - Normalpreis inkl. Servicegebühr","price":"33,00 EUR","ticket_type_id":7792,"price_id":102149},{"name":"Kombi-Monatskarte - Normalpreis inkl. Servicegebühr","price":"88,00 EUR","ticket_type_id":7793,"price_id":102150}],"manager":{"id":1996,"name":"Anglerverein Zerbst e.V.","street":" Biaser Str. 60 ","postal_code":" 39261","city":"Zerbst","telephone":"0049 1525 5983951","email":"anglerverein.zerbst@gmail.com","website":"https://anglervereinzerbst.de/","logo":"https://file.hejfish.com/image/r200x200/42/23/4223e76a5318d4c1a3e70152171878d7dda7f4e0.png","slug":"anglerverein-zerbst-e-v"},"season_begin":"0001-01-01","season_end":"0001-12-31","features":{"accessible":false,"public_transport":false,"boat":false,"belly_boat":false,"digital_ticket":false,"night_fishing":true,"ice_fishing":false,"depth_map":false,"has_gauges":false},"location":{"city":{"id":5859,"name":"Zerbst/Anhalt"},"district":{"id":113,"name":"Kreis Anhalt-Bitterfeld"},"state":{"id":17,"name":"Sachsen-Anhalt","slug":"sachsen-anhalt"},"country":{"id":2,"name":"Deutschland","code":"de","slug":"deutschland"}},"source_last_updated":"2026-05-07T11:44:59.822Z","error":false},"last_updated":"2026-05-07T11:44:59.822Z"}