{"id":12931,"slug":"altmuehl-bei-ehlheim","url":"https://www.hejfish.com/d/12931-altmuehl-bei-ehlheim","name":"Altmühl bei Ehlheim","seo_name":"Altmühl bei Ehlheim","description":"<h3>Nur für Mitglieder! </h3> <p>Altmühl bei Ehlheim</p>","intro":"","details":"","borders":"<p>Altmühl. Auf die Beschilderung ist zu achten</p>","image":"https://file.hejfish.com/image/cc1200x900/3b/3f/3b3fd96b8b2d6cee5284c355dc8ed9433622e205.jpeg","water_size_ha":null,"fish":["Aal","Quappe","Hecht","Zander","Barbe","Karpfen","Schleie","Brasse","Flussbarsch"],"techniques":["Ansitzangeln","Spinnangeln","Feedern","Posenangeln","Raubfischangeln","Friedfischangeln"],"properties":[],"water_type":"Fluss","rules_text":"","rules_files":[],"tickets":[],"ticket_types":[],"manager":{"id":1701,"name":"Fischereiverein Hahnenkamm e.V.","street":"Waldstr. 5","postal_code":"91805","city":"Polsingen","telephone":"","email":"info@fischereiverein-hahnenkamm.de","website":"http://www.fischereiverein-hahnenkamm-ev.de/","logo":"https://file.hejfish.com/image/r200x200/a1/bf/a1bff2433a5abe6fd0aa776124315656c311f90f.jpeg","slug":"fischereiverein-hahnenkamm-e-v"},"season_begin":"0001-01-01","season_end":"0001-12-31","features":{"accessible":false,"public_transport":false,"boat":false,"belly_boat":false,"digital_ticket":false,"night_fishing":true,"ice_fishing":false,"depth_map":false,"has_gauges":true},"location":{"city":{"id":34599,"name":"Dittenheim"},"district":{"id":453,"name":"Kreis Weißenburg-Gunzenhausen"},"state":{"id":10,"name":"Bayern","slug":"bayern"},"country":{"id":2,"name":"Deutschland","code":"de","slug":"deutschland"}},"products":[{"id":786,"name":"Statistikdaten in Rohformat (Excel) – Altmühl bei Ehlheim","caption":"","description":"<p>Mithilfe dieser Statistikdaten wollen wir dir zu deinem Fang verhelfen. In diesem Excel-Download findest du die anonymisierten Rohdaten zum jeweiligen Gewässer aus unserer Fangdatenbank.</p>","image":"https://file.hejfish.com/image/cc800x600/bd/85/bd8572e8d4e2c38eba0a2ce880a00196ceda2fd0.jpg","category":{"id":10,"name":"Fangstatistiken (Rohdaten)"},"price":null,"guest_ticket":null,"show_in_shop":false,"show_on_area_detail_page":true,"show_in_basket":false}],"points_of_interest":[],"catch_reports":[],"news":[],"hejfish_fee":[{"min":137,"max":297,"percent":8.9,"fisher_type":"guest"}],"lat":49.048018,"lng":10.825946,"geocode_source":"hejfish_api_map","map_data":{"id":12931,"geojson":[],"locations":[{"lat":49.048018,"lng":10.825946},{"lat":49.036509,"lng":10.8463}],"stations":[{"name":"Ehlheim","lat":49.043808,"lng":10.827313,"lines":null,"url":null},{"name":"Wachenhofen Kreisstr.","lat":49.055006,"lng":10.844624,"lines":null,"url":null}],"gauges":[{"id":1395,"name":"Eßlingen","lat":48.8873268,"lng":11.0176567},{"id":1394,"name":"Treuchtlingen","lat":48.9531559,"lng":10.9135837},{"id":1393,"name":"Aha","lat":49.1005098,"lng":10.7536737},{"id":1392,"name":"Muhr Seepegel","lat":49.1493309,"lng":10.7038326},{"id":1391,"name":"Ornbau Wehr Oberwasser","lat":49.1710743,"lng":10.6505639}],"depth_map":null},"extractor_schema_version":2,"last_updated":"2026-05-07T11:41:47.842Z","error":false,"source_platform":"hejfish","global_id":"hejfish-12931","external_ids":{"hejfish":12931}}