{"id":12878,"slug":"fliessgewaesser-waldnaab-wiesaubach-lfv","url":"https://www.hejfish.com/d/12878-fliessgewaesser-waldnaab-wiesaubach-lfv","name":"Fließgewässer Waldnaab/Wiesaubach (LFV)","seo_name":"Fließgewässer Waldnaab/Wiesaubach (LFV)","description":"<p> Gewässer-Art: Fliessgewässer der Waldnaab und Wiesaubach </p> <p> Lage: zwischen Tirschereuth und Gumpen </p> <p> Größe: ca. 4 km Länge </p> <p> Vorkommende Fischart: Karpfen, Schleien, Hecht, Barsch, Aal, Weissfische</p>","intro":"","details":"","borders":"","image":null,"water_size_ha":null,"fish":["Aal","Hecht","Karpfen","Schleie","Flussbarsch","Div. Weißfische","Bachforelle"],"techniques":["Ansitzangeln","Fliegenfischen","Naturköderangeln","Spinnangeln","Posenangeln","Raubfischangeln","Friedfischangeln"],"properties":[],"water_type":"Bach","rules_text":"","rules_files":[],"tickets":[],"ticket_types":[],"manager":{"id":1682,"name":"Fischereiverein Stiftland e.V.","street":"Postfach 1147","postal_code":"95633","city":"Tirschenreuth","telephone":"0049 170 967 29 01","email":"Vorstandschaft@fischereiverein-stiftland.de","website":"https://www.fischereiverein-stiftland.de/","logo":"https://file.hejfish.com/image/r200x200/a0/08/a0082c048fdb08349e996012f94663e6ecc1c297.png","slug":"fischereiverein-stiftland-e-v"},"season_begin":"0001-01-01","season_end":"0001-12-31","features":{"accessible":false,"public_transport":false,"boat":false,"belly_boat":false,"digital_ticket":true,"night_fishing":false,"ice_fishing":false,"depth_map":false,"has_gauges":false},"location":{"city":{"id":34814,"name":"Tirschenreuth"},"district":{"id":457,"name":"Kreis Tirschenreuth"},"state":{"id":10,"name":"Bayern","slug":"bayern"},"country":{"id":2,"name":"Deutschland","code":"de","slug":"deutschland"}},"products":[{"id":745,"name":"Statistikdaten in Rohformat (Excel) – Fließgewässer Waldnaab/Wiesaubach (LFV)","caption":"","description":"<p>Mithilfe dieser Statistikdaten wollen wir dir zu deinem Fang verhelfen. In diesem Excel-Download findest du die anonymisierten Rohdaten zum jeweiligen Gewässer aus unserer Fangdatenbank.</p>","image":"https://file.hejfish.com/image/cc800x600/bd/85/bd8572e8d4e2c38eba0a2ce880a00196ceda2fd0.jpg","category":{"id":10,"name":"Fangstatistiken (Rohdaten)"},"price":null,"guest_ticket":null,"show_in_shop":false,"show_on_area_detail_page":true,"show_in_basket":false}],"points_of_interest":[],"catch_reports":[],"news":[],"hejfish_fee":[{"min":137,"max":297,"percent":8.9,"fisher_type":"guest"}],"lat":49.88355,"lng":12.296479,"geocode_source":"hejfish_api_map","map_data":{"id":12878,"geojson":[],"locations":[{"lat":49.88355,"lng":12.296479},{"lat":49.885479,"lng":12.286836},{"lat":49.886166,"lng":12.270241},{"lat":49.882588,"lng":12.263027},{"lat":49.894088,"lng":12.237647},{"lat":49.881539,"lng":12.249273},{"lat":49.880825,"lng":12.246027},{"lat":49.874945,"lng":12.246115}],"stations":[{"name":"Hohenwald","lat":49.872753,"lng":12.293184,"lines":null,"url":null},{"name":"Hohenwald 13","lat":49.873257,"lng":12.291657,"lines":null,"url":null},{"name":"Ziegelhütte bei Tirschenreuth","lat":49.876771,"lng":12.305671,"lines":null,"url":null}],"gauges":[],"depth_map":null},"extractor_schema_version":2,"last_updated":"2026-05-07T11:41:43.219Z","error":false,"source_platform":"hejfish","global_id":"hejfish-12878","external_ids":{"hejfish":12878}}