{"id":12456,"slug":"sieltiefe-im-rheiderland","url":"https://www.hejfish.com/d/12456-sieltiefe-im-rheiderland","name":"Sieltiefe im Rheiderland","seo_name":"Sieltiefe im Rheiderland","description":"<p><b>Sieltiefe im Rheiderland (42 km)</b></p> <p>Es handelt sich hier um ein (zum Teil nicht zusammenhängendes) etwa 42 km langes Sieltief- und Kanalsystem.</p>","intro":"","details":"","borders":"","image":"https://file.hejfish.com/image/cc1200x900/0b/1d/0b1d1441d765ef6f1f5daa47aba0bc2c230aee2d.jpeg","water_size_ha":null,"fish":["Hecht","Zander","Karpfen","Aal","Schleie","Forelle"],"techniques":["Ansitzangeln","Fliegenfischen","Naturköderangeln","Spinnangeln"],"properties":[],"water_type":"Kanal","rules_text":"<p><span style=\"font-weight: 700;\">Zum Befischen erlaubte Gewässer sind:&nbsp;</span>Eisenbahndock, Erlensee, Feerstenborgumer Kolk, Janssen Kolk, Lüchtenborger Kolk,&nbsp;Mitling Mark,&nbsp;Pennings-Kolke,&nbsp;Plenter Kolk,&nbsp;Pogumer Kolk, Sieltiefe im Rheiderland, Vellager Kolk,&nbsp;Wirtjes Kolk.</p><p><span style=\"font-weight: 700;\">Auszug aus der Gewässerordnung:</span></p><p>1) Jeder Angler hat seinen Angelplatz sauber zu verlassen.<br></p><p>2) Es darf an allen Gewässern mit 3 Ruten geangelt werden, Senknetz ist zum Köderfischfang erlaubt.&nbsp;<span style=\"font-weight: 700;\">Natürliche, künstliche Köder, Anfütterungsmittel ohne giftige, betäubende Zusätze. Das Vorfüttern ist verboten! Maximal 1 kg Trockenfutter am Tag erlaubt! Das Ausbringen mit Baitboats / Motorgetriebenen Hilfsmitteln ist verboten!</span></p><p>a) Jugendliche 10-12 Jahre 2 Ruten nur Friedfisch / b) Jugendliche 13-14 Jahre 3 Ruten nur Friedfisch - Jugendliche mit Prüfung siehe Ziffer 2)</p><p>3) Ausgelegte Angeln müssen&nbsp;<span style=\"font-weight: 700;\">ständig&nbsp;</span>beaufsichtigt werden.</p><p>4) Der Fang von Hechten, Karpfen, Forellen und Zandern ist auf zwei Stück täglich beschränkt.</p><p>5) Zwingend zu beachten Mindestmaße: Aal: 45 cm, Hecht: 55 cm, Karpfen: 40 cm, Forelle: 30 cm, Schleie: 25 cm, Zander: 45 cm. Im ASV Rheiderland gilt ein Entnahmefenster! Das heißt das ein Mindestmaß und ein Höchstmaß angeben ist. Innerhalb dieser Vorgabe darf der Fang entnommen werden.&nbsp;<span style=\"font-weight: 700;\">Alles darüber muss wieder zurückgesetzt werden!!!&nbsp;</span>Höchstmaße: Hecht: 85 cm, Zander: 70 cm, Karpfen: 60 cm.</p><p>6) In allen geschlossenen Gewässern (Teiche und Seen; siehe Gewässerordnung Seite 1) ist das Fischen in der Zeit vom 01. Januar bis 30. April eines jeden Jahres nicht erlaubt. Raubfischfang ist in allen geschlossenen Gewässern (siehe vorstehenden Absatz) ab 01. Dezember, in allen anderen Gewässern vom 01. Januar bis 30. April verboten.&nbsp;<span style=\"font-weight: 700;\">Besonderer Hinweis:&nbsp;</span>An den Gewässern Erlensee, Ferstenborgumer See, Pennings Kolken und Plenter Kolk ist der Friedfischfang ganzjährig erlaubt! Die Raubfischregelung für vorgenannte beide Seen bleibt bestehen.</p><p>7) Jeder untermaßige Fisch ist vorsichtig vom Haken zu lösen und sofort in das Wasser zurückzusetzen. Dabei ist bei tiefgeschlucktem Haken das Vorfach am Fischmaul abzuschneiden.</p><p>8) Es ist verboten:</p><p>- mit Zwillings- und Drillingshaken auf Friedfische zu angeln,</p><p>- die Benutzung von Aalleinen, Aalkörben, Reusen, Zug- und Stellnetzen,&nbsp;</p><p>- Wasserfahrzeuge zu benutzen.</p><p>9) Das Campen an Vereinsgewässern ist verboten; ebenso dürfen keine Feuerstellen hergerichtet und Feuer entzündet werden.</p><p><span style=\"font-weight: 700;\">Außerdem gilt folgendes:</span></p><p>1) Wer bei Kontrollen mit untermaßigen Fischen - ausgenommen Rotaugen, Rotfedern, Brassen und Güstern und Barschen, die als Köderfische verwendet werden - angetroffen wird, muss mit einer Bußgeldzahlung nach der Binnenfischereiordnung vom 06.07.1986 in Verbindung mit&nbsp;§ 62 Abs. 2 Nr. 16 des Niedersächsischen Fischereigesetzes vom 01.03.1978 rechnen.</p><p><span style=\"font-weight: 700;\">Die Fischereierlaubnis wird sofort eingezogen.</span></p><p>2) Nach Ablauf der Gültigkeitsdauer dieser Gastkarte ist die Fangmeldung - auch Leermeldung - umgehend einzusenden.</p><p>3) Das Befahren der Ufer von Seen und der Sieltiefe mit Kraftfahrzeugen jeglicher Art ist strengstens untersagt! Es sind dafür geschaffene Parkplätze zu benutzen.</p>","rules_files":[{"id":46795,"name":"2-tageskarte-auch-nachtangeln-fuer-die-gewaesser-des-asv-rheiderland-bestimmungen","description":null,"file":"https://api.hejfish.com/files/download/dfc8d4b5e5d6aaa91696326019785954f57d15a2/2-tageskarte-auch-nachtangeln-fuer-die-gewaesser-des-asv-rheiderland-bestimmungen.pdf"},{"id":46797,"name":"wochenkarte-fuer-die-gewaesser-des-asv-rheiderland-bestimmungen","description":null,"file":"https://api.hejfish.com/files/download/59c2b2c5eec983c0d82a6be94740faadac3f963a/wochenkarte-fuer-die-gewaesser-des-asv-rheiderland-bestimmungen.pdf"}],"tickets":[{"name":"2-Tageskarte (auch Nachtangeln) für die Gewässer des ASV Rheiderland - Normalpreis inkl. Servicegebühr","price":"13,00 EUR","ticket_type_id":1898,"price_id":93950},{"name":"Wochenkarte für die Gewässer des ASV Rheiderland - Normalpreis inkl. Servicegebühr","price":"23,00 EUR","ticket_type_id":1899,"price_id":93951}],"ticket_types":[{"id":1898,"name":"2-Tageskarte (auch Nachtangeln) für die Gewässer des ASV Rheiderland","category":"DAY","duration":2,"prices":[{"id":93950,"name":"Normalpreis inkl. Servicegebühr","value":"13,00 EUR","cents":1300,"type":"DEFAULT","valid_from":"2026-01-01","valid_to":"2026-12-31","available_from":"2025-12-28","age":0,"eligible":true}],"licenses":{"required":["Fischereischein / Jugendfischereischein Deutschland"],"optional":[]},"rules_text":"<p><span style=\"font-weight: 700;\">Zum Befischen erlaubte Gewässer sind:&nbsp;</span>Eisenbahndock, Erlensee, Feerstenborgumer Kolk, Janssen Kolk, Lüchtenborger Kolk,&nbsp;Mitling Mark,&nbsp;Pennings-Kolke,&nbsp;Plenter Kolk,&nbsp;Pogumer Kolk, Sieltiefe im Rheiderland, Vellager Kolk,&nbsp;Wirtjes Kolk.</p><p><span style=\"font-weight: 700;\">Auszug aus der Gewässerordnung:</span></p><p>1) Jeder Angler hat seinen Angelplatz sauber zu verlassen.<br></p><p>2) Es darf an allen Gewässern mit 3 Ruten geangelt werden, Senknetz ist zum Köderfischfang erlaubt.&nbsp;<span style=\"font-weight: 700;\">Natürliche, künstliche Köder, Anfütterungsmittel ohne giftige, betäubende Zusätze. Das Vorfüttern ist verboten! Maximal 1 kg Trockenfutter am Tag erlaubt! Das Ausbringen mit Baitboats / Motorgetriebenen Hilfsmitteln ist verboten!</span></p><p>a) Jugendliche 10-12 Jahre 2 Ruten nur Friedfisch / b) Jugendliche 13-14 Jahre 3 Ruten nur Friedfisch - Jugendliche mit Prüfung siehe Ziffer 2)</p><p>3) Ausgelegte Angeln müssen&nbsp;<span style=\"font-weight: 700;\">ständig&nbsp;</span>beaufsichtigt werden.</p><p>4) Der Fang von Hechten, Karpfen, Forellen und Zandern ist auf zwei Stück täglich beschränkt.</p><p>5) Zwingend zu beachten Mindestmaße: Aal: 45 cm, Hecht: 55 cm, Karpfen: 40 cm, Forelle: 30 cm, Schleie: 25 cm, Zander: 45 cm. Im ASV Rheiderland gilt ein Entnahmefenster! Das heißt das ein Mindestmaß und ein Höchstmaß angeben ist. Innerhalb dieser Vorgabe darf der Fang entnommen werden.&nbsp;<span style=\"font-weight: 700;\">Alles darüber muss wieder zurückgesetzt werden!!!&nbsp;</span>Höchstmaße: Hecht: 85 cm, Zander: 70 cm, Karpfen: 60 cm.</p><p>6) In allen geschlossenen Gewässern (Teiche und Seen; siehe Gewässerordnung Seite 1) ist das Fischen in der Zeit vom 01. Januar bis 30. April eines jeden Jahres nicht erlaubt. Raubfischfang ist in allen geschlossenen Gewässern (siehe vorstehenden Absatz) ab 01. Dezember, in allen anderen Gewässern vom 01. Januar bis 30. April verboten.&nbsp;<span style=\"font-weight: 700;\">Besonderer Hinweis:&nbsp;</span>An den Gewässern Erlensee, Ferstenborgumer See, Pennings Kolken und Plenter Kolk ist der Friedfischfang ganzjährig erlaubt! Die Raubfischregelung für vorgenannte beide Seen bleibt bestehen.</p><p>7) Jeder untermaßige Fisch ist vorsichtig vom Haken zu lösen und sofort in das Wasser zurückzusetzen. Dabei ist bei tiefgeschlucktem Haken das Vorfach am Fischmaul abzuschneiden.</p><p>8) Es ist verboten:</p><p>- mit Zwillings- und Drillingshaken auf Friedfische zu angeln,</p><p>- die Benutzung von Aalleinen, Aalkörben, Reusen, Zug- und Stellnetzen,&nbsp;</p><p>- Wasserfahrzeuge zu benutzen.</p><p>9) Das Campen an Vereinsgewässern ist verboten; ebenso dürfen keine Feuerstellen hergerichtet und Feuer entzündet werden.</p><p><span style=\"font-weight: 700;\">Außerdem gilt folgendes:</span></p><p>1) Wer bei Kontrollen mit untermaßigen Fischen - ausgenommen Rotaugen, Rotfedern, Brassen und Güstern und Barschen, die als Köderfische verwendet werden - angetroffen wird, muss mit einer Bußgeldzahlung nach der Binnenfischereiordnung vom 06.07.1986 in Verbindung mit&nbsp;§ 62 Abs. 2 Nr. 16 des Niedersächsischen Fischereigesetzes vom 01.03.1978 rechnen.</p><p><span style=\"font-weight: 700;\">Die Fischereierlaubnis wird sofort eingezogen.</span></p><p>2) Nach Ablauf der Gültigkeitsdauer dieser Gastkarte ist die Fangmeldung - auch Leermeldung - umgehend einzusenden.</p><p>3) Das Befahren der Ufer von Seen und der Sieltiefe mit Kraftfahrzeugen jeglicher Art ist strengstens untersagt! Es sind dafür geschaffene Parkplätze zu benutzen.</p>","rules_files":[{"id":46795,"name":"2-tageskarte-auch-nachtangeln-fuer-die-gewaesser-des-asv-rheiderland-bestimmungen","description":null,"file":"https://api.hejfish.com/files/download/dfc8d4b5e5d6aaa91696326019785954f57d15a2/2-tageskarte-auch-nachtangeln-fuer-die-gewaesser-des-asv-rheiderland-bestimmungen.pdf"}],"additional_areas":[{"id":12445,"name":"Erlensee","slug":"erlensee"},{"id":12448,"name":"Feerstenborgumer Kolk","slug":"feerstenborgumer-kolk"},{"id":12449,"name":"Janssen Kolk","slug":"janssen-kolk"},{"id":12450,"name":"Lüchtenborger Kolk","slug":"luechtenborger-kolk"},{"id":12451,"name":"Mitling Mark","slug":"mitling-mark"},{"id":12452,"name":"Pennings-Kolke","slug":"pennings-kolke"},{"id":12453,"name":"Plenter Kolk","slug":"plenter-kolk"},{"id":12454,"name":"Pogumer Kolk","slug":"pogumer-kolk"},{"id":12456,"name":"Sieltiefe im Rheiderland","slug":"sieltiefe-im-rheiderland"},{"id":12457,"name":"Vellager Kolk","slug":"vellager-kolk"},{"id":12458,"name":"Wirtjes Kolk","slug":"wirtjes-kolk"}],"catch_report_required":false},{"id":1899,"name":"Wochenkarte für die Gewässer des ASV Rheiderland","category":"DAY","duration":7,"prices":[{"id":93951,"name":"Normalpreis inkl. Servicegebühr","value":"23,00 EUR","cents":2300,"type":"DEFAULT","valid_from":"2026-01-01","valid_to":"2026-12-31","available_from":"2025-12-28","age":0,"eligible":true}],"licenses":{"required":["Fischereischein / Jugendfischereischein Deutschland"],"optional":[]},"rules_text":"<p><span style=\"font-weight: 700;\">Zum Befischen erlaubte Gewässer sind:&nbsp;</span>Eisenbahndock, Erlensee, Feerstenborgumer Kolk, Janssen Kolk, Lüchtenborger Kolk,&nbsp;Mitling Mark,&nbsp;Pennings-Kolke,&nbsp;Plenter Kolk,&nbsp;Pogumer Kolk, Sieltiefe im Rheiderland, Vellager Kolk,&nbsp;Wirtjes Kolk.</p><p><span style=\"font-weight: 700;\">Auszug aus der Gewässerordnung:</span></p><p>1) Jeder Angler hat seinen Angelplatz sauber zu verlassen.<br></p><p>2) Es darf an allen Gewässern mit 3 Ruten geangelt werden, Senknetz ist zum Köderfischfang erlaubt.&nbsp;<span style=\"font-weight: 700;\">Natürliche, künstliche Köder, Anfütterungsmittel ohne giftige, betäubende Zusätze. Das Vorfüttern ist verboten! Maximal 1 kg Trockenfutter am Tag erlaubt! Das Ausbringen mit Baitboats / Motorgetriebenen Hilfsmitteln ist verboten!</span></p><p>a) Jugendliche 10-12 Jahre 2 Ruten nur Friedfisch / b) Jugendliche 13-14 Jahre 3 Ruten nur Friedfisch - Jugendliche mit Prüfung siehe Ziffer 2)</p><p>3) Ausgelegte Angeln müssen&nbsp;<span style=\"font-weight: 700;\">ständig&nbsp;</span>beaufsichtigt werden.</p><p>4) Der Fang von Hechten, Karpfen, Forellen und Zandern ist auf zwei Stück täglich beschränkt.</p><p>5) Zwingend zu beachten Mindestmaße: Aal: 45 cm, Hecht: 55 cm, Karpfen: 40 cm, Forelle: 30 cm, Schleie: 25 cm, Zander: 45 cm. Im ASV Rheiderland gilt ein Entnahmefenster! Das heißt das ein Mindestmaß und ein Höchstmaß angeben ist. Innerhalb dieser Vorgabe darf der Fang entnommen werden.&nbsp;<span style=\"font-weight: 700;\">Alles darüber muss wieder zurückgesetzt werden!!!&nbsp;</span>Höchstmaße: Hecht: 85 cm, Zander: 70 cm, Karpfen: 60 cm.</p><p>6) In allen geschlossenen Gewässern (Teiche und Seen; siehe Gewässerordnung Seite 1) ist das Fischen in der Zeit vom 01. Januar bis 30. April eines jeden Jahres nicht erlaubt. Raubfischfang ist in allen geschlossenen Gewässern (siehe vorstehenden Absatz) ab 01. Dezember, in allen anderen Gewässern vom 01. Januar bis 30. April verboten.&nbsp;<span style=\"font-weight: 700;\">Besonderer Hinweis:&nbsp;</span>An den Gewässern Erlensee, Ferstenborgumer See, Pennings Kolken und Plenter Kolk ist der Friedfischfang ganzjährig erlaubt! Die Raubfischregelung für vorgenannte beide Seen bleibt bestehen.</p><p>7) Jeder untermaßige Fisch ist vorsichtig vom Haken zu lösen und sofort in das Wasser zurückzusetzen. Dabei ist bei tiefgeschlucktem Haken das Vorfach am Fischmaul abzuschneiden.</p><p>8) Es ist verboten:</p><p>- mit Zwillings- und Drillingshaken auf Friedfische zu angeln,</p><p>- die Benutzung von Aalleinen, Aalkörben, Reusen, Zug- und Stellnetzen,&nbsp;</p><p>- Wasserfahrzeuge zu benutzen.</p><p>9) Das Campen an Vereinsgewässern ist verboten; ebenso dürfen keine Feuerstellen hergerichtet und Feuer entzündet werden.</p><p><span style=\"font-weight: 700;\">Außerdem gilt folgendes:</span></p><p>1) Wer bei Kontrollen mit untermaßigen Fischen - ausgenommen Rotaugen, Rotfedern, Brassen und Güstern und Barschen, die als Köderfische verwendet werden - angetroffen wird, muss mit einer Bußgeldzahlung nach der Binnenfischereiordnung vom 06.07.1986 in Verbindung mit&nbsp;§ 62 Abs. 2 Nr. 16 des Niedersächsischen Fischereigesetzes vom 01.03.1978 rechnen.</p><p><span style=\"font-weight: 700;\">Die Fischereierlaubnis wird sofort eingezogen.</span></p><p>2) Nach Ablauf der Gültigkeitsdauer dieser Gastkarte ist die Fangmeldung - auch Leermeldung - umgehend einzusenden.</p><p>3) Das Befahren der Ufer von Seen und der Sieltiefe mit Kraftfahrzeugen jeglicher Art ist strengstens untersagt! Es sind dafür geschaffene Parkplätze zu benutzen.</p>","rules_files":[{"id":46797,"name":"wochenkarte-fuer-die-gewaesser-des-asv-rheiderland-bestimmungen","description":null,"file":"https://api.hejfish.com/files/download/59c2b2c5eec983c0d82a6be94740faadac3f963a/wochenkarte-fuer-die-gewaesser-des-asv-rheiderland-bestimmungen.pdf"}],"additional_areas":[{"id":12445,"name":"Erlensee","slug":"erlensee"},{"id":12448,"name":"Feerstenborgumer Kolk","slug":"feerstenborgumer-kolk"},{"id":12449,"name":"Janssen Kolk","slug":"janssen-kolk"},{"id":12450,"name":"Lüchtenborger Kolk","slug":"luechtenborger-kolk"},{"id":12451,"name":"Mitling Mark","slug":"mitling-mark"},{"id":12452,"name":"Pennings-Kolke","slug":"pennings-kolke"},{"id":12453,"name":"Plenter Kolk","slug":"plenter-kolk"},{"id":12454,"name":"Pogumer Kolk","slug":"pogumer-kolk"},{"id":12456,"name":"Sieltiefe im Rheiderland","slug":"sieltiefe-im-rheiderland"},{"id":12457,"name":"Vellager Kolk","slug":"vellager-kolk"},{"id":12458,"name":"Wirtjes Kolk","slug":"wirtjes-kolk"}],"catch_report_required":false}],"manager":{"id":1578,"name":"Angelsportverein Rheiderland e.V.","street":"Hilkenborger Straße 2 ","postal_code":"26826","city":"Weener","telephone":"0049 (0)4951 9478941","email":"info@asv-rheiderland.de","website":"http://asv-rheiderland.de/wp/","logo":"https://file.hejfish.com/image/r200x200/ef/5b/ef5bec429a69caf91105724f1ef674d9368f73f7.png","slug":"angelsportverein-rheiderland-e-v"},"season_begin":"0001-01-01","season_end":"0001-12-31","features":{"accessible":false,"public_transport":true,"boat":false,"belly_boat":false,"digital_ticket":false,"night_fishing":true,"ice_fishing":false,"depth_map":true,"has_gauges":false},"location":{"city":{"id":12364,"name":"Weener"},"district":{"id":183,"name":"Kreis Leer"},"state":{"id":22,"name":"Niedersachsen","slug":"niedersachsen"},"country":{"id":2,"name":"Deutschland","code":"de","slug":"deutschland"}},"products":[{"id":494,"name":"Statistikdaten in Rohformat (Excel) – Sieltiefe im Rheiderland","caption":"","description":"<p>Mithilfe dieser Statistikdaten wollen wir dir zu deinem Fang verhelfen. In diesem Excel-Download findest du die anonymisierten Rohdaten zum jeweiligen Gewässer aus unserer Fangdatenbank.</p>","image":"https://file.hejfish.com/image/cc800x600/bd/85/bd8572e8d4e2c38eba0a2ce880a00196ceda2fd0.jpg","category":{"id":10,"name":"Fangstatistiken (Rohdaten)"},"price":null,"guest_ticket":null,"show_in_shop":false,"show_on_area_detail_page":true,"show_in_basket":false}],"points_of_interest":[],"catch_reports":[],"news":[],"hejfish_fee":[{"min":137,"max":297,"percent":8.9,"fisher_type":"guest"}],"lat":53.172921,"lng":7.361992,"geocode_source":"hejfish_api_map","map_data":{"id":12456,"geojson":[],"locations":[{"lat":53.172921,"lng":7.361992},{"lat":53.185437,"lng":7.313938},{"lat":53.162826,"lng":7.311074},{"lat":53.250944,"lng":7.330278}],"stations":[{"name":"Tichelwarf Grundschule Holthusen","lat":53.159598,"lng":7.301372,"lines":null,"url":null},{"name":"Möhlenwarf Alte Bahnhofstraße/Weener Straße","lat":53.17616,"lng":7.301818,"lines":null,"url":null},{"name":"Weenermoor Zur Mühle/Mühlenweg","lat":53.177834,"lng":7.304782,"lines":null,"url":null},{"name":"Möhlenwarf Kirche","lat":53.176074,"lng":7.304895,"lines":null,"url":null},{"name":"Möhlenwarf Schule","lat":53.173471,"lng":7.306106,"lines":null,"url":null},{"name":"Holthuserheide Zur Heide/Bovenpolder","lat":53.154408,"lng":7.306236,"lines":null,"url":null},{"name":"Weenermoor Weenermoorer Straße/Leegefehn","lat":53.179973,"lng":7.30855,"lines":null,"url":null},{"name":"Weenermoor Weenermoorer Straße 20/27","lat":53.183815,"lng":7.312963,"lines":null,"url":null},{"name":"Holthusen(Weener) Feuerwehr","lat":53.154829,"lng":7.313527,"lines":null,"url":null},{"name":"Weenermoor Weenermoorer Str. 66/77","lat":53.188044,"lng":7.315827,"lines":null,"url":null},{"name":"Weenermoor Weenermoorer Straße/Endenweg","lat":53.190945,"lng":7.31849,"lines":null,"url":null},{"name":"Lüchtenborg Weenerstraße/Tannenhof","lat":53.17274,"lng":7.318996,"lines":null,"url":null},{"name":"Marienchor Dukelweg/Dorfstraße","lat":53.247723,"lng":7.319681,"lines":null,"url":null},{"name":"Weener OLLIS SPEICHER","lat":53.160939,"lng":7.321146,"lines":null,"url":null},{"name":"Weenermoor Feuerwehr","lat":53.194702,"lng":7.321658,"lines":null,"url":null},{"name":"St. Georgiwold Kirche","lat":53.215276,"lng":7.321685,"lines":null,"url":null},{"name":"St. Georgiwold 7","lat":53.211667,"lng":7.322941,"lines":null,"url":null},{"name":"St. Georgiwold 36","lat":53.221957,"lng":7.323101,"lines":null,"url":null},{"name":"Weenermoor Weenermoorer Straße/Vennenweg","lat":53.198162,"lng":7.323214,"lines":null,"url":null},{"name":"St. Georgiwold 166","lat":53.205225,"lng":7.323425,"lines":null,"url":null},{"name":"Weener Alte Peldemühle/Smarlingen","lat":53.162014,"lng":7.323452,"lines":null,"url":null},{"name":"Weener Floorenstraße/Schule","lat":53.163171,"lng":7.324543,"lines":null,"url":null},{"name":"Böhmerwold Kirche","lat":53.231295,"lng":7.332338,"lines":null,"url":null},{"name":"Weener Graf-Edzard-/Meetelandstraße","lat":53.16281,"lng":7.333466,"lines":null,"url":null},{"name":"Weener Berliner Straße/Hütthaussiedlung","lat":53.166533,"lng":7.335314,"lines":null,"url":null},{"name":"Böhmerwold Bovenhusen/St. Georgiwold","lat":53.226395,"lng":7.335562,"lines":null,"url":null},{"name":"Weener Graf-Ulrich-/Holthuser Straße","lat":53.155602,"lng":7.339572,"lines":null,"url":null},{"name":"Weener Bahnhof","lat":53.163997,"lng":7.342904,"lines":null,"url":null},{"name":"Weener","lat":53.163271,"lng":7.343095,"lines":null,"url":null},{"name":"Weener Graf-Ulrich-/Mühlenstraße","lat":53.159541,"lng":7.345896,"lines":null,"url":null},{"name":"Weener Bahnhofstraße/Kreisel","lat":53.165007,"lng":7.348361,"lines":null,"url":null},{"name":"Weener Friedhof","lat":53.163021,"lng":7.348895,"lines":null,"url":null},{"name":"Weener Neue-/Marktstraße","lat":53.167203,"lng":7.353611,"lines":null,"url":null},{"name":"Weener Pestalozzischule","lat":53.163551,"lng":7.355705,"lines":null,"url":null},{"name":"Weener Hafen","lat":53.170603,"lng":7.359008,"lines":null,"url":null},{"name":"Jemgumgaste Dukelweg 34","lat":53.260581,"lng":7.359106,"lines":null,"url":null},{"name":"Holtgaste Holtgaster Straße/Kolkweg","lat":53.232383,"lng":7.367738,"lines":null,"url":null},{"name":"Kirchborgum B436/Buschfeld","lat":53.176296,"lng":7.370041,"lines":null,"url":null}],"gauges":[],"depth_map":null},"extractor_schema_version":2,"last_updated":"2026-05-07T11:37:40.375Z","error":false,"source_platform":"hejfish","global_id":"hejfish-12456","external_ids":{"hejfish":12456}}