{"id":"hejfish-13172","source_platform":"hejfish","source_ids":{"hejfish":13172},"name":"Eckersmühlen 1","water_type":"Teich (Weiher)","country":"DE","center":{"lat":49.210235,"lng":11.138955,"source":"hejfish_api_map_geojson","confidence":"high"},"geometry":{"points":[{"lat":49.21023,"lng":11.13903}],"lines":[],"polygons":[[{"lat":49.210137,"lng":11.138533},{"lat":49.210054,"lng":11.138672},{"lat":49.210264,"lng":11.139378},{"lat":49.210329,"lng":11.139375},{"lat":49.210415,"lng":11.139252},{"lat":49.210221,"lng":11.138627}]],"source":"hejfish_api_map_geojson","confidence":"high"},"links":{"source":"https://www.hejfish.com/d/13172-eckersmuehlen-1","hejfish":"https://www.hejfish.com/d/13172-eckersmuehlen-1","alleangeln":null,"website":null,"image":"https://file.hejfish.com/image/cc1200x900/fe/23/fe233e80da820af9cccc4469f0b2c0ac21d80748.jpeg"},"fish":["Karpfen","Schleie","Amur","Sonstige"],"metadata":{"platform":"hejfish","geocode_source":"hejfish_api_map_geojson","slug":"eckersmuehlen-1","seo_name":"Eckersmühlen 1","description":"<p>Angelkarten nur für Mitglieder verfügbar<br></p>","borders":"<p>Ufer<br></p>","techniques":["Ansitzangeln","Feedern","Friedfischangeln","Karpfenangeln","Posenangeln"],"manager":{"id":1775,"name":"Angelfreunde Eckersmühlen 05 e.V.","street":"Am Föhrenbaum 13","postal_code":"91154 ","city":"Roth-Eckersmühlen","telephone":"","email":"info@angelfreunde-eckersmuehlen.de","website":"https://angelfreunde-eckersmuehlen.de/","logo":"https://file.hejfish.com/image/r200x200/af/d8/afd82cd906a4c2a1551ed0bf78546a6d5f2b5065.png","slug":"angelfreunde-eckersmuehlen-05-e-v"},"season_begin":"0001-01-01","season_end":"0001-12-31","features":{"accessible":false,"public_transport":false,"boat":true,"belly_boat":true,"digital_ticket":true,"night_fishing":true,"ice_fishing":false,"depth_map":false,"has_gauges":false},"location":{"city":{"id":33982,"name":"Roth"},"district":{"id":440,"name":"Kreis Roth"},"state":{"id":10,"name":"Bayern","slug":"bayern"},"country":{"id":2,"name":"Deutschland","code":"de","slug":"deutschland"}},"source_last_updated":"2026-05-07T11:42:12.323Z","error":false},"last_updated":"2026-05-07T11:42:12.323Z"}