{"id":15715,"slug":"woernitz-fv-fuerth","url":"https://www.hejfish.com/d/15715-woernitz-fv-fuerth","name":"Wörnitz (FV Fürth)","seo_name":"Wörnitz","description":"<p>Vom Wehrabfall Wittelshofen bis Aufkirchen </p>","intro":"","details":"","borders":"<p>Vom Wehrabfall Wittelshofen bis Aufkirchen\n</p>\n\n","image":"https://file.hejfish.com/image/cc1200x900/1d/ea/1dea08bf52563d436512e4d167fab60908455a00.jpg","water_size_ha":null,"fish":["Karpfen","Hecht","Zander","Rotauge","Rotfeder","Wels"],"techniques":["Ansitzangeln","Friedfischangeln","Naturköderangeln","Posenangeln","Raubfischangeln","Spinnangeln"],"properties":[],"water_type":"Fluss","rules_text":"","rules_files":[],"tickets":[],"ticket_types":[],"manager":{"id":2196,"name":"Fischereiverein Fürth e.V.","street":"Amtsgasse 2","postal_code":"90768","city":"Fürth","telephone":"","email":"anfrage@fischereiverein-fuerth.de","website":"https://fischereiverein-fuerth.de/","logo":"https://file.hejfish.com/image/r200x200/1e/f4/1ef4fc491aeca520c2b152041fb76ac857154e5a.jpg","slug":"fischereiverein-fuerth-e-v"},"season_begin":"0001-01-01","season_end":"0001-12-31","features":{"accessible":false,"public_transport":true,"boat":false,"belly_boat":false,"digital_ticket":true,"night_fishing":false,"ice_fishing":false,"depth_map":false,"has_gauges":true},"location":{"city":{"id":34128,"name":"Wittelshofen"},"district":{"id":442,"name":"Kreis Ansbach"},"state":{"id":10,"name":"Bayern","slug":"bayern"},"country":{"id":2,"name":"Deutschland","code":"de","slug":"deutschland"}},"products":[],"points_of_interest":[],"catch_reports":[],"news":[{"id":6887,"text":"<p>Nachtangelverbot von 00:00 bis 05:00 Uhr!</p>","valid_from":null,"valid_till":null}],"hejfish_fee":[{"min":137,"max":297,"percent":8.9,"fisher_type":"guest"}],"lat":49.058796,"lng":10.482658,"geocode_source":"hejfish_api_map","map_data":{"id":15715,"geojson":[],"locations":[{"lat":49.058796,"lng":10.482658},{"lat":49.063549,"lng":10.482097},{"lat":49.054529,"lng":10.497847},{"lat":49.052255,"lng":10.499899}],"stations":[{"name":"Ruffenhofen Limeseum","lat":49.044774,"lng":10.488487,"lines":null,"url":null},{"name":"Aufkirchen Sportplatz","lat":49.045728,"lng":10.500865,"lines":null,"url":null},{"name":"Aufkirchen Kirche","lat":49.05025,"lng":10.501908,"lines":null,"url":null},{"name":"Gerolfingen Gh. Rötter","lat":49.054424,"lng":10.504926,"lines":null,"url":null},{"name":"Abzw. Ruffenhofen","lat":49.058391,"lng":10.473736,"lines":null,"url":null},{"name":"Wittelshofen","lat":49.061129,"lng":10.48272,"lines":null,"url":null}],"gauges":[{"id":1316,"name":"Gerolfingen","lat":49.0477375,"lng":10.5176936},{"id":1315,"name":"Reichenbach","lat":49.1757652,"lng":10.2589875}],"depth_map":null},"extractor_schema_version":2,"last_updated":"2026-05-07T11:46:08.117Z","error":false,"source_platform":"hejfish","global_id":"hejfish-15715","external_ids":{"hejfish":15715}}