{"id":15888,"slug":"regnitz-erlangen","url":"https://www.hejfish.com/d/15888-regnitz-erlangen","name":"Regnitz Erlangen","seo_name":"Regnitz","description":"<p>Die Regnitz ist knapp 59 km lang und mündet, nachdem sie u.a. Erlangen und Forchheim durchflossen hat, bei Bamberg in den Main. (Bayern Mittelfranken)</p> <p>Nachtfischen</p> <p>Beim Nachtangeln ist Campingtoilette oder Trockentoilette Pflicht</p> <p>Angelzelt ohne Boden </p>","intro":"","details":"","borders":"<p>Beginn: Höhe Schleuse Kriegenbrunn/Trafohaus (Hinweisschild beachten)<br>Ende: Pumpenhaus/ Parkplatz Aurachgruppe (Grenzschild beachten)</p>","image":"https://file.hejfish.com/image/cc1200x900/9f/aa/9faa229da531c4bf51d06e9a3f35f1a206f82612.png","water_size_ha":null,"fish":["Aal","Bachforelle","Barbe","Brasse","Döbel","Flussbarsch","Hecht","Karpfen","Nase","Quappe","Regenbogenforelle","Rotauge","Rotfeder","Rapfen","Schleie","Wels","Zander","Div. Weißfische","Laube"],"techniques":["Ansitzangeln","Friedfischangeln","Raubfischangeln","Spinnangeln"],"properties":[],"water_type":"Fluss","rules_text":"","rules_files":[],"tickets":[],"ticket_types":[],"manager":{"id":2258,"name":"SFV Aurachgruppe e.V.","street":"Willi Grasser Straße 6A","postal_code":"91056","city":"Erlangen Frauenaurach","telephone":"","email":"aurachgruppe@gmail.com","website":"https://sfv-aurachgruppe.com/","logo":"https://file.hejfish.com/image/r200x200/d4/69/d46985d40eeaeb6c2ea717b48f736d090b62c859.jpg","slug":"sfv-aurachgruppe-e-v"},"season_begin":"0001-01-01","season_end":"0001-12-31","features":{"accessible":false,"public_transport":true,"boat":false,"belly_boat":false,"digital_ticket":true,"night_fishing":true,"ice_fishing":false,"depth_map":false,"has_gauges":true},"location":{"city":{"id":34301,"name":"Erlangen"},"district":{"id":446,"name":"Erlangen"},"state":{"id":10,"name":"Bayern","slug":"bayern"},"country":{"id":2,"name":"Deutschland","code":"de","slug":"deutschland"}},"products":[{"id":2222,"name":"Statistikdaten in Rohformat (Excel) – Regnitz Erlangen","caption":"","description":"<p>Mithilfe dieser Statistikdaten wollen wir dir zu deinem Fang verhelfen. In diesem Excel-Download findest du die anonymisierten Rohdaten zum jeweiligen Gewässer aus unserer Fangdatenbank.</p>","image":"https://file.hejfish.com/image/cc800x600/bd/85/bd8572e8d4e2c38eba0a2ce880a00196ceda2fd0.jpg","category":{"id":10,"name":"Fangstatistiken (Rohdaten)"},"price":null,"guest_ticket":null,"show_in_shop":false,"show_on_area_detail_page":true,"show_in_basket":false}],"points_of_interest":[],"catch_reports":[],"news":[],"hejfish_fee":[{"min":137,"max":297,"percent":8.9,"fisher_type":"guest"}],"lat":49.557427,"lng":10.978189,"geocode_source":"hejfish_api_map","map_data":{"id":15888,"geojson":[],"locations":[{"lat":49.557427,"lng":10.978189},{"lat":49.564509,"lng":10.98277}],"stations":[{"name":"Frauenaurach Industriepark","lat":49.564467,"lng":10.975158,"lines":null,"url":null},{"name":"Bruck/ER Kirche","lat":49.572757,"lng":10.985623,"lines":null,"url":null},{"name":"Bruck Weidenweg","lat":49.563785,"lng":10.986099,"lines":null,"url":null},{"name":"Bruck/ER Süd","lat":49.570561,"lng":10.986171,"lines":null,"url":null},{"name":"Eltersdorf Regnitzweg","lat":49.550971,"lng":10.988103,"lines":null,"url":null},{"name":"Eltersdorf Am Kreuzstein","lat":49.557265,"lng":10.988121,"lines":null,"url":null},{"name":"Eltersdorf Egidienkirche","lat":49.554304,"lng":10.988705,"lines":null,"url":null},{"name":"Eltersdorf Tucherstr.","lat":49.550038,"lng":10.989729,"lines":null,"url":null},{"name":"Bruck/ER Bachfeldstr.","lat":49.568924,"lng":10.990115,"lines":null,"url":null},{"name":"Bruck/ER Fürstenweg","lat":49.574225,"lng":10.990771,"lines":null,"url":null}],"gauges":[{"id":1848,"name":"Hüttendorf","lat":49.5460775,"lng":10.9736837}],"depth_map":null},"extractor_schema_version":2,"last_updated":"2026-05-07T11:46:19.472Z","error":false,"source_platform":"hejfish","global_id":"hejfish-15888","external_ids":{"hejfish":15888}}