{"id":"hejfish-15019","source_platform":"hejfish","source_ids":{"hejfish":15019},"name":"Riebelweiher I","water_type":"Teich (Weiher)","country":"DE","center":{"lat":48.068722,"lng":10.943217,"source":"hejfish_api_map_geojson","confidence":"high"},"geometry":{"points":[{"lat":48.068722,"lng":10.943028}],"lines":[],"polygons":[[{"lat":48.068207,"lng":10.942074},{"lat":48.067711,"lng":10.943078},{"lat":48.069453,"lng":10.94436},{"lat":48.069733,"lng":10.943204}]],"source":"hejfish_api_map_geojson","confidence":"high"},"links":{"source":"https://www.hejfish.com/d/15019-riebelweiher-i","hejfish":"https://www.hejfish.com/d/15019-riebelweiher-i","alleangeln":null,"image":"https://file.hejfish.com/image/cc1200x900/a4/7c/a47cadaea31a4dad40398d5273531df592a72238.jpg"},"fish":["Aal","Brasse","Flussbarsch","Güster","Karpfen","Regenbogenforelle","Rotauge","Rotfeder","Schleie","Zander","Giebel","Saibling","Schuppenkarpfen","Hecht","Spiegelkarpfen","Laube"],"metadata":{"platform":"hejfish","geocode_source":"hejfish_api_map_geojson","slug":"riebelweiher-i","seo_name":"Riebelweiher I","description":"<h4><b>Gäste sind in Begleitung eines Vollmitgliedes erlaubt. Die Karte ist für Mitglieder hier erhältlich!</b></h4> <p><b>Riebelweiher 1<br></b></p> <p>Der 3,3ha große Riebelweiher ist durch Kiesausbau von der Fa. Riebel entstanden. Da dieses Gewässer Grundwasser gespeist ist, bleibt die Wassertemperatur sehr konstant. Dies ermöglicht somit einen gemischten Fischbesatz.</p>","borders":"<p>Das gesamte Gewässer darf befischt werden! </p>","techniques":["Ansitzangeln","Feedern","Friedfischangeln","Karpfenangeln","Naturköderangeln","Oberflächenangeln","Posenangeln","Raubfischangeln","Spinnangeln","Stippangeln"],"manager":{"id":2006,"name":"Fischereiverein Penzing e.V.","street":"Benedikt-Haag-Str. 1","postal_code":"86899 ","city":"Landsberg","telephone":"+49 (0)8191 308022  ","email":"info@fv-penzing.de","website":"https://www.fv-penzing.de/","logo":"https://file.hejfish.com/image/r200x200/7f/2e/7f2e89256d4a23894c69e718d4a54c120cfb1e39.jpg","slug":"fischereiverein-penzing-e-v"},"season_begin":"0001-01-01","season_end":"0001-12-31","features":{"accessible":false,"public_transport":false,"boat":false,"belly_boat":false,"digital_ticket":true,"night_fishing":true,"ice_fishing":false,"depth_map":false,"has_gauges":false},"location":{"city":{"id":31389,"name":"Penzing (Bayern)"},"district":{"id":394,"name":"Kreis Landsberg am Lech"},"state":{"id":10,"name":"Bayern","slug":"bayern"},"country":{"id":2,"name":"Deutschland","code":"de","slug":"deutschland"}},"source_last_updated":"2026-05-07T11:45:02.266Z","error":false},"last_updated":"2026-05-07T11:45:02.266Z"}