{"id":"hejfish-14176","source_platform":"hejfish","source_ids":{"hejfish":14176},"name":"Wallensteingraben bei Steffin (5005c)","water_type":"Altarm","country":"DE","center":{"lat":53.868505,"lng":11.449552,"source":"hejfish_api_map_geojson","confidence":"high"},"geometry":{"points":[{"lat":53.868576,"lng":11.449282},{"lat":53.868398,"lng":11.449258},{"lat":53.8688,"lng":11.4494}],"lines":[[{"lat":53.867593,"lng":11.448947},{"lat":53.868061,"lng":11.449192},{"lat":53.868397,"lng":11.449325},{"lat":53.868645,"lng":11.449278},{"lat":53.868975,"lng":11.449385},{"lat":53.869173,"lng":11.449466},{"lat":53.869259,"lng":11.449598},{"lat":53.869316,"lng":11.449688},{"lat":53.869383,"lng":11.449888},{"lat":53.869416,"lng":11.450156}]],"polygons":[],"source":"hejfish_api_map_geojson","confidence":"high"},"links":{"source":"https://www.hejfish.com/d/14176-wallensteingraben-bei-steffin-5005c","hejfish":"https://www.hejfish.com/d/14176-wallensteingraben-bei-steffin-5005c","alleangeln":null,"image":null},"fish":["Bachforelle","Hecht","Regenbogenforelle","Flussbarsch","Brasse","Rotauge","Aal","Quappe"],"metadata":{"platform":"hejfish","geocode_source":"hejfish_api_map_geojson","slug":"wallensteingraben-bei-steffin-5005c","seo_name":"Wallensteingraben bei Steffin (5005c)","techniques":["Spinnangeln","Fliegenfischen","Ansitzangeln","Feedern","Stippangeln","Posenangeln","Oberflächenangeln","Raubfischangeln","Friedfischangeln","Karpfenangeln"],"rules_files":[{"id":293160,"name":"satellitenbild","description":null,"file":"https://api.hejfish.com/files/download/2e56eac9bb5ed13778ee430fd6f7277b37658f36/satellitenbild.pdf"},{"id":884564,"name":"Gewaesserordnung 01.01.2023","description":null,"file":"https://api.hejfish.com/files/download/d4cbab17110d09a2062535e73af3194f406fe45b/Gewaesserordnung%2001.01.2023.pdf"}],"tickets":[{"name":"Tageskarte - Erwachsene","price":"16,00 EUR","ticket_type_id":6734,"price_id":101098},{"name":"Tageskarte - Jugend","price":"4,00 EUR","ticket_type_id":6734,"price_id":101099},{"name":"2-Tageskarte - Erwachsene","price":"32,00 EUR","ticket_type_id":6735,"price_id":101100},{"name":"2-Tageskarte - Jugend","price":"8,00 EUR","ticket_type_id":6735,"price_id":101101},{"name":"Wochenkarte - Erwachsene","price":"92,00 EUR","ticket_type_id":6736,"price_id":101102},{"name":"Wochenkarte - Jugend","price":"20,00 EUR","ticket_type_id":6736,"price_id":101103},{"name":"Monatskarte - Erwachsene","price":"172,00 EUR","ticket_type_id":6737,"price_id":101104}],"manager":{"id":1834,"name":"Landesanglerverband Mecklenburg-Vorpommern e.V.","street":"OT Görslow, Siedlung 18a","postal_code":"19067","city":"Leezen","telephone":"","email":"","website":"https://www.lav-mv.de/","logo":"https://file.hejfish.com/image/r200x200/37/cb/37cb2792d40e6c06eadde2bd767e4c1c68624403.png","slug":"landesanglerverband-mecklenburg-vorpommern-e-v"},"season_begin":"0001-01-01","season_end":"0001-12-31","features":{"accessible":false,"public_transport":true,"boat":true,"belly_boat":true,"digital_ticket":true,"night_fishing":true,"ice_fishing":false,"depth_map":false,"has_gauges":false},"location":{"city":{"id":9353,"name":"Metelsdorf"},"district":{"id":153,"name":"Kreis Nordwestmecklenburg"},"state":{"id":20,"name":"Mecklenburg-Vorpommern","slug":"mecklenburg-vorpommern"},"country":{"id":2,"name":"Deutschland","code":"de","slug":"deutschland"}},"source_last_updated":"2026-05-07T11:44:03.949Z","error":false},"last_updated":"2026-05-07T11:44:03.949Z"}