{"id":15841,"slug":"soellbach","url":"https://www.hejfish.com/d/15841-soellbach","name":"Söllbach","seo_name":"Söllbach","description":"<p>Der Söllbach ist ein etwa 2–4 m breiter Gebirgsbach im Tegernseer Tal. Er entspringt am Fuße des Söllbergs oberhalb von Bad Wiessee und mündet am südwestlichen Ufer in den Tegernsee. Die Tiefe liegt im Durchschnitt bei etwa 30–50 cm, variiert jedoch stark je nach Wasserstand und Jahreszeit.</p> <p>Im Oberlauf fließt der Söllbach durch ein naturbelassenes, bewaldetes Tal. Hier führt er meist klares, kühles Wasser und ist stellenweise von großen Steinen und Wurzeln durchzogen. Im Mittel- und Unterlauf gibt es zahlreiche Gumpen und ruhige Abschnitte. Kurz vor der Mündung ist der Bach teilweise begradigt, jedoch größtenteils naturnah erhalten.</p> <p>Der Bach ist über den Söllbachtalweg gut zugänglich. Dieser Forst- und Wanderweg verläuft entlang des Bachlaufs und macht den Söllbach sowohl für Spaziergänger als auch für Fischer gut erreichbar.</p> <p>Das Gewässer wird vom Fischereiverein Tegernseer Tal e.V. bewirtschaftet und steht ausschließlich Vereinsmitgliedern zur Verfügung. Dank des Besatzes mit Bachforellen und der natürlichen Struktur bietet der Söllbach ein reizvolles und fischereilich interessantes Umfeld.</p> <p>Parkmöglichkeiten bestehen am Wanderparkplatz im Söllbachtal bei Bad Wiessee (kostenpflichtig).</p>","intro":"","details":"","borders":"<p>Quelle bis Mündung,</p>","image":"https://file.hejfish.com/image/cc1200x900/e1/15/e1155a821bf752412eaab735766cf663380e147d.jpg","water_size_ha":null,"fish":["Bachforelle"],"techniques":["Fliegenfischen","Spinnangeln"],"properties":[],"water_type":"Bach","rules_text":"","rules_files":[],"tickets":[],"ticket_types":[],"manager":{"id":1800,"name":"Fischereiverein Tegernseer Tal e.V.","street":"Tulpenweg 4","postal_code":"83666 ","city":"Waakirchen","telephone":"+49 170 4784289","email":"gewaesserwart@fvtt.de","website":"https://www.fvtt.de","logo":"https://file.hejfish.com/image/r200x200/43/03/430306d12f5bce706d0af883946384f343faaf25.jpeg","slug":"fischereiverein-tegernseer-tal-e-v"},"season_begin":"0001-05-01","season_end":"0001-09-30","features":{"accessible":false,"public_transport":true,"boat":false,"belly_boat":false,"digital_ticket":true,"night_fishing":false,"ice_fishing":false,"depth_map":false,"has_gauges":true},"location":{"city":{"id":31217,"name":"Lenggries"},"district":{"id":391,"name":"Kreis Bad Tölz-Wolfratshausen"},"state":{"id":10,"name":"Bayern","slug":"bayern"},"country":{"id":2,"name":"Deutschland","code":"de","slug":"deutschland"}},"products":[],"points_of_interest":[],"catch_reports":[],"news":[],"hejfish_fee":[{"min":137,"max":297,"percent":8.9,"fisher_type":"guest"}],"lat":47.652403,"lng":11.646925,"geocode_source":"hejfish_api_map","map_data":{"id":15841,"geojson":[],"locations":[{"lat":47.652403,"lng":11.646925},{"lat":47.706117,"lng":11.740389}],"stations":[{"name":"Kreuth (Kr Miesbach) Riedlerbrücke","lat":47.643993,"lng":11.7451759,"lines":"9550","url":null},{"name":"Kreuth Schule","lat":47.645712,"lng":11.743784,"lines":null,"url":null},{"name":"Kreuth (Kr Miesbach) Rathaus","lat":47.6471159,"lng":11.7463168,"lines":"9550","url":null},{"name":"Kreuth (Kr Miesbach) Brunnbichl","lat":47.6529859,"lng":11.7474666,"lines":"9550","url":null},{"name":"Kreuth (Kr Miesbach) Grundnerweg","lat":47.661227,"lng":11.7486793,"lines":"9550","url":null},{"name":"Kreuth (Kr Miesbach) Hirschbergweg","lat":47.6656677,"lng":11.7473768,"lines":"9550","url":null},{"name":"Riedsäge","lat":47.68991,"lng":11.747826,"lines":null,"url":null},{"name":"Ringsee","lat":47.698532,"lng":11.730965,"lines":null,"url":null},{"name":"Bad Wiessee Söllbach","lat":47.701857,"lng":11.727578,"lines":null,"url":null},{"name":"Bad Wiessee Krinner Hof","lat":47.702534,"lng":11.732141,"lines":null,"url":null},{"name":"Bad Wiessee Abwinkel","lat":47.705146,"lng":11.735762,"lines":null,"url":null},{"name":"Bad Wiessee, Abwinkl (Schiff)","lat":47.705811,"lng":11.740496,"lines":null,"url":null},{"name":"Bad Wiessee Hotel Bussi Baby","lat":47.706107,"lng":11.729707,"lines":null,"url":null},{"name":"Bad Wiessee Lindenplatz","lat":47.712278,"lng":11.725584,"lines":null,"url":null},{"name":"Bad Wiessee, Ortsmitte","lat":47.712925,"lng":11.727533,"lines":null,"url":null},{"name":"Bad Wiessee Adrian-Stoop-Str.","lat":47.716098,"lng":11.725099,"lines":null,"url":null}],"gauges":[{"id":1672,"name":"Bad Wiessee","lat":47.7050478,"lng":11.736178}],"depth_map":null},"extractor_schema_version":2,"last_updated":"2026-05-07T11:46:16.256Z","error":false,"source_platform":"hejfish","global_id":"hejfish-15841","external_ids":{"hejfish":15841}}