{"id":13354,"slug":"alte-jeetzel-strecke-dannenberg","url":"https://www.hejfish.com/d/13354-alte-jeetzel-strecke-dannenberg","name":"Alte Jeetzel- Strecke Dannenberg","seo_name":"Alte Jeetzel- Strecke Dannenberg","description":"<p>Die Alte Jeetzel hat eine Länge von ca. 5 km.</p>","intro":"","details":"","borders":"<p>Ufer beidseitig, zwischen dem Pumpwerk Lüggau bis unterhalb Prabstorf (Schild AV Dannenberg).</p>","image":"https://file.hejfish.com/image/cc1200x900/76/35/7635d9b1e123df0e8c2f77a603a9b3c83e23cbf0.jpeg","water_size_ha":null,"fish":["Aal","Karpfen","Schleie","Brasse","Rotfeder","Flussbarsch","Hecht","Zander"],"techniques":["Ansitzangeln","Posenangeln","Raubfischangeln","Spinnangeln"],"properties":[],"water_type":"Fluss","rules_text":"<p><b><u>Bestimmungen siehe Anhang!</u></b></p><p><b>Folgende Bestimmungen sind einzuhalten: </b></p><ol><li>max. 3 Handangeln, davon nur eine Raubfischangel</li><li>nur 1 Haken pro Angel</li><li>Schonzeit für Hechte und Zander: 01.01. - 31.05.</li><li>Mindestmaße für: </li><ul><li>Hechte:    50cm / max. 100cm</li><li>Karpfen:   35cm</li><li>Zander:    45 cm / max. 100cm</li></ul><li>Angeln nur vom Ufer aus. In der Schutzzone des Thielenburger Sees darf nicht geangelt werden. </li><li>50m ober- und unterhalb der Wehre ist das Angeln verboten. </li><li>Der Angelplatz ist sauber zu halten!</li></ol><p><b>Fangbeschränkungen</b>:<br>Für Thielenburger See und Alte Jeetzel max. 2 Hechte oder Zander und 2 Karpfen pro Tag.</p><p><b>Im Thielenburger See ist das Blinkern und Twistern nicht gestattet!</b></p><p>Im übrigen gelten die Bestimmungen des NDS. Fischereigesetzes, der Binnenfischereiordnung, des Naturschutzgesetzes und des Tierschutzgesetzes. </p><p>Erlaubnisschein und Fang sind den Fischereiaufsehern des AV Dannenberg auf Verlangen vorzuzeigen!</p><p><br></p>","rules_files":[{"id":272997,"name":"alte-jeetzel-strecke-dannenberg-bestimmungen","description":null,"file":"https://api.hejfish.com/files/download/f53b4011bc6a6570c2d64c6b55eed40da4da3632/alte-jeetzel-strecke-dannenberg-bestimmungen.pdf"},{"id":272998,"name":"alte-jeetzel-strecke-dannenberg-bestimmungen","description":null,"file":"https://api.hejfish.com/files/download/3dbf675ad014b36c3a5e3358c3c95f34593cf36b/alte-jeetzel-strecke-dannenberg-bestimmungen.pdf"}],"tickets":[{"name":"Tageskarte - Normalpreis","price":"9,00 EUR","ticket_type_id":3480,"price_id":95522},{"name":"2-Tageskarte - Normalpreis","price":"12,00 EUR","ticket_type_id":3481,"price_id":95521},{"name":"Wochenkarte - Normalpreis","price":"24,00 EUR","ticket_type_id":3482,"price_id":95523}],"ticket_types":[{"id":3480,"name":"Tageskarte","category":"DAY","duration":1,"prices":[{"id":95522,"name":"Normalpreis","value":"9,00 EUR","cents":900,"type":"DEFAULT","valid_from":"2026-01-01","valid_to":"2026-12-31","available_from":"2026-01-01","age":0,"eligible":true}],"licenses":{"required":["Fischereischein / Jugendfischereischein Deutschland"],"optional":[]},"rules_text":"<p><b><u>Bestimmungen siehe Anhang!</u></b></p><p><b>Folgende Bestimmungen sind einzuhalten: </b></p><ol><li>max. 3 Handangeln, davon nur eine Raubfischangel</li><li>nur 1 Haken pro Angel</li><li>Schonzeit für Hechte und Zander: 01.01. - 31.05.</li><li>Mindestmaße für: </li><ul><li>Hechte:    50cm / max. 100cm</li><li>Karpfen:   35cm</li><li>Zander:    45 cm / max. 100cm</li></ul><li>Angeln nur vom Ufer aus. In der Schutzzone des Thielenburger Sees darf nicht geangelt werden. </li><li>50m ober- und unterhalb der Wehre ist das Angeln verboten. </li><li>Der Angelplatz ist sauber zu halten!</li></ol><p><b>Fangbeschränkungen</b>:<br>Für Thielenburger See und Alte Jeetzel max. 2 Hechte oder Zander und 2 Karpfen pro Tag.</p><p><b>Im Thielenburger See ist das Blinkern und Twistern nicht gestattet!</b></p><p>Im übrigen gelten die Bestimmungen des NDS. Fischereigesetzes, der Binnenfischereiordnung, des Naturschutzgesetzes und des Tierschutzgesetzes. </p><p>Erlaubnisschein und Fang sind den Fischereiaufsehern des AV Dannenberg auf Verlangen vorzuzeigen!</p><p><br></p>","rules_files":[{"id":272997,"name":"alte-jeetzel-strecke-dannenberg-bestimmungen","description":null,"file":"https://api.hejfish.com/files/download/f53b4011bc6a6570c2d64c6b55eed40da4da3632/alte-jeetzel-strecke-dannenberg-bestimmungen.pdf"},{"id":272998,"name":"alte-jeetzel-strecke-dannenberg-bestimmungen","description":null,"file":"https://api.hejfish.com/files/download/3dbf675ad014b36c3a5e3358c3c95f34593cf36b/alte-jeetzel-strecke-dannenberg-bestimmungen.pdf"}],"additional_areas":[],"catch_report_required":true},{"id":3481,"name":"2-Tageskarte","category":"DAY","duration":2,"prices":[{"id":95521,"name":"Normalpreis","value":"12,00 EUR","cents":1200,"type":"DEFAULT","valid_from":"2026-01-01","valid_to":"2026-12-31","available_from":"2026-01-01","age":0,"eligible":true}],"licenses":{"required":["Fischereischein / Jugendfischereischein Deutschland"],"optional":[]},"rules_text":"<p><b><u>Bestimmungen siehe Anhang!</u></b></p><p><b>Folgende Bestimmungen sind einzuhalten: </b></p><ol><li>max. 3 Handangeln, davon nur eine Raubfischangel</li><li>nur 1 Haken pro Angel</li><li>Schonzeit für Hechte und Zander: 01.01. - 31.05.</li><li>Mindestmaße für: </li><ul><li>Hechte:    50cm / max. 100cm</li><li>Karpfen:   35cm</li><li>Zander:    45 cm / max. 100cm</li></ul><li>Angeln nur vom Ufer aus. In der Schutzzone des Thielenburger Sees darf nicht geangelt werden. </li><li>50m ober- und unterhalb der Wehre ist das Angeln verboten. </li><li>Der Angelplatz ist sauber zu halten!</li></ol><p><b>Fangbeschränkungen</b>:<br>Für Thielenburger See und Alte Jeetzel max. 2 Hechte oder Zander und 2 Karpfen pro Tag.</p><p><b>Im Thielenburger See ist das Blinkern und Twistern nicht gestattet!</b></p><p>Im übrigen gelten die Bestimmungen des NDS. Fischereigesetzes, der Binnenfischereiordnung, des Naturschutzgesetzes und des Tierschutzgesetzes. </p><p>Erlaubnisschein und Fang sind den Fischereiaufsehern des AV Dannenberg auf Verlangen vorzuzeigen!</p><p><br></p>","rules_files":[{"id":272997,"name":"alte-jeetzel-strecke-dannenberg-bestimmungen","description":null,"file":"https://api.hejfish.com/files/download/f53b4011bc6a6570c2d64c6b55eed40da4da3632/alte-jeetzel-strecke-dannenberg-bestimmungen.pdf"},{"id":272998,"name":"alte-jeetzel-strecke-dannenberg-bestimmungen","description":null,"file":"https://api.hejfish.com/files/download/3dbf675ad014b36c3a5e3358c3c95f34593cf36b/alte-jeetzel-strecke-dannenberg-bestimmungen.pdf"}],"additional_areas":[],"catch_report_required":true},{"id":3482,"name":"Wochenkarte","category":"DAY","duration":7,"prices":[{"id":95523,"name":"Normalpreis","value":"24,00 EUR","cents":2400,"type":"DEFAULT","valid_from":"2026-01-01","valid_to":"2026-12-31","available_from":"2026-01-01","age":0,"eligible":true}],"licenses":{"required":["Fischereischein / Jugendfischereischein Deutschland"],"optional":[]},"rules_text":"<p><b><u>Bestimmungen siehe Anhang!</u></b></p><p><b>Folgende Bestimmungen sind einzuhalten: </b></p><ol><li>max. 3 Handangeln, davon nur eine Raubfischangel</li><li>nur 1 Haken pro Angel</li><li>Schonzeit für Hechte und Zander: 01.01. - 31.05.</li><li>Mindestmaße für: </li><ul><li>Hechte:    50cm / max. 100cm</li><li>Karpfen:   35cm</li><li>Zander:    45 cm / max. 100cm</li></ul><li>Angeln nur vom Ufer aus. In der Schutzzone des Thielenburger Sees darf nicht geangelt werden. </li><li>50m ober- und unterhalb der Wehre ist das Angeln verboten. </li><li>Der Angelplatz ist sauber zu halten!</li></ol><p><b>Fangbeschränkungen</b>:<br>Für Thielenburger See und Alte Jeetzel max. 2 Hechte oder Zander und 2 Karpfen pro Tag.</p><p><b>Im Thielenburger See ist das Blinkern und Twistern nicht gestattet!</b></p><p>Im übrigen gelten die Bestimmungen des NDS. Fischereigesetzes, der Binnenfischereiordnung, des Naturschutzgesetzes und des Tierschutzgesetzes. </p><p>Erlaubnisschein und Fang sind den Fischereiaufsehern des AV Dannenberg auf Verlangen vorzuzeigen!</p><p><br></p>","rules_files":[{"id":272997,"name":"alte-jeetzel-strecke-dannenberg-bestimmungen","description":null,"file":"https://api.hejfish.com/files/download/f53b4011bc6a6570c2d64c6b55eed40da4da3632/alte-jeetzel-strecke-dannenberg-bestimmungen.pdf"},{"id":272998,"name":"alte-jeetzel-strecke-dannenberg-bestimmungen","description":null,"file":"https://api.hejfish.com/files/download/3dbf675ad014b36c3a5e3358c3c95f34593cf36b/alte-jeetzel-strecke-dannenberg-bestimmungen.pdf"}],"additional_areas":[],"catch_report_required":true}],"manager":{"id":1819,"name":"Angelverein Dannenberg (Elbe) e.V. ","street":"Kriegerberg 5 ","postal_code":"29451","city":"Dannenberg","telephone":"0049 171 2426142","email":"","website":"https://angelverein-dannenberg.de/","logo":"https://file.hejfish.com/image/r200x200/64/b0/64b04ac70c561b686c4359ccdb35a4e7cf5e22be.png","slug":"angelverein-dannenberg-elbe-e-v"},"season_begin":"0001-01-01","season_end":"0001-12-31","features":{"accessible":false,"public_transport":false,"boat":false,"belly_boat":false,"digital_ticket":true,"night_fishing":true,"ice_fishing":false,"depth_map":false,"has_gauges":false},"location":{"city":{"id":13459,"name":"Dannenberg (Elbe)"},"district":{"id":199,"name":"Kreis Lüchow-Dannenberg"},"state":{"id":22,"name":"Niedersachsen","slug":"niedersachsen"},"country":{"id":2,"name":"Deutschland","code":"de","slug":"deutschland"}},"products":[{"id":1103,"name":"Statistikdaten in Rohformat (Excel) – Alte Jeetzel- Strecke Dannenberg","caption":"","description":"<p>Mithilfe dieser Statistikdaten wollen wir dir zu deinem Fang verhelfen. In diesem Excel-Download findest du die anonymisierten Rohdaten zum jeweiligen Gewässer aus unserer Fangdatenbank.</p>","image":"https://file.hejfish.com/image/cc800x600/bd/85/bd8572e8d4e2c38eba0a2ce880a00196ceda2fd0.jpg","category":{"id":10,"name":"Fangstatistiken (Rohdaten)"},"price":null,"guest_ticket":null,"show_in_shop":false,"show_on_area_detail_page":true,"show_in_basket":false}],"points_of_interest":[],"catch_reports":[],"news":[],"hejfish_fee":[{"min":137,"max":297,"percent":8.9,"fisher_type":"guest"}],"lat":53.103828,"lng":11.079557,"geocode_source":"hejfish_api_map","map_data":{"id":13354,"geojson":[],"locations":[{"lat":53.103828,"lng":11.079557},{"lat":53.069899,"lng":11.118185}],"stations":[{"name":"Schaafhausen Ort","lat":53.071661,"lng":11.070527,"lines":null,"url":null},{"name":"Dannenberg(Elbe) Sandberg","lat":53.063887,"lng":11.070705,"lines":null,"url":null},{"name":"Dannenberg(Elbe) Prisser Kreuzung","lat":53.085832,"lng":11.0724,"lines":null,"url":null},{"name":"Dannenberg-Tramm","lat":53.064534,"lng":11.073764,"lines":null,"url":null},{"name":"Lüggau Ort","lat":53.097122,"lng":11.073866,"lines":null,"url":null},{"name":"Pisselberg(Dannenberg) Ort","lat":53.112877,"lng":11.074822,"lines":null,"url":null},{"name":"Dannenberg(Elbe) Abzw. Krankenhaus","lat":53.085039,"lng":11.080642,"lines":null,"url":null},{"name":"Dannenberg(Elbe) West/Bahnübergang","lat":53.094966,"lng":11.083395,"lines":null,"url":null},{"name":"Dannenberg(Elbe) Kochstraße","lat":53.090845,"lng":11.086555,"lines":null,"url":null},{"name":"Dannenberg(Elbe) Grundschule","lat":53.094532,"lng":11.087878,"lines":null,"url":null},{"name":"Dannenberg(Elbe) Lüchower Straße","lat":53.093925,"lng":11.088482,"lines":null,"url":null},{"name":"Dannenberg(Elbe) Lüneburger Straße","lat":53.096488,"lng":11.089287,"lines":null,"url":null},{"name":"Dannenberg(Elbe) Am Werder","lat":53.101062,"lng":11.096436,"lines":null,"url":null},{"name":"Dannenberg(Elbe) ZOB","lat":53.096851,"lng":11.097549,"lines":null,"url":null},{"name":"Dannenberg(Elbe) An den Ratswiesen","lat":53.102141,"lng":11.100229,"lines":null,"url":null},{"name":"Bückau","lat":53.076253,"lng":11.107579,"lines":null,"url":null},{"name":"Dannenberg(Elbe) Erich-Kästner-Schule","lat":53.102959,"lng":11.10985,"lines":null,"url":null},{"name":"Dannenberg(Elbe) Stadtbad","lat":53.099664,"lng":11.11038,"lines":null,"url":null},{"name":"Dannenberg(Elbe) Bellmansfeld","lat":53.1008,"lng":11.117097,"lines":null,"url":null},{"name":"Dannenberg(Elbe) Ost","lat":53.104997,"lng":11.117734,"lines":null,"url":null},{"name":"Liepehöfen","lat":53.063083,"lng":11.117887,"lines":null,"url":null},{"name":"Dannenberg(Elbe) Ostbahnhof","lat":53.104403,"lng":11.118108,"lines":null,"url":null},{"name":"Prabsdorf","lat":53.070754,"lng":11.121651,"lines":null,"url":null},{"name":"Nebenstedt Ort","lat":53.098047,"lng":11.127251,"lines":null,"url":null}],"gauges":[],"depth_map":null},"extractor_schema_version":2,"last_updated":"2026-05-07T11:42:32.751Z","error":false,"source_platform":"hejfish","global_id":"hejfish-13354","external_ids":{"hejfish":13354}}