{"id":12577,"slug":"vils-und-weiher-fvs","url":"https://www.hejfish.com/d/12577-vils-und-weiher-fvs","name":"Vils und Weiher FVS","seo_name":"Vils und Weiher FVS","description":"<p>Vils im Bereich der Barbenregion im Landkreis Dingolfing/Landau. Unseren Mitgliedern stehen zur Befischung ca. 10 km Vils zwischen Oberhausen und Reicherstorf (Barbenregion) zur Verfügung.<br></p>","intro":"","details":"","borders":"<p>Gewässergrenzen siehe Beschilderung!<br></p>","image":"https://file.hejfish.com/image/cc1200x900/01/55/0155839b334f1b12b58c3a1405c97e0b0fd09846.jpeg","water_size_ha":null,"fish":["Zander","Hecht","Karpfen","Wels","Nase","Barbe"],"techniques":["Ansitzangeln","Spinnangeln"],"properties":[],"water_type":"Fluss","rules_text":"","rules_files":[],"tickets":[],"ticket_types":[],"manager":{"id":1609,"name":"Fischereiverein Sommershausen e.V. - INAKTIV","street":"Simbacher Str. 149","postal_code":"94405","city":"Mettenhausen","telephone":"0049 9954 990 831","email":"verwaltung@fischereiverein-sommershausen.de","website":"https://www.fischereiverein-sommershausen.de","logo":"https://file.hejfish.com/image/r200x200/bc/98/bc98b78fb6b1a8022752f7dcfd9490615ce3a2f8.jpeg","slug":"fischereiverein-sommershausen-e-v-inaktiv"},"season_begin":"0001-01-01","season_end":"0001-12-31","features":{"accessible":false,"public_transport":true,"boat":false,"belly_boat":false,"digital_ticket":false,"night_fishing":false,"ice_fishing":false,"depth_map":false,"has_gauges":true},"location":{"city":{"id":32359,"name":"Landau an der Isar"},"district":{"id":412,"name":"Kreis Dingolfing-Landau"},"state":{"id":10,"name":"Bayern","slug":"bayern"},"country":{"id":2,"name":"Deutschland","code":"de","slug":"deutschland"}},"products":[],"points_of_interest":[],"catch_reports":[],"news":[],"hejfish_fee":[{"min":137,"max":297,"percent":8.9,"fisher_type":"guest"}],"lat":48.597493,"lng":12.669156,"geocode_source":"hejfish_api_map","map_data":{"id":12577,"geojson":[],"locations":[{"lat":48.597493,"lng":12.669156},{"lat":48.606411,"lng":12.69424},{"lat":48.595964,"lng":12.66746},{"lat":48.597518,"lng":12.669466},{"lat":48.598084,"lng":12.684071},{"lat":48.598084,"lng":12.684071},{"lat":48.598084,"lng":12.684071},{"lat":48.606257,"lng":12.694156},{"lat":48.615578,"lng":12.742472},{"lat":48.62011,"lng":12.751195},{"lat":48.620011,"lng":12.73552},{"lat":48.620011,"lng":12.73552},{"lat":48.598432,"lng":12.68253},{"lat":48.598432,"lng":12.68253},{"lat":48.603952,"lng":12.688613},{"lat":48.606411,"lng":12.69424},{"lat":48.613904,"lng":12.713996},{"lat":48.613698,"lng":12.709436},{"lat":48.617422,"lng":12.718384}],"stations":[{"name":"Oberhausen","lat":48.588175,"lng":12.664521,"lines":null,"url":null},{"name":"Obermünchsdorf","lat":48.590356,"lng":12.668159,"lines":null,"url":null},{"name":"Kugl Abzw.","lat":48.590558,"lng":12.718905,"lines":null,"url":null},{"name":"Straßhaus","lat":48.595899,"lng":12.718465,"lines":null,"url":null},{"name":"Niederhausen","lat":48.59761,"lng":12.686583,"lines":null,"url":null},{"name":"Mienbach","lat":48.60181,"lng":12.707532,"lines":null,"url":null},{"name":"Haunersdorf, Ortsmitte","lat":48.607394,"lng":12.717476,"lines":null,"url":null},{"name":"Sommershausen","lat":48.608023,"lng":12.680089,"lines":null,"url":null},{"name":"Haunersdorf, Moosweg","lat":48.608992,"lng":12.717503,"lines":null,"url":null},{"name":"Steinbeißen","lat":48.610078,"lng":12.736637,"lines":null,"url":null},{"name":"Rottersdorf","lat":48.610227,"lng":12.69545,"lines":null,"url":null},{"name":"Feldöd","lat":48.611373,"lng":12.744516,"lines":null,"url":null},{"name":"Rottersdorf, Andreasstraße Abzw.","lat":48.612876,"lng":12.702061,"lines":null,"url":null},{"name":"Aufhausen, Bahnhofplatz","lat":48.614497,"lng":12.758961,"lines":null,"url":null},{"name":"Aufhausen, Gasthaus Buchner","lat":48.617965,"lng":12.758062,"lines":null,"url":null},{"name":"Mettenhausen, Gasthof Neumayer","lat":48.617965,"lng":12.715033,"lines":null,"url":null},{"name":"Mettenhausen, Kreuzung Milchstraße","lat":48.621071,"lng":12.713775,"lines":null,"url":null},{"name":"Weihern, Sommershauser Straße 34","lat":48.622823,"lng":12.680663,"lines":null,"url":null},{"name":"Brunnmann","lat":48.624747,"lng":12.709984,"lines":null,"url":null},{"name":"Reichersdorf","lat":48.625994,"lng":12.74359,"lines":null,"url":null},{"name":"Weihern","lat":48.626023,"lng":12.681598,"lines":null,"url":null},{"name":"Reichersdorf, Bgm.-Strigl-Straße","lat":48.626825,"lng":12.748477,"lines":null,"url":null}],"gauges":[{"id":1621,"name":"Reichstorf","lat":48.63038,"lng":12.9221324},{"id":1620,"name":"Rottersdorf","lat":48.6062448,"lng":12.6938735},{"id":1619,"name":"Neumühle","lat":48.5727453,"lng":12.6130809},{"id":1618,"name":"Marklkofen Seepegel","lat":48.5695992,"lng":12.5905657},{"id":1617,"name":"Aham","lat":48.5274193,"lng":12.4723312}],"depth_map":null},"extractor_schema_version":2,"last_updated":"2026-05-07T11:41:26.138Z","error":false,"source_platform":"hejfish","global_id":"hejfish-12577","external_ids":{"hejfish":12577}}