{"id":"hejfish-12100","source_platform":"hejfish","source_ids":{"hejfish":12100},"name":"Fliegenstrecke Elbbach","water_type":"Bach","country":"DE","center":{"lat":50.448348,"lng":8.044995,"source":"hejfish_api_map_geojson","confidence":"high"},"geometry":{"points":[{"lat":50.451616,"lng":8.046132},{"lat":50.44531,"lng":8.044567}],"lines":[[{"lat":50.451597,"lng":8.046075},{"lat":50.451484,"lng":8.045991},{"lat":50.451073,"lng":8.045519},{"lat":50.45043,"lng":8.044656},{"lat":50.450191,"lng":8.044524},{"lat":50.449828,"lng":8.044495},{"lat":50.449197,"lng":8.044621},{"lat":50.449018,"lng":8.044653},{"lat":50.44854,"lng":8.044648},{"lat":50.448357,"lng":8.044538},{"lat":50.447049,"lng":8.044127},{"lat":50.446707,"lng":8.044023},{"lat":50.446166,"lng":8.043915},{"lat":50.44572,"lng":8.044116},{"lat":50.445175,"lng":8.044951},{"lat":50.445098,"lng":8.045012}]],"polygons":[],"source":"hejfish_api_map_geojson","confidence":"high"},"links":{"source":"https://www.hejfish.com/d/12100-fliegenstrecke-elbbach","hejfish":"https://www.hejfish.com/d/12100-fliegenstrecke-elbbach","alleangeln":null,"website":null,"image":"https://file.hejfish.com/image/cc1200x900/f5/2f/f52fe6bad1f82307c217ce2e2249b16c7cfcf179.jpeg"},"fish":["Aal","Bachforelle","Regenbogenforelle","Gründling","Karpfen","Äsche","Bachsaibling","Hecht","Rotfeder","Schleie","Zander"],"metadata":{"platform":"hejfish","geocode_source":"hejfish_api_map_geojson","slug":"fliegenstrecke-elbbach","seo_name":"Fliegenstrecke Elbbach","description":"<p>Die Fliegenstrecke ist ca.1,2 km lang und hat eine durchschnittliche Breite zwischen 10 und 12 m sie ist fast überall mit Watstiefeln zu begehen. Ob im Frühjahr mit der leichten Sink-Tip und dem Streamer, oder später mit der Trockenfliege oder Nymphe, eine Rute zwischen 7 bis 8,6 Fuß und den Klassen 4 – 6 reichen vollkommen aus. Mitzuführen sind Trockenfliegen der Größen 14 bis 18, kleine Aufsteiger, Köcherfliegen und Nymphen in unterschiedlicher Beschwerung. Natürlich ist nur das Fliegenfischen mit angedrücktem Haken erlaubt. In den Gumpen ist es bei tief geführter Nymphe möglich, einmal eine kampfstarke Barbe an den Haken zu bekommen. Ansonsten fängt man, neben Bach-, Regenbogenforellen, Äschen und Nase praktisch überall Hasel, Rotaugen und manchmal auch starke Döbel. <br></p> <div><i>Fliegenerlaubnisschein ist gültig für die gesamte Gaststrecke Hadamar &amp; Lochmühle.</i></div>","borders":"<p>Wehr Liebfrauenkirche - Wehr Naturschutzgebiet</p>","techniques":["Fliegenfischen"],"rules_text":"<p><b>Fischereibedingungen Elbbach in den Teilstrecken    </b><span style=\"font-weight: 700;\">Hadamar Stadt</span><b> u. Lochmühle</b></p><p>Auszug aus dem Fischereigesetz für das Land Hessen (Hess. Fischereigesetz-HfischG) von Dez. 1990   </p><p><b>§  25 Fischereischeinpflicht</b></p><p>1.<span class=\"Apple-tab-span\" style=\"white-space:pre\">\t</span>Wer\r\n den Fischfang ausübt, muss einen auf seinen Namen lautenden, mit \r\nLichtbild versehenen         Fischereischein bei sich führen und diesen \r\nauf Verlangen den Aufsichtspersonen nach § 47 Abs. 1 den         Beamten\r\n der Fischereibehörden, den Fischereiberechtigten und den \r\nFischereipächtern vorzeigen.</p><p>2.<span class=\"Apple-tab-span\" style=\"white-space:pre\">\t</span>Wer\r\n volljährig und zum Fischfang berechtigt ist, kann sich von weiteren \r\nPersonen unterstützen lassen. von         denen jedoch nur eine den \r\nFischfang mit der Handangel ausüben darf.</p><p><b>e 51 (1l Abs. 4 Ordnungswidrig</b></p><p>handelt,\r\n wer vorsätzlich oder fahrlässig den Fischereischein oder den \r\nFischereierlaubnisschein nicht bei sich führt oder auf Verlangen nicht \r\nvorzeigt.</p><p><b>II . Allgemein :</b></p><p>1.<span class=\"Apple-tab-span\" style=\"white-space:pre\">\t</span>Das Betreten von Wehren und Wasserbauwerken erfolgt auf eigene Gefahr.<br>2.<span class=\"Apple-tab-span\" style=\"white-space: pre;\">\t</span>In den Fischtreppen ist das Fischen verboten.<br>3.<span class=\"Apple-tab-span\" style=\"white-space: pre;\">\t</span>Die gesetzlichen Schonzeiten und Mindestmaße sind einzuhalten.<br>4.<span class=\"Apple-tab-span\" style=\"white-space: pre;\">\t</span>Die Verwendung lebender Wirbeltiere als Köder zum Fischfang ist verboten.<br>5.<span class=\"Apple-tab-span\" style=\"white-space: pre;\">\t</span>Die Entnahme von Fischnährtieren ist verboten.<br>6.<span class=\"Apple-tab-span\" style=\"white-space: pre;\">\t</span>Die Verwendung vom Setzkescher für lebende Fische ist im Rahmen des Hess. Fischereigesetz erlaubt.<br>7.<span class=\"Apple-tab-span\" style=\"white-space: pre;\">\t</span>Der\r\n ausgestellte Erlaubnisschein berechtigt Sie zum Aufenthalt von 1,5 m im\r\n Uferbereich des Elbbach Streckenbereich Lochmühle bzw. Stadtgebiet \r\nHadamar.<br>8.<span class=\"Apple-tab-span\" style=\"white-space: pre;\">\t</span>Sie sind nicht berechtigt zum Grillen, Campieren, oder offenes Feuer zu machen im Bereich der gesamten Gewässerstrecke. <br>9.<span class=\"Apple-tab-span\" style=\"white-space: pre;\">\t</span>Bitte achten Sie darauf, ihren Angelplatz wieder sauber zu verlassen.<br>10.<span class=\"Apple-tab-span\" style=\"white-space: pre;\">\t</span>Ihr\r\n Fahrzeug ist grundsätzlich auf dem Parkplatz an der Lochmühle bzw. auf \r\nden Parkmöglichkeiten im Stadtgebiet Hadamar abzustellen.</p><p><b>Mindestmaße und Schonzeiten :</b></p><p>1.\r\n nicht gefangen oder entnommen werden dürfen: Bitterlinge, Elritze, \r\nKarausche, Lachs, Meerforelle, Schlammpeitzger sowie Muscheln und \r\nKrebse.</p><b>Fischart - Schonzeit - Mindestmaß</b><br>Aal - 01.10 - 01.03 - 50 cm<br>Bachforelle - 15.10 - 31.03 - 25 cm<br>Regenbogenforelle - 15.10 - 31.03 - 25 cm<br>Gründling - 01.03 - 15.05 - -----<br>Karpfen - 15.03 - 31.05 - 45 cm<br>Äsche - 01.03 - 15.05 - 30 cm<br>Bachsaibling - 15.10 - 31.03 - 25 cm<br>Hecht - 01.02 - 31.05 - 50 cm<br>Rotfeder - 15.03 - 31.05 - 20 cm<br>Schleie - 01.05 - 30.06 - 25 cm<br>Zander - 01.02 - 31.05 - 50 cm<br><br><b>Es darf nur mit der Fliegenrute gefischt werden.</b>                     <br><h6 helvetica=\"\" neue\",=\"\" helvetica,=\"\" arial,=\"\" sans-serif;=\"\" color:=\"\" rgb(0,=\"\" 0,=\"\" 0);\"=\"\"><span style=\"font-size: 13.3333px; letter-spacing: 0.266667px;\">1. Innerhalb der Fliegenstrecke vom Wehr \"Liebfrauenkirche\" bis \"Wehr im Naturschutzgebiet\" am Kalkwerk  Hadamar. Das Naturschutzgebiet ist gesperrt vom 1.4. - 15.7. ca. 100m unterhalb der Schlossbrücke.</span></h6><h6 helvetica=\"\" neue\",=\"\" helvetica,=\"\" arial,=\"\" sans-serif;=\"\" color:=\"\" rgb(0,=\"\" 0,=\"\" 0);\"=\"\"><span style=\"font-size: 13.3333px; letter-spacing: 0.266667px;\">2. Es darf nur mit der Fliegenrute gefischt werden, erlaubt sind Trockenfliege, Nymphen und Streamer.</span></h6><h6 helvetica=\"\" neue\",=\"\" helvetica,=\"\" arial,=\"\" sans-serif;=\"\" color:=\"\" rgb(0,=\"\" 0,=\"\" 0);\"=\"\"><span style=\"font-size: 13.3333px; letter-spacing: 0.266667px;\">3. Es darf nur mit Schonhaken gefischt werden.</span></h6><h6 helvetica=\"\" neue\",=\"\" helvetica,=\"\" arial,=\"\" sans-serif;=\"\" color:=\"\" rgb(0,=\"\" 0,=\"\" 0);\"=\"\"><span style=\"font-size: 13.3333px; letter-spacing: 0.266667px;\">4. In der Gesamten Strecke (Fliegen-, Gaststrecke Hadamar und Lochmühle) dürfen pro Tag nicht mehr als 2 Forellen und 1 Karpfen entnommen werden. Bachforellen mit einer Größe von mehr als 60 cm dürfen nicht entnommen werden.</span></h6>","rules_files":[{"id":8248,"name":"fliegenstrecke-elbbach-bestimmungen","description":null,"file":"https://api.hejfish.com/files/download/7a37464309990ca58cf5a5e733f8cefed3134ace/fliegenstrecke-elbbach-bestimmungen.pdf"}],"tickets":[{"name":"Tagesschein - Tagesschein","price":"25,00 EUR","ticket_type_id":1079,"price_id":93245},{"name":"2-Tagesschein - 2-Tagesschein","price":"39,60 EUR","ticket_type_id":1080,"price_id":93246},{"name":"Wochenschein - Wochenschein","price":"66,00 EUR","ticket_type_id":1081,"price_id":93247},{"name":"Jahresschein - Jahresschein","price":"198,00 EUR","ticket_type_id":1082,"price_id":93248}],"manager":{"id":1465,"name":"Sportfischereiverein Hadamar 1960 e. V.","street":"Alexander-Pfohl-Str. 19","postal_code":"65589","city":"Hadamar","telephone":"","email":"Kassierer@SFV-Hadamar.de","website":"http://www.sfv-hadamar.de","logo":"https://file.hejfish.com/image/r200x200/29/23/29235f28a0153f313e73b455b1b101fd40684518.jpeg","slug":"sportfischereiverein-hadamar-1960-e-v"},"season_begin":"0001-04-01","season_end":"0001-12-31","features":{"accessible":false,"public_transport":true,"boat":false,"belly_boat":false,"digital_ticket":false,"night_fishing":true,"ice_fishing":false,"depth_map":false,"has_gauges":false},"location":{"city":{"id":15955,"name":"Hadamar"},"district":{"id":224,"name":"Kreis Limburg-Weilburg"},"state":{"id":14,"name":"Hessen","slug":"hessen"},"country":{"id":2,"name":"Deutschland","code":"de","slug":"deutschland"}},"source_last_updated":"2026-05-07T11:37:18.884Z","error":false},"last_updated":"2026-05-07T11:37:18.884Z"}