{"id":15380,"slug":"loevelt-sche-teiche","url":"https://www.hejfish.com/d/15380-loevelt-sche-teiche","name":"Lövelt’sche Teiche","seo_name":"Lövelt’sche Teiche","description":"<p><b>Die Lövelt’sche Teiche</b> sind ein Angelgewässer des <b>Fischereiverein Gemen-Burlo- Gelsenkirchen e.V. </b>und befinden sich in der Nähe von Bocholt Gemen.<br></p>","intro":"","details":"","borders":"","image":"https://file.hejfish.com/image/cc1200x900/aa/a2/aaa293593416be0230f43571b904bd5be706bd7f.jpg","water_size_ha":null,"fish":["Aal","Brasse","Flussbarsch","Div. Weißfische","Hecht","Karpfen","Zander","Schleie","Barbe"],"techniques":["Ansitzangeln","Friedfischangeln","Karpfenangeln","Posenangeln","Raubfischangeln"],"properties":[],"water_type":"Teich (Weiher)","rules_text":"<h3><b><u>Die gesetzlichen und vereinsinternen Bestimmungen sind zwingend einzuhalten.</u></b><br></h3>","rules_files":[{"id":1117092,"name":"bocholter-aa-bestimmungen","description":null,"file":"https://api.hejfish.com/files/download/1c5ab3614c1ac0ad26dde1404bd9661e4b10c878/bocholter-aa-bestimmungen.pdf"}],"tickets":[{"name":"Kombi-Tageskarte - Normalpreis inkl. Servicegebühr","price":"23,00 EUR","ticket_type_id":8410,"price_id":102732}],"ticket_types":[{"id":8410,"name":"Kombi-Tageskarte","category":"HOUR","duration":24,"prices":[{"id":102732,"name":"Normalpreis inkl. Servicegebühr","value":"23,00 EUR","cents":2300,"type":"DEFAULT","valid_from":"2026-01-01","valid_to":"2026-12-31","available_from":"2026-01-01","age":0,"eligible":true}],"licenses":{"required":["Fischereischein / Jugendfischereischein Deutschland"],"optional":[]},"rules_text":"<h3><b><u>Die gesetzlichen und vereinsinternen Bestimmungen sind zwingend einzuhalten.</u></b><br></h3>","rules_files":[{"id":1117092,"name":"bocholter-aa-bestimmungen","description":null,"file":"https://api.hejfish.com/files/download/1c5ab3614c1ac0ad26dde1404bd9661e4b10c878/bocholter-aa-bestimmungen.pdf"}],"additional_areas":[{"id":15380,"name":"Lövelt’sche Teiche","slug":"loevelt-sche-teiche"},{"id":15381,"name":"Hütten Teich an der Möggenborg","slug":"huetten-teich-an-der-moeggenborg"},{"id":15383,"name":"Schloßgräfte Gemen","slug":"schlossgraefte-gemen"},{"id":15384,"name":"Sportplatzteiche","slug":"sportplatzteiche"},{"id":15385,"name":"Teich unter den Eichen","slug":"teich-unter-den-eichen"},{"id":15386,"name":"Klostersee Burlo","slug":"klostersee-burlo"}],"catch_report_required":true}],"manager":{"id":2102,"name":"Fischereiverein Gemen-Burlo-Gelsenkirchen e.V.","street":"Hüpohl 11 ","postal_code":"46342","city":"Velen","telephone":"","email":"info@fischereiverein-gemen.de","website":"https://fischereiverein-gemen.de/","logo":"https://file.hejfish.com/image/r200x200/7e/10/7e108f1380c05988a47fbece6038223be0e6e6b1.jpg","slug":"fischereiverein-gemen-burlo-gelsenkirchen-e-v"},"season_begin":"0001-01-01","season_end":"0001-12-31","features":{"accessible":false,"public_transport":true,"boat":false,"belly_boat":false,"digital_ticket":true,"night_fishing":true,"ice_fishing":false,"depth_map":false,"has_gauges":false},"location":{"city":{"id":19249,"name":"Borken"},"district":{"id":265,"name":"Kreis Borken"},"state":{"id":21,"name":"Nordrhein-Westfalen","slug":"nordrhein-westfalen"},"country":{"id":2,"name":"Deutschland","code":"de","slug":"deutschland"}},"products":[],"points_of_interest":[],"catch_reports":[],"news":[],"hejfish_fee":[{"min":137,"max":297,"percent":8.9,"fisher_type":"guest"}],"lat":51.857358,"lng":6.84302,"geocode_source":"hejfish_api_map","map_data":{"id":15380,"geojson":[],"locations":[{"lat":51.857358,"lng":6.84302},{"lat":51.85585,"lng":6.84389},{"lat":51.8571,"lng":6.84578}],"stations":[{"name":"Gemenwirthe, DRK-Bildungshaus","lat":51.864437,"lng":6.83944,"lines":null,"url":null},{"name":"Gemenwirthe, Alte Mühle","lat":51.857719,"lng":6.841515,"lines":null,"url":null},{"name":"Gemenwirthe, Leesing","lat":51.85368,"lng":6.842423,"lines":null,"url":null},{"name":"Borken, Neumühlenallee","lat":51.858168,"lng":6.843177,"lines":null,"url":null},{"name":"Borken, Kreishaus","lat":51.851216,"lng":6.843959,"lines":null,"url":null},{"name":"Borken, Jodocus Nünning GE","lat":51.858779,"lng":6.844022,"lines":null,"url":null},{"name":"Borken, Johannesschule","lat":51.861852,"lng":6.845791,"lines":null,"url":null},{"name":"Borken, Schulzentrum II","lat":51.860898,"lng":6.846708,"lines":null,"url":null},{"name":"Borken, Kettelerstr.","lat":51.849069,"lng":6.847229,"lines":null,"url":null},{"name":"Borken, Josef-Haydn-Straße","lat":51.863555,"lng":6.847579,"lines":null,"url":null},{"name":"Borken, Nordring","lat":51.847448,"lng":6.847839,"lines":null,"url":null},{"name":"Borken, Wagnerstraße","lat":51.859267,"lng":6.847902,"lines":null,"url":null},{"name":"Borken, Marienschule","lat":51.848042,"lng":6.852376,"lines":null,"url":null},{"name":"Borken, Jahnstr.","lat":51.847609,"lng":6.854568,"lines":null,"url":null}],"gauges":[],"depth_map":null},"extractor_schema_version":2,"last_updated":"2026-05-07T11:45:37.334Z","error":false,"source_platform":"hejfish","global_id":"hejfish-15380","external_ids":{"hejfish":15380}}