{"id":"hejfish-12577","source_platform":"hejfish","source_ids":{"hejfish":12577},"name":"Vils und Weiher FVS","water_type":"Fluss","country":"DE","center":{"lat":48.597493,"lng":12.669156,"source":"hejfish_api_map","confidence":"high"},"geometry":{"points":[{"lat":48.597493,"lng":12.669156},{"lat":48.606411,"lng":12.69424},{"lat":48.595964,"lng":12.66746},{"lat":48.597518,"lng":12.669466},{"lat":48.598084,"lng":12.684071},{"lat":48.606257,"lng":12.694156},{"lat":48.615578,"lng":12.742472},{"lat":48.62011,"lng":12.751195},{"lat":48.620011,"lng":12.73552},{"lat":48.598432,"lng":12.68253},{"lat":48.603952,"lng":12.688613},{"lat":48.613904,"lng":12.713996},{"lat":48.613698,"lng":12.709436},{"lat":48.617422,"lng":12.718384}],"lines":[],"polygons":[],"source":"hejfish_api_map","confidence":"medium"},"links":{"source":"https://www.hejfish.com/d/12577-vils-und-weiher-fvs","hejfish":"https://www.hejfish.com/d/12577-vils-und-weiher-fvs","alleangeln":null,"website":null,"image":"https://file.hejfish.com/image/cc1200x900/01/55/0155839b334f1b12b58c3a1405c97e0b0fd09846.jpeg"},"fish":["Zander","Hecht","Karpfen","Wels","Nase","Barbe"],"metadata":{"platform":"hejfish","geocode_source":"hejfish_api_map","slug":"vils-und-weiher-fvs","seo_name":"Vils und Weiher FVS","description":"<p>Vils im Bereich der Barbenregion im Landkreis Dingolfing/Landau. Unseren Mitgliedern stehen zur Befischung ca. 10 km Vils zwischen Oberhausen und Reicherstorf (Barbenregion) zur Verfügung.<br></p>","borders":"<p>Gewässergrenzen siehe Beschilderung!<br></p>","techniques":["Ansitzangeln","Spinnangeln"],"manager":{"id":1609,"name":"Fischereiverein Sommershausen e.V. - INAKTIV","street":"Simbacher Str. 149","postal_code":"94405","city":"Mettenhausen","telephone":"0049 9954 990 831","email":"verwaltung@fischereiverein-sommershausen.de","website":"https://www.fischereiverein-sommershausen.de","logo":"https://file.hejfish.com/image/r200x200/bc/98/bc98b78fb6b1a8022752f7dcfd9490615ce3a2f8.jpeg","slug":"fischereiverein-sommershausen-e-v-inaktiv"},"season_begin":"0001-01-01","season_end":"0001-12-31","features":{"accessible":false,"public_transport":true,"boat":false,"belly_boat":false,"digital_ticket":false,"night_fishing":false,"ice_fishing":false,"depth_map":false,"has_gauges":true},"location":{"city":{"id":32359,"name":"Landau an der Isar"},"district":{"id":412,"name":"Kreis Dingolfing-Landau"},"state":{"id":10,"name":"Bayern","slug":"bayern"},"country":{"id":2,"name":"Deutschland","code":"de","slug":"deutschland"}},"source_last_updated":"2026-05-07T11:41:26.138Z","error":false},"last_updated":"2026-05-07T11:41:26.138Z"}