{"id":15719,"slug":"vils-fv-fuerth","url":"https://www.hejfish.com/d/15719-vils-fv-fuerth","name":"Vils (FV Fürth)","seo_name":"Vils","description":"<p>Von der Brücke Lengenfeld bis zur oberen Wehranlage in Theuern </p>","intro":"","details":"","borders":"<p>Von der Brücke Lengenfeld bis zur oberen Wehranlage in Theuern\n</p>\n\n","image":"https://file.hejfish.com/image/cc1200x900/a7/c8/a7c882b0fe69d15f2048455f9c98992e572e1b3b.jpg","water_size_ha":null,"fish":["Karpfen","Hecht"],"techniques":["Ansitzangeln","Friedfischangeln","Naturköderangeln","Posenangeln","Raubfischangeln","Spinnangeln"],"properties":[],"water_type":"Fluss","rules_text":"","rules_files":[],"tickets":[],"ticket_types":[],"manager":{"id":2196,"name":"Fischereiverein Fürth e.V.","street":"Amtsgasse 2","postal_code":"90768","city":"Fürth","telephone":"","email":"anfrage@fischereiverein-fuerth.de","website":"https://fischereiverein-fuerth.de/","logo":"https://file.hejfish.com/image/r200x200/1e/f4/1ef4fc491aeca520c2b152041fb76ac857154e5a.jpg","slug":"fischereiverein-fuerth-e-v"},"season_begin":"0001-01-01","season_end":"0001-12-31","features":{"accessible":false,"public_transport":true,"boat":false,"belly_boat":false,"digital_ticket":true,"night_fishing":false,"ice_fishing":false,"depth_map":false,"has_gauges":true},"location":{"city":{"id":34359,"name":"Kümmersbruck"},"district":{"id":448,"name":"Kreis Amberg-Sulzbach"},"state":{"id":10,"name":"Bayern","slug":"bayern"},"country":{"id":2,"name":"Deutschland","code":"de","slug":"deutschland"}},"products":[],"points_of_interest":[],"catch_reports":[],"news":[{"id":6882,"text":"<p>Nachtangelverbot von 00:00 bis 05:00 Uhr!</p>","valid_from":null,"valid_till":null}],"hejfish_fee":[{"min":137,"max":297,"percent":8.9,"fisher_type":"guest"}],"lat":49.40805,"lng":11.89883,"geocode_source":"hejfish_api_map","map_data":{"id":15719,"geojson":[],"locations":[{"lat":49.40805,"lng":11.89883},{"lat":49.38958,"lng":11.91017}],"stations":[{"name":"Haselmühl Ab. K.-Adenauer-Str.","lat":49.416304,"lng":11.891179,"lines":null,"url":null},{"name":"Haselmühl Abzw. Glückaufstr.","lat":49.413785,"lng":11.89506,"lines":null,"url":null},{"name":"Lengenfeld(Kümmerb) Gh Vilstal","lat":49.409507,"lng":11.899767,"lines":null,"url":null},{"name":"Lengenfeld(Kümmerb) Steinbruch","lat":49.404977,"lng":11.90354,"lines":null,"url":null},{"name":"Lengenfeld (Kümmerb) Vilsanger","lat":49.405211,"lng":11.905193,"lines":null,"url":null},{"name":"Theuern Vilsanger","lat":49.392449,"lng":11.90716,"lines":null,"url":null},{"name":"Theuern Parkplatz","lat":49.386783,"lng":11.909837,"lines":null,"url":null},{"name":"Theuern Schloß","lat":49.387695,"lng":11.911975,"lines":null,"url":null},{"name":"Theuern Brücke","lat":49.387549,"lng":11.912128,"lines":null,"url":null},{"name":"Penkhof Ortsmitte","lat":49.412529,"lng":11.913125,"lines":null,"url":null},{"name":"Theuern Erzbergstr.","lat":49.387829,"lng":11.913547,"lines":null,"url":null},{"name":"Theuern Gewerbegebiet","lat":49.394752,"lng":11.914966,"lines":null,"url":null}],"gauges":[{"id":1456,"name":"Dietldorf","lat":49.2001481,"lng":11.9432483},{"id":1455,"name":"Schmidmühlen","lat":49.2653554,"lng":11.925668},{"id":1454,"name":"Amberg","lat":49.4481514,"lng":11.8548648},{"id":1453,"name":"Hahnbach","lat":49.532803,"lng":11.799571},{"id":1452,"name":"Vilseck","lat":49.6119607,"lng":11.8015028}],"depth_map":null},"extractor_schema_version":2,"last_updated":"2026-05-07T11:46:08.759Z","error":false,"source_platform":"hejfish","global_id":"hejfish-15719","external_ids":{"hejfish":15719}}