{"id":1111,"slug":"fulda-mit-kiesgruben-in-melsungen","url":"https://www.hejfish.com/d/1111-fulda-mit-kiesgruben-in-melsungen","name":"Fulda mit Kiesgruben in Melsungen","seo_name":"Fulda mit Kiesgruben in Melsungen","description":"<p>Geodaten: 51.123781, 9.534945</p> <p>Die Fulda in unserem Streckenabschnitt stellt ein interessantes Angelgewässer für die unterschiedlichsten Zielfische dar. Mitten im schönen Fuldatal, zentral in Melsungen gelegen und dennoch sehr ruhig. Es sind schnell- sowie langsam fließende Bereiche mit Tiefen zwischen wenigen Zentimetern bis zu 2,5 Metern. Für den gesamten Abschnitt ist eine gute Erreichbarkeit mit dem Auto gegeben.</p> <p>Die Kiesgrube in Melsungen weist insbesondere einen sehr guten Friedfischbestand aus.</p> <h4>Angelsaison:</h4> <p>1. Januar bis 31. Dezember</p>","intro":"","details":"","borders":"<p><strong>1. Fulda:</strong> Obere Grenze: Straßenbrücke in Obermelsungen, untere Grenze: St. Georgsbrücke in Melsungen. <strong>2. Kiesgruben:</strong> Geodaten: 51.123781, 9.534945</p>","image":"https://file.hejfish.com/image/cc1200x900/28/89/2889f2d3249c92be56cdbf8c1122feb521161707.png","water_size_ha":null,"fish":["Hecht","Forelle","Karpfen","Äsche","Zander","Schleie","Barbe","Div. Weißfische"],"techniques":["Spinnangeln","Ansitzangeln","Posenangeln"],"properties":[],"water_type":"Fluss","rules_text":"<p>Neben diesem Erlaubnisschein ist ein gültiger Jahresfischereischein erforderlich!</p><p><br>Dem Angler/Der Anglerin wird hiermit erlaubt den Fischfang mit 2 Handangeln,<br>davon 1 Raubfischrute, auszuüben. Während der Schonzeit für Hecht und<br>Zander ist das Angeln mit Kunstködern nur erlaubt, wenn die Körperlänge 22<br>mm nicht übersteigt und der Köder nur 1 Drilling hat.</p><p><br>Gewässer: 1. Fulda<br>Obere Grenze: Straßenbrücke in Obermelsungen<br>Untere Grenze: St. Georgsbrücke in Melsungen<br>2. Kiesgruben<br>Die Kiesgruben haben folgende Geodaten: 51.123781,<br>9.534945<br>Fangbeschränkungen: 1 Hecht oder 1 Zander je Tag<br>3 Forellen, 1 Karpfen, 1 Schleie, 1 Barbe,<br>10 Weißfische je Tag.</p><p><br>Äschen und Graskarpfen sind ganzjährig geschont.<br>Mindestmaße: gesetzlich<br>Schonzeiten: gesetzlich<br>Anfüttern: Fulda: max. 2 kg Trockenfutter<br>Kiesgrube: max. 1 L. Trockenfutter<br><br>Es gelten weiterhin die Vorschriften des Hessischen Fischereigesetzes, die<br>Verordnung über die gute fachliche Praxis in der Fischerei und Schutz der<br>Fische, das Tierschutzgesetz und die Beschränkungen in Landschaftschutz-<br>gebieten in der jeweils gültigen Fassung.</p><p>Das Bootsangeln ist nur auf der Fulda erlaubt.<br></p><p><br>Jeder Angler ist verpflichtet seinen Angelplatz sauber zu verlassen.<br></p>","rules_files":[],"tickets":[{"name":"2-Tageskarte - Normalpreis","price":"14,00 EUR","ticket_type_id":354,"price_id":92863},{"name":"Wochenkarte - Normalpreis","price":"27,00 EUR","ticket_type_id":355,"price_id":92864}],"ticket_types":[{"id":354,"name":"2-Tageskarte","category":"DAY","duration":2,"prices":[{"id":92863,"name":"Normalpreis","value":"14,00 EUR","cents":1400,"type":"DEFAULT","valid_from":"2026-01-01","valid_to":"2026-12-31","available_from":"2025-12-29","age":0,"eligible":true}],"licenses":{"required":["Fischereischein / Jugendfischereischein Deutschland"],"optional":[]},"rules_text":"<p>Neben diesem Erlaubnisschein ist ein gültiger Jahresfischereischein erforderlich!</p><p><br>Dem Angler/Der Anglerin wird hiermit erlaubt den Fischfang mit 2 Handangeln,<br>davon 1 Raubfischrute, auszuüben. Während der Schonzeit für Hecht und<br>Zander ist das Angeln mit Kunstködern nur erlaubt, wenn die Körperlänge 22<br>mm nicht übersteigt und der Köder nur 1 Drilling hat.</p><p><br>Gewässer: 1. Fulda<br>Obere Grenze: Straßenbrücke in Obermelsungen<br>Untere Grenze: St. Georgsbrücke in Melsungen<br>2. Kiesgruben<br>Die Kiesgruben haben folgende Geodaten: 51.123781,<br>9.534945<br>Fangbeschränkungen: 1 Hecht oder 1 Zander je Tag<br>3 Forellen, 1 Karpfen, 1 Schleie, 1 Barbe,<br>10 Weißfische je Tag.</p><p><br>Äschen und Graskarpfen sind ganzjährig geschont.<br>Mindestmaße: gesetzlich<br>Schonzeiten: gesetzlich<br>Anfüttern: Fulda: max. 2 kg Trockenfutter<br>Kiesgrube: max. 1 L. Trockenfutter<br><br>Es gelten weiterhin die Vorschriften des Hessischen Fischereigesetzes, die<br>Verordnung über die gute fachliche Praxis in der Fischerei und Schutz der<br>Fische, das Tierschutzgesetz und die Beschränkungen in Landschaftschutz-<br>gebieten in der jeweils gültigen Fassung.</p><p>Das Bootsangeln ist nur auf der Fulda erlaubt.<br></p><p><br>Jeder Angler ist verpflichtet seinen Angelplatz sauber zu verlassen.<br></p>","rules_files":[],"additional_areas":[],"catch_report_required":false},{"id":355,"name":"Wochenkarte","category":"DAY","duration":7,"prices":[{"id":92864,"name":"Normalpreis","value":"27,00 EUR","cents":2700,"type":"DEFAULT","valid_from":"2026-01-01","valid_to":"2026-12-31","available_from":"2025-12-29","age":0,"eligible":true}],"licenses":{"required":["Fischereischein / Jugendfischereischein Deutschland"],"optional":[]},"rules_text":"<p>Neben diesem Erlaubnisschein ist ein gültiger Jahresfischereischein erforderlich!</p><p><br>Dem Angler/Der Anglerin wird hiermit erlaubt den Fischfang mit 2 Handangeln,<br>davon 1 Raubfischrute, auszuüben. Während der Schonzeit für Hecht und<br>Zander ist das Angeln mit Kunstködern nur erlaubt, wenn die Körperlänge 22<br>mm nicht übersteigt und der Köder nur 1 Drilling hat.</p><p><br>Gewässer: 1. Fulda<br>Obere Grenze: Straßenbrücke in Obermelsungen<br>Untere Grenze: St. Georgsbrücke in Melsungen<br>2. Kiesgruben<br>Die Kiesgruben haben folgende Geodaten: 51.123781,<br>9.534945<br>Fangbeschränkungen: 1 Hecht oder 1 Zander je Tag<br>3 Forellen, 1 Karpfen, 1 Schleie, 1 Barbe,<br>10 Weißfische je Tag.</p><p><br>Äschen und Graskarpfen sind ganzjährig geschont.<br>Mindestmaße: gesetzlich<br>Schonzeiten: gesetzlich<br>Anfüttern: Fulda: max. 2 kg Trockenfutter<br>Kiesgrube: max. 1 L. Trockenfutter<br><br>Es gelten weiterhin die Vorschriften des Hessischen Fischereigesetzes, die<br>Verordnung über die gute fachliche Praxis in der Fischerei und Schutz der<br>Fische, das Tierschutzgesetz und die Beschränkungen in Landschaftschutz-<br>gebieten in der jeweils gültigen Fassung.</p><p>Das Bootsangeln ist nur auf der Fulda erlaubt.<br></p><p><br>Jeder Angler ist verpflichtet seinen Angelplatz sauber zu verlassen.<br></p>","rules_files":[],"additional_areas":[],"catch_report_required":false}],"manager":{"id":26,"name":"SAV Bartenwetzer  e.V.","street":"Hauptstraße 36","postal_code":"34292 Ahnatal","city":"Ahnatal","telephone":"","email":"info@bartenwetzer-sav.de","website":"http://www.bartenwetzer-sav.de","logo":"https://file.hejfish.com/image/r200x200/01/1b/011b0796df9562ebfe070563fe3cba24ae035346.png","slug":"sav-bartenwetzer-e-v"},"season_begin":"0001-01-01","season_end":"0001-12-31","features":{"accessible":false,"public_transport":true,"boat":true,"belly_boat":true,"digital_ticket":false,"night_fishing":true,"ice_fishing":false,"depth_map":false,"has_gauges":true},"location":{"city":{"id":15051,"name":"Melsungen"},"district":{"id":214,"name":"Schwalm-Eder-Kreis"},"state":{"id":14,"name":"Hessen","slug":"hessen"},"country":{"id":2,"name":"Deutschland","code":"de","slug":"deutschland"}},"products":[{"id":222,"name":"Statistikdaten in Rohformat (Excel) – Fulda mit Kiesgruben in Melsungen","caption":"","description":"<p>Mithilfe dieser Statistikdaten wollen wir dir zu deinem Fang verhelfen. In diesem Excel-Download findest du die anonymisierten Rohdaten zum jeweiligen Gewässer aus unserer Fangdatenbank.</p>","image":"https://file.hejfish.com/image/cc800x600/bd/85/bd8572e8d4e2c38eba0a2ce880a00196ceda2fd0.jpg","category":{"id":10,"name":"Fangstatistiken (Rohdaten)"},"price":null,"guest_ticket":null,"show_in_shop":false,"show_on_area_detail_page":true,"show_in_basket":false}],"points_of_interest":[],"catch_reports":[{"photo":{"thumb":"https://file.hejfish.com/image/cc800x600/16/17/1617cf35b39317784bbfaba3eae700692c63ec82.jpg","large":"https://file.hejfish.com/image/r1400x1400/16/17/1617cf35b39317784bbfaba3eae700692c63ec82.jpg"},"catch_date":"2025-11-07","catch_time":"15:26","type":"catch","fish":"Döbel","length":27,"weight":0.22,"fisher":"Patrik Liß","comment":""},{"photo":{"thumb":"https://file.hejfish.com/image/cc800x600/e4/70/e470b65eaa15439def4fb8de490b999b792f7f8c.jpg","large":"https://file.hejfish.com/image/r1400x1400/e4/70/e470b65eaa15439def4fb8de490b999b792f7f8c.jpg"},"catch_date":"2025-04-20","catch_time":"23:59","type":"catch","fish":"Barbe","length":72,"weight":5.23,"fisher":"Patrick Worbs","comment":""},{"photo":{"thumb":"https://file.hejfish.com/image/cc800x600/49/ab/49abaeb5257f87dbeeaee90f1e36a2de1c93d4ef.jpg","large":"https://file.hejfish.com/image/r1400x1400/49/ab/49abaeb5257f87dbeeaee90f1e36a2de1c93d4ef.jpg"},"catch_date":"2024-05-09","catch_time":"18:30","type":"catch","fish":"Karpfen","length":65,"weight":6.1,"fisher":"Maik Funke","comment":""}],"news":[],"hejfish_fee":[{"min":137,"max":297,"percent":8.9,"fisher_type":"guest"}],"lat":51.118947,"lng":9.534229,"geocode_source":"hejfish_api_map","map_data":{"id":1111,"geojson":[],"locations":[{"lat":51.118947,"lng":9.534229},{"lat":51.126705,"lng":9.541181},{"lat":51.123781,"lng":9.534945}],"stations":[{"name":"Melsungen-Obermelsungen Unterer Weinberg","lat":51.117748,"lng":9.52895,"lines":null,"url":null},{"name":"Melsungen Hessenwinkel","lat":51.129171,"lng":9.531352,"lines":null,"url":null},{"name":"Melsungen Oberer Kolberg","lat":51.125952,"lng":9.5334,"lines":null,"url":null},{"name":"Melsungen-Obermelsungen Brücke","lat":51.118625,"lng":9.533687,"lines":null,"url":null},{"name":"Melsungen Schlothweg","lat":51.131442,"lng":9.533892,"lines":null,"url":null},{"name":"Melsungen Am Hopfengarten","lat":51.1329,"lng":9.534266,"lines":null,"url":null},{"name":"Melsungen Hilgershäuser Weg","lat":51.129222,"lng":9.535881,"lines":null,"url":null},{"name":"Melsungen Schlothschule","lat":51.131234,"lng":9.536233,"lines":null,"url":null},{"name":"Melsungen Obermelsunger Straße","lat":51.127131,"lng":9.537042,"lines":null,"url":null},{"name":"Melsungen Abzweig Obermelsungen","lat":51.120969,"lng":9.538085,"lines":null,"url":null},{"name":"Melsungen Fritzlarer Straße","lat":51.129129,"lng":9.538551,"lines":null,"url":null},{"name":"Melsungen Kindergarten Lutherhaus","lat":51.13463,"lng":9.540373,"lines":null,"url":null},{"name":"Melsungen Amtsgericht","lat":51.133385,"lng":9.541372,"lines":null,"url":null},{"name":"Melsungen Süd","lat":51.122686,"lng":9.541976,"lines":null,"url":null},{"name":"Melsungen Marktplatz","lat":51.130913,"lng":9.543458,"lines":null,"url":null},{"name":"Melsungen Tannenwäldchen","lat":51.119827,"lng":9.543927,"lines":null,"url":null},{"name":"Melsungen Berliner Platz","lat":51.122227,"lng":9.544013,"lines":null,"url":null},{"name":"Melsungen Stadthalle","lat":51.130361,"lng":9.544266,"lines":null,"url":null},{"name":"Melsungen Am Sand","lat":51.133083,"lng":9.544455,"lines":null,"url":null},{"name":"Melsungen Bahnhof","lat":51.125976,"lng":9.545671,"lines":null,"url":null},{"name":"Melsungen Chr-Bitter-Schule","lat":51.123078,"lng":9.546551,"lines":null,"url":null},{"name":"Melsungen Zur Schlade","lat":51.135085,"lng":9.546879,"lines":null,"url":null},{"name":"Melsungen Königsberger Straße","lat":51.116907,"lng":9.547606,"lines":null,"url":null},{"name":"Melsungen Kutschengraben","lat":51.125148,"lng":9.547861,"lines":null,"url":null},{"name":"Melsungen Bartenwetzerbrücke","lat":51.131659,"lng":9.549067,"lines":null,"url":null},{"name":"Melsungen Katholischer Kindergarten","lat":51.127621,"lng":9.549504,"lines":null,"url":null},{"name":"Melsungen Am Huberg","lat":51.13554,"lng":9.549513,"lines":null,"url":null},{"name":"Melsungen Kirschrain","lat":51.125421,"lng":9.54968,"lines":null,"url":null},{"name":"Melsungen Jenaer Straße","lat":51.117571,"lng":9.549699,"lines":null,"url":null},{"name":"Melsungen Leipziger Straße","lat":51.119537,"lng":9.550151,"lines":null,"url":null},{"name":"Melsungen Lindenberganlage","lat":51.12972,"lng":9.550558,"lines":null,"url":null},{"name":"Melsungen Kellerwaldstraße","lat":51.136138,"lng":9.550591,"lines":null,"url":null},{"name":"Melsungen Schulzentrum","lat":51.122366,"lng":9.550756,"lines":null,"url":null},{"name":"Melsungen Schwimmbad","lat":51.123443,"lng":9.551126,"lines":null,"url":null}],"gauges":[{"id":111,"name":"Grebenau","lat":51.193131,"lng":9.498194}],"depth_map":null},"extractor_schema_version":2,"last_updated":"2026-05-07T11:37:13.547Z","error":false,"source_platform":"hejfish","global_id":"hejfish-1111","external_ids":{"hejfish":1111}}