{"id":12496,"slug":"ulmbach","url":"https://www.hejfish.com/d/12496-ulmbach","name":"Ulmbach","seo_name":"Ulmbach","description":"<h3><b>Angeln am Ulmbach in Ulmbach (Steinau)</b></h3> <p style=\"text-align:justify;\">Der Ulmbach im Bundesland Hessen ist ein kleiner Wiesenbach, der in Freiensteinau-Fleschenbach entspringt und in den Kinzig-Stausee mündet. Er erstreckt sich auf einer Länge von etwa 13 Kilometern. Gefischt wird zwischen der Quelle in Freiensteinau bis zur ersten Brücke stromabwärts bei der Gemeinde Ulmbach. </p> <p style=\"text-align:justify;\">Bachforellen- und Bachsaiblingspopulationen reproduzieren sich hier selbst. Eine Besonderheit des Ulmbachs sind die Tigerforellen, aufgrund der geologischen Gegebenheiten können sie hier vorkommen. </p> <h4><b>Herausforderung für Fliegenfischer </b></h4> <p style=\"text-align:justify;\">Mit einer Breite von durchschnittlich 1,5 bis 2 Metern weitet sich der Ulmbach durch Biberanstauungen teilweise auf bis zu 5 Meter aus. Üppiger Bewuchs und geringe Abflussmengen können dabei zur Herausforderung für die Fliegenfischer werden. Dafür winken erfolgreichen Anglern am Ulmbach Bachforellen von bis zu 50 Zentimetern.</p>","intro":"","details":"","borders":"<p>Von der Quelle in Freiensteinau bis zu 1. Brücke stromab der Gemeinde Ulmbach<br></p>","image":"https://file.hejfish.com/image/cc1200x900/fb/a9/fba931a0e80f344e85de5b55d4f5eeec582fb48e.jpeg","water_size_ha":null,"fish":["Bachforelle"],"techniques":["Fliegenfischen"],"properties":[],"water_type":"Bach","rules_text":"<p>Die Bestimmungen entnehmen Sie bitte der PDF-Datei im Anhang!</p><p><u>Hinweis:</u> Am Tag der Fischereiausübung bitte dem Bewirtschafter Sven Marcus Neu (0172 2621448) eine SMS schicken, sobald der/die AnglerIn am Gewässer ist.<br></p>","rules_files":[{"id":54417,"name":"ulmbach-bestimmungen","description":null,"file":"https://api.hejfish.com/files/download/d8cfa08a0684afb9cd87d673176643c943cdf1e5/ulmbach-bestimmungen.pdf"}],"tickets":[{"name":"Tageskarte - Normalpreis inkl. Servicegebühr","price":"28,00 EUR","ticket_type_id":1968,"price_id":102720}],"ticket_types":[{"id":1968,"name":"Tageskarte","category":"DAY","duration":1,"prices":[{"id":102720,"name":"Normalpreis inkl. Servicegebühr","value":"28,00 EUR","cents":2800,"type":"DEFAULT","valid_from":"2026-04-01","valid_to":"2026-09-30","available_from":"2025-12-28","age":0,"eligible":true}],"licenses":{"required":[],"optional":["Fischereischein / Jugendfischereischein Deutschland","Bestätigung Jugend-Fischereiabgabe Hessen"]},"rules_text":"<p>Die Bestimmungen entnehmen Sie bitte der PDF-Datei im Anhang!</p><p><u>Hinweis:</u> Am Tag der Fischereiausübung bitte dem Bewirtschafter Sven Marcus Neu (0172 2621448) eine SMS schicken, sobald der/die AnglerIn am Gewässer ist.<br></p>","rules_files":[{"id":54417,"name":"ulmbach-bestimmungen","description":null,"file":"https://api.hejfish.com/files/download/d8cfa08a0684afb9cd87d673176643c943cdf1e5/ulmbach-bestimmungen.pdf"}],"additional_areas":[],"catch_report_required":false}],"manager":{"id":2098,"name":"Antonia Sophie Neu","street":"Bismarckstr. 19","postal_code":"47799","city":"Krefeld","telephone":"","email":"antoniaanjaneu26@icloud.com","website":"","logo":null,"slug":"antonia-sophie-neu"},"season_begin":"0001-04-01","season_end":"0001-09-30","features":{"accessible":false,"public_transport":true,"boat":false,"belly_boat":false,"digital_ticket":true,"night_fishing":false,"ice_fishing":false,"depth_map":false,"has_gauges":false},"location":{"city":{"id":16182,"name":"Steinau an der Straße"},"district":{"id":228,"name":"Main-Kinzig-Kreis"},"state":{"id":14,"name":"Hessen","slug":"hessen"},"country":{"id":2,"name":"Deutschland","code":"de","slug":"deutschland"}},"products":[{"id":512,"name":"Statistikdaten in Rohformat (Excel) – Ulmbach","caption":"","description":"<p>Mithilfe dieser Statistikdaten wollen wir dir zu deinem Fang verhelfen. In diesem Excel-Download findest du die anonymisierten Rohdaten zum jeweiligen Gewässer aus unserer Fangdatenbank.</p>","image":"https://file.hejfish.com/image/cc800x600/bd/85/bd8572e8d4e2c38eba0a2ce880a00196ceda2fd0.jpg","category":{"id":10,"name":"Fangstatistiken (Rohdaten)"},"price":null,"guest_ticket":null,"show_in_shop":false,"show_on_area_detail_page":true,"show_in_basket":false}],"points_of_interest":[],"catch_reports":[],"news":[],"hejfish_fee":[{"min":137,"max":297,"percent":8.9,"fisher_type":"guest"}],"lat":50.406351,"lng":9.395045,"geocode_source":"hejfish_api_map","map_data":{"id":12496,"geojson":[],"locations":[{"lat":50.406351,"lng":9.395045},{"lat":50.350082,"lng":9.433786}],"stations":[{"name":"Freiensteinau-Fleschenbach DGH","lat":50.4043,"lng":9.39536,"lines":null,"url":null},{"name":"Steinau an der Straße-Sarrod Eichenwaldstraße","lat":50.350927,"lng":9.397755,"lines":null,"url":null},{"name":"Steinau an der Straße-Sarrod Huttengrundstraße","lat":50.352882,"lng":9.399232,"lines":null,"url":null},{"name":"Steinau an der Straße-Sarrod Falkenhof","lat":50.354907,"lng":9.40249,"lines":null,"url":null},{"name":"Freiensteinau-Holzmühl","lat":50.4147,"lng":9.41872,"lines":null,"url":null},{"name":"Steinau an der Straße-Ulmbach Gasthof Happ","lat":50.370487,"lng":9.42008,"lines":null,"url":null},{"name":"Steinau an der Straße-Ulmbach Umgehungsstraße","lat":50.370064,"lng":9.421543,"lines":null,"url":null},{"name":"Steinau an der Straße-Ulmbach Hollerstraße","lat":50.362451,"lng":9.422271,"lines":null,"url":null},{"name":"Steinau an der Straße-Ulmbach Hauptstraße","lat":50.368056,"lng":9.422467,"lines":null,"url":null},{"name":"Steinau an der Straße-Neustall Fleschenbacher Str.","lat":50.400485,"lng":9.424275,"lines":null,"url":null},{"name":"Steinau a.d.Str.-Ulmbach Bilzbergschule","lat":50.369246,"lng":9.425087,"lines":null,"url":null},{"name":"Steinau an der Straße-Neustall Am Heideküppel","lat":50.395589,"lng":9.42912,"lines":null,"url":null},{"name":"Steinau an der Straße-Uerzell Kirche","lat":50.393239,"lng":9.431593,"lines":null,"url":null},{"name":"Steinau an der Straße-Uerzell Ulmbacher Straße","lat":50.392014,"lng":9.432032,"lines":null,"url":null},{"name":"Steinau an der Straße-Uerzell Wannhof","lat":50.385991,"lng":9.43335,"lines":null,"url":null},{"name":"Steinau an der Straße-Uerzell Rodackerhaus","lat":50.388724,"lng":9.440419,"lines":null,"url":null}],"gauges":[],"depth_map":null},"extractor_schema_version":2,"last_updated":"2026-05-07T11:41:17.999Z","error":false,"source_platform":"hejfish","global_id":"hejfish-12496","external_ids":{"hejfish":12496}}