{"id":"hejfish-12878","source_platform":"hejfish","source_ids":{"hejfish":12878},"name":"Fließgewässer Waldnaab/Wiesaubach (LFV)","water_type":"Bach","country":"DE","center":{"lat":49.88355,"lng":12.296479,"source":"hejfish_api_map","confidence":"high"},"geometry":{"points":[{"lat":49.88355,"lng":12.296479},{"lat":49.885479,"lng":12.286836},{"lat":49.886166,"lng":12.270241},{"lat":49.882588,"lng":12.263027},{"lat":49.894088,"lng":12.237647},{"lat":49.881539,"lng":12.249273},{"lat":49.880825,"lng":12.246027},{"lat":49.874945,"lng":12.246115}],"lines":[],"polygons":[],"source":"hejfish_api_map","confidence":"medium"},"links":{"source":"https://www.hejfish.com/d/12878-fliessgewaesser-waldnaab-wiesaubach-lfv","hejfish":"https://www.hejfish.com/d/12878-fliessgewaesser-waldnaab-wiesaubach-lfv","alleangeln":null,"website":null,"image":null},"fish":["Aal","Hecht","Karpfen","Schleie","Flussbarsch","Div. Weißfische","Bachforelle"],"metadata":{"platform":"hejfish","geocode_source":"hejfish_api_map","slug":"fliessgewaesser-waldnaab-wiesaubach-lfv","seo_name":"Fließgewässer Waldnaab/Wiesaubach (LFV)","description":"<p> Gewässer-Art: Fliessgewässer der Waldnaab und Wiesaubach </p> <p> Lage: zwischen Tirschereuth und Gumpen </p> <p> Größe: ca. 4 km Länge </p> <p> Vorkommende Fischart: Karpfen, Schleien, Hecht, Barsch, Aal, Weissfische</p>","techniques":["Ansitzangeln","Fliegenfischen","Naturköderangeln","Spinnangeln","Posenangeln","Raubfischangeln","Friedfischangeln"],"manager":{"id":1682,"name":"Fischereiverein Stiftland e.V.","street":"Postfach 1147","postal_code":"95633","city":"Tirschenreuth","telephone":"0049 170 967 29 01","email":"Vorstandschaft@fischereiverein-stiftland.de","website":"https://www.fischereiverein-stiftland.de/","logo":"https://file.hejfish.com/image/r200x200/a0/08/a0082c048fdb08349e996012f94663e6ecc1c297.png","slug":"fischereiverein-stiftland-e-v"},"season_begin":"0001-01-01","season_end":"0001-12-31","features":{"accessible":false,"public_transport":false,"boat":false,"belly_boat":false,"digital_ticket":true,"night_fishing":false,"ice_fishing":false,"depth_map":false,"has_gauges":false},"location":{"city":{"id":34814,"name":"Tirschenreuth"},"district":{"id":457,"name":"Kreis Tirschenreuth"},"state":{"id":10,"name":"Bayern","slug":"bayern"},"country":{"id":2,"name":"Deutschland","code":"de","slug":"deutschland"}},"source_last_updated":"2026-05-07T11:41:43.219Z","error":false},"last_updated":"2026-05-07T11:41:43.219Z"}