{"id":12899,"slug":"kleine-vils","url":"https://www.hejfish.com/d/12899-kleine-vils","name":"Kleine Vils","seo_name":"Kleine Vils","description":"","intro":"","details":"","borders":"<h2>Von Brücke Lichtenhaag bis ehem. Mühle Vilssattling.</h2>\n\n<h2><br>Nur für Vereinsmitglieder des KFV Vilsbiburg e.V.</h2>","image":"https://file.hejfish.com/image/cc1200x900/61/16/61168ee9be6cb7fe63637dafef504cd9c9ece19a.jpeg","water_size_ha":null,"fish":["Bachforelle","Döbel","Hecht","Zander"],"techniques":["Fliegenfischen","Spinnangeln"],"properties":[],"water_type":"Fluss","rules_text":"","rules_files":[],"tickets":[],"ticket_types":[],"manager":{"id":1630,"name":"Kreisfischereiverein Vilsbiburg ","street":"Rachelstraße 8","postal_code":"84137 ","city":"Vilsbiburg","telephone":"+49 176/34340247","email":"kontakt@kfv-vilsbiburg.de","website":"https://kfv-vilsbiburg.de/","logo":"https://file.hejfish.com/image/r200x200/a1/49/a14912b0e120485a44fdb82225b0768981ff9502.jpeg","slug":"kreisfischereiverein-vilsbiburg"},"season_begin":"0001-01-01","season_end":"0001-12-31","features":{"accessible":false,"public_transport":true,"boat":false,"belly_boat":false,"digital_ticket":true,"night_fishing":true,"ice_fishing":false,"depth_map":false,"has_gauges":true},"location":{"city":{"id":32098,"name":"Gerzen"},"district":{"id":407,"name":"Kreis Landshut"},"state":{"id":10,"name":"Bayern","slug":"bayern"},"country":{"id":2,"name":"Deutschland","code":"de","slug":"deutschland"}},"products":[{"id":762,"name":"Statistikdaten in Rohformat (Excel) – Kleine Vils","caption":"","description":"<p>Mithilfe dieser Statistikdaten wollen wir dir zu deinem Fang verhelfen. In diesem Excel-Download findest du die anonymisierten Rohdaten zum jeweiligen Gewässer aus unserer Fangdatenbank.</p>","image":"https://file.hejfish.com/image/cc800x600/bd/85/bd8572e8d4e2c38eba0a2ce880a00196ceda2fd0.jpg","category":{"id":10,"name":"Fangstatistiken (Rohdaten)"},"price":null,"guest_ticket":null,"show_in_shop":false,"show_on_area_detail_page":true,"show_in_basket":false}],"points_of_interest":[],"catch_reports":[],"news":[],"hejfish_fee":[{"min":137,"max":297,"percent":8.9,"fisher_type":"guest"}],"lat":48.496747,"lng":12.374965,"geocode_source":"hejfish_api_map","map_data":{"id":12899,"geojson":[],"locations":[{"lat":48.496747,"lng":12.374965},{"lat":48.496457,"lng":12.386892}],"stations":[{"name":"Lichtenhaag","lat":48.492709,"lng":12.373844,"lines":null,"url":null},{"name":"Lichtenhaag, Abzw.","lat":48.498067,"lng":12.374706,"lines":null,"url":null},{"name":"Vilssattling, Abzw.","lat":48.498751,"lng":12.390409,"lines":null,"url":null}],"gauges":[{"id":1625,"name":"Dietelskirchen","lat":48.4958127,"lng":12.3440698},{"id":1619,"name":"Neumühle","lat":48.5727453,"lng":12.6130809},{"id":1618,"name":"Marklkofen Seepegel","lat":48.5695992,"lng":12.5905657},{"id":1617,"name":"Aham","lat":48.5274193,"lng":12.4723312},{"id":1623,"name":"Vilsbiburg","lat":48.4532142,"lng":12.3656716}],"depth_map":null},"extractor_schema_version":2,"last_updated":"2026-05-07T11:41:44.892Z","error":false,"source_platform":"hejfish","global_id":"hejfish-12899","external_ids":{"hejfish":12899}}