{"id":"hejfish-14081","source_platform":"hejfish","source_ids":{"hejfish":14081},"name":"Demer Bach bei Demen","water_type":"Bach","country":"DE","center":{"lat":53.625166,"lng":11.753393,"source":"hejfish_api_map_geojson","confidence":"high"},"geometry":{"points":[{"lat":53.625709,"lng":11.752094},{"lat":53.625643,"lng":11.751263},{"lat":53.6254,"lng":11.7543}],"lines":[[{"lat":53.624559,"lng":11.761369},{"lat":53.624493,"lng":11.760285},{"lat":53.624423,"lng":11.759178},{"lat":53.624423,"lng":11.758993},{"lat":53.624543,"lng":11.757873},{"lat":53.624657,"lng":11.756783},{"lat":53.624676,"lng":11.756655},{"lat":53.625002,"lng":11.75529},{"lat":53.625685,"lng":11.752376},{"lat":53.625908,"lng":11.751394},{"lat":53.625903,"lng":11.751353},{"lat":53.625727,"lng":11.750016},{"lat":53.625381,"lng":11.747451},{"lat":53.625321,"lng":11.747015},{"lat":53.625321,"lng":11.746938},{"lat":53.625384,"lng":11.746448},{"lat":53.625456,"lng":11.745942},{"lat":53.625528,"lng":11.745774},{"lat":53.625677,"lng":11.745459},{"lat":53.625696,"lng":11.745418}]],"polygons":[],"source":"hejfish_api_map_geojson","confidence":"high"},"links":{"source":"https://www.hejfish.com/d/14081-demer-bach-bei-demen","hejfish":"https://www.hejfish.com/d/14081-demer-bach-bei-demen","alleangeln":null,"website":null,"image":null},"fish":["Flussbarsch","Rotauge"],"metadata":{"platform":"hejfish","geocode_source":"hejfish_api_map_geojson","slug":"demer-bach-bei-demen","seo_name":"Demer Bach bei Demen","techniques":["Spinnangeln","Fliegenfischen","Ansitzangeln","Feedern","Stippangeln","Posenangeln","Oberflächenangeln","Raubfischangeln","Friedfischangeln","Karpfenangeln"],"rules_files":[{"id":293062,"name":"satellitenbild","description":null,"file":"https://api.hejfish.com/files/download/771f7577fca6f86d938bb1574096fdf1c05c5c9b/satellitenbild.pdf"},{"id":884564,"name":"Gewaesserordnung 01.01.2023","description":null,"file":"https://api.hejfish.com/files/download/d4cbab17110d09a2062535e73af3194f406fe45b/Gewaesserordnung%2001.01.2023.pdf"}],"tickets":[{"name":"Tageskarte - Erwachsene","price":"16,00 EUR","ticket_type_id":6354,"price_id":100468},{"name":"Tageskarte - Jugend","price":"4,00 EUR","ticket_type_id":6354,"price_id":100469},{"name":"2-Tageskarte - Erwachsene","price":"32,00 EUR","ticket_type_id":6355,"price_id":100470},{"name":"2-Tageskarte - Jugend","price":"8,00 EUR","ticket_type_id":6355,"price_id":100471},{"name":"Wochenkarte - Erwachsene","price":"92,00 EUR","ticket_type_id":6356,"price_id":100472},{"name":"Wochenkarte - Jugend","price":"20,00 EUR","ticket_type_id":6356,"price_id":100473},{"name":"Monatskarte - Erwachsene","price":"172,00 EUR","ticket_type_id":6357,"price_id":100474}],"manager":{"id":1834,"name":"Landesanglerverband Mecklenburg-Vorpommern e.V.","street":"OT Görslow, Siedlung 18a","postal_code":"19067","city":"Leezen","telephone":"","email":"","website":"https://www.lav-mv.de/","logo":"https://file.hejfish.com/image/r200x200/37/cb/37cb2792d40e6c06eadde2bd767e4c1c68624403.png","slug":"landesanglerverband-mecklenburg-vorpommern-e-v"},"season_begin":"0001-01-01","season_end":"0001-12-31","features":{"accessible":false,"public_transport":false,"boat":true,"belly_boat":true,"digital_ticket":true,"night_fishing":true,"ice_fishing":false,"depth_map":false,"has_gauges":false},"location":{"city":{"id":8961,"name":"Demen"},"district":{"id":150,"name":"Kreis Ludwigslust-Parchim"},"state":{"id":20,"name":"Mecklenburg-Vorpommern","slug":"mecklenburg-vorpommern"},"country":{"id":2,"name":"Deutschland","code":"de","slug":"deutschland"}},"source_last_updated":"2026-05-07T11:43:52.564Z","error":false},"last_updated":"2026-05-07T11:43:52.564Z"}