{"id":15384,"slug":"sportplatzteiche","url":"https://www.hejfish.com/d/15384-sportplatzteiche","name":"Sportplatzteiche","seo_name":"Sportplatzteiche","description":"<p><b>Die Sportplatz Teiche</b> sind ein Angelgewässer des <b>Fischereiverein Gemen-Burlo- Gelsenkirchen e.V. </b>und befinden sich in der Nähe von Gemen.<br></p>","intro":"","details":"","borders":"","image":null,"water_size_ha":null,"fish":["Flussbarsch","Hecht","Div. Weißfische","Karpfen","Schleie","Aal"],"techniques":["Ansitzangeln","Feedern","Karpfenangeln","Posenangeln"],"properties":[],"water_type":"Teich (Weiher)","rules_text":"<h3><b><u>Die gesetzlichen und vereinsinternen Bestimmungen sind zwingend einzuhalten.</u></b><br></h3>","rules_files":[{"id":1117092,"name":"bocholter-aa-bestimmungen","description":null,"file":"https://api.hejfish.com/files/download/1c5ab3614c1ac0ad26dde1404bd9661e4b10c878/bocholter-aa-bestimmungen.pdf"}],"tickets":[{"name":"Kombi-Tageskarte - Normalpreis inkl. Servicegebühr","price":"23,00 EUR","ticket_type_id":8410,"price_id":102732}],"ticket_types":[{"id":8410,"name":"Kombi-Tageskarte","category":"HOUR","duration":24,"prices":[{"id":102732,"name":"Normalpreis inkl. Servicegebühr","value":"23,00 EUR","cents":2300,"type":"DEFAULT","valid_from":"2026-01-01","valid_to":"2026-12-31","available_from":"2026-01-01","age":0,"eligible":true}],"licenses":{"required":["Fischereischein / Jugendfischereischein Deutschland"],"optional":[]},"rules_text":"<h3><b><u>Die gesetzlichen und vereinsinternen Bestimmungen sind zwingend einzuhalten.</u></b><br></h3>","rules_files":[{"id":1117092,"name":"bocholter-aa-bestimmungen","description":null,"file":"https://api.hejfish.com/files/download/1c5ab3614c1ac0ad26dde1404bd9661e4b10c878/bocholter-aa-bestimmungen.pdf"}],"additional_areas":[{"id":15380,"name":"Lövelt’sche Teiche","slug":"loevelt-sche-teiche"},{"id":15381,"name":"Hütten Teich an der Möggenborg","slug":"huetten-teich-an-der-moeggenborg"},{"id":15383,"name":"Schloßgräfte Gemen","slug":"schlossgraefte-gemen"},{"id":15384,"name":"Sportplatzteiche","slug":"sportplatzteiche"},{"id":15385,"name":"Teich unter den Eichen","slug":"teich-unter-den-eichen"},{"id":15386,"name":"Klostersee Burlo","slug":"klostersee-burlo"}],"catch_report_required":true}],"manager":{"id":2102,"name":"Fischereiverein Gemen-Burlo-Gelsenkirchen e.V.","street":"Hüpohl 11 ","postal_code":"46342","city":"Velen","telephone":"","email":"info@fischereiverein-gemen.de","website":"https://fischereiverein-gemen.de/","logo":"https://file.hejfish.com/image/r200x200/7e/10/7e108f1380c05988a47fbece6038223be0e6e6b1.jpg","slug":"fischereiverein-gemen-burlo-gelsenkirchen-e-v"},"season_begin":"0001-01-01","season_end":"0001-12-31","features":{"accessible":false,"public_transport":false,"boat":false,"belly_boat":false,"digital_ticket":true,"night_fishing":true,"ice_fishing":false,"depth_map":false,"has_gauges":false},"location":{"city":{"id":19249,"name":"Borken"},"district":{"id":265,"name":"Kreis Borken"},"state":{"id":21,"name":"Nordrhein-Westfalen","slug":"nordrhein-westfalen"},"country":{"id":2,"name":"Deutschland","code":"de","slug":"deutschland"}},"products":[],"points_of_interest":[],"catch_reports":[],"news":[],"hejfish_fee":[{"min":137,"max":297,"percent":8.9,"fisher_type":"guest"}],"lat":51.864394623502,"lng":6.8712363466383,"geocode_source":"hejfish_api_map","map_data":{"id":15384,"geojson":[],"locations":[{"lat":51.864394623502,"lng":6.8712363466383}],"stations":[{"name":"Gemen, Evers","lat":51.861064,"lng":6.86294,"lines":null,"url":null},{"name":"Gemen, Bodelschwinghhaus","lat":51.857924,"lng":6.86559,"lines":null,"url":null},{"name":"Gemen, Ev.Johanneskirche","lat":51.860182,"lng":6.865716,"lines":null,"url":null},{"name":"Gemen, Cordulaschule","lat":51.860033,"lng":6.866794,"lines":null,"url":null},{"name":"Gemenkrückling, Kamperschroer","lat":51.868481,"lng":6.868707,"lines":null,"url":null},{"name":"Gemen, RotKreuz-Zentrum","lat":51.860482,"lng":6.875256,"lines":null,"url":null},{"name":"Borken, Otto-Hahn-Straße","lat":51.85748,"lng":6.877484,"lines":null,"url":null}],"gauges":[],"depth_map":null},"extractor_schema_version":2,"last_updated":"2026-05-07T11:45:38.492Z","error":false,"source_platform":"hejfish","global_id":"hejfish-15384","external_ids":{"hejfish":15384}}