{"id":"hejfish-16081","source_platform":"hejfish","source_ids":{"hejfish":16081},"name":"Windebyer Noor","water_type":"See","country":"DE","center":{"lat":54.478255,"lng":9.814467,"source":"hejfish_api_map_geojson","confidence":"high"},"geometry":{"points":[{"lat":54.477372,"lng":9.808284}],"lines":[[{"lat":54.473512,"lng":9.823654},{"lat":54.473952,"lng":9.823261},{"lat":54.474898,"lng":9.822924},{"lat":54.47687,"lng":9.821017},{"lat":54.477767,"lng":9.819839},{"lat":54.478419,"lng":9.818436},{"lat":54.479511,"lng":9.815939},{"lat":54.480016,"lng":9.815154},{"lat":54.480863,"lng":9.814284},{"lat":54.481368,"lng":9.81277},{"lat":54.481596,"lng":9.811199},{"lat":54.482998,"lng":9.805279}]],"polygons":[],"source":"hejfish_api_map_geojson","confidence":"high"},"links":{"source":"https://www.hejfish.com/d/16081-windebyer-noor","hejfish":"https://www.hejfish.com/d/16081-windebyer-noor","alleangeln":null,"image":"https://file.hejfish.com/image/cc1200x900/57/e1/57e1f1e5d094a71a7e5e3d9d63fc3839a5286b8f.jpg"},"fish":["Aal","Atlantischer Lachs","Brasse","Div. Weißfische","Flussbarsch","Flunder","Kliesche","Karpfen","Hecht","Hering","Meerforelle","Ostseeschnäpel","Zander","Scholle","Schleie"],"metadata":{"platform":"hejfish","geocode_source":"hejfish_api_map_geojson","slug":"windebyer-noor","seo_name":"Windebyer Noor","description":"<p>Das <b>Windebyer Noor</b> ist ein ca. 400 ha großer Binnensee in Schleswig-Holstein. Er liegt am Westrand der Stadt Eckernförde, zu deren Gemeindegebiet er gehört. Im Süden und Westen grenzt die namensgebende Gemeinde Windeby an das Ufer des Sees. </p> <p>Die mit 13,6 Metern tiefste Stelle des Windebyer Noores liegt im Norden des Sees beim Eckernförder Stadtteil Carlshöhe; in der Mitte ist der See um elf Meter tief. Das Wasser des Windebyer Noors ist leicht salzhaltig (brackig). Das Windebyer Noor entwässert das Umland über Auen und Gräben. Über die Norderhake, die Nooröffnung und einen Noorkanal mit einem Stemmtor am Eckernförder Steindamm entwässert das Noor in den Eckernförder Binnenhafen und damit in die Ostsee. Salzwasser gelangt über einen gegenläufigen Neerstrom in das Windebyer Noor. Der Noorkanal ermöglicht auch das Auf- und Absteigen von Wanderfischen. </p>","intro":"<p><b>Ab dem 1 Mai ist die Anmietung eines Angelbootes über die Noorfischerei möglich.</b></p>","details":"<p>Die Nutzung von Live-Sonar-Technologie  untersagt. Der Einsatz von Live-Sonar umfasst die Verwendung von Geräten oder Software, die Echtzeitdaten zur Unterwasserüberwachung oder -erfassung bereitstellen, um Fischbestände, Meereslebewesen oder andere maritime Objekte zu lokalisieren oder zu verfolgen.</p><p>Schleppangeln ist untersagt!</p>","borders":"<p>Bezeichnung der Gewässer  auf das sich der Fischereierlaubnisschein bezieht:\n</p>\n\n<p>•\tWindebyer Noor, <b><u>ausgenommen sind,</u></b> der unmittelbare Bereich um das Betriebsgelände der Noorfischerei, die Norderhake und die Nooröffnung, die Süderhake sowie die  Kochendorfer Bucht\n</p>\n\n<p>•\tDas <b>Angeln vom Ufer aus</b> ist nur entlang des grün markierten Bereiches der in der Anlage dargestellten Karte gestattet. Es darf nur an unbewachsenen Uferabschnitten geangelt werden. Die vegetationsfreien Stellen dürfen nicht vergrößert werden. Das Betreten des Gewässers vom Ufer aus, z.B. mit der Wathose ist nicht zulässig.</p>\n\n<p>Schleppangeln ist untersagt!</p>\n\n","techniques":["Fliegenfischen","Grundbleiangeln","Posenangeln","Spinnangeln"],"rules_text":"<h4>Nachweis Fischereiabgabemarke Schleswig-Holstein erforderlich! Die Fischereiabgabe muss auch dann gezahlt werden, wenn Sie bereits einen Fischereischein anderer Bundesländer besitzen.</h4><h4>Online kaufbar für 1 - 5 Jahre unter: <a href=\"https://serviceportal.gemeinsamonline.de/Onlinedienste/Service/Entry?id=FISCHABZAH\">https://serviceportal.gemeinsamonline.de/Onlinedienste/Service/Entry?id=FISCHABZAH</a></h4><h4>Schleppangeln ist untersagt.</h4><h4>Die Nutzung von Live-Sonar-Technologie ist untersagt. Der Einsatz von Live-Sonar umfasst die Verwendung von Geräten oder Software, die Echtzeitdaten zur Unterwasserüberwachung oder -erfassung bereitstellen, um Fischbestände, Meereslebewesen oder andere maritime Objekte zu lokalisieren oder zu verfolgen.</h4><p>\r\n</p><p>\r\n</p><p>\r\n</p>","rules_files":[{"id":1463408,"name":"windebyer-noor-bestimmungen","description":null,"file":"https://api.hejfish.com/files/download/b461471fec43972a050d791400fe8f99642cef15/windebyer-noor-bestimmungen.pdf"}],"tickets":[{"name":"Tageskarte - Normalpreis inkl. Servicegebühr","price":"15,00 EUR","ticket_type_id":10551,"price_id":104904},{"name":"Jahreskarte - Normalpreis inkl. Servicegebühr","price":"198,00 EUR","ticket_type_id":10552,"price_id":104903}],"manager":{"id":2304,"name":"Noorfischerei Eckernförde","street":"Flensburger Str. 14","postal_code":"24340 ","city":"Eckernförde","telephone":"","email":"m.woester@googlemail.com","website":"https://www.eckernfoerder-fischerei.de/","logo":"https://file.hejfish.com/image/r200x200/56/ff/56ffe5f8cedcb34f20fe7892232038bf0ecef815.png","slug":"noorfischerei-eckernfoerde"},"season_begin":"0001-04-01","season_end":"0001-11-30","features":{"accessible":false,"public_transport":false,"boat":false,"belly_boat":false,"digital_ticket":false,"night_fishing":false,"ice_fishing":false,"depth_map":false,"has_gauges":false},"location":{"city":{"id":11297,"name":"Haby"},"district":{"id":167,"name":"Kreis Rendsburg-Eckernförde"},"state":{"id":25,"name":"Schleswig-Holstein","slug":"schleswig-holstein"},"country":{"id":2,"name":"Deutschland","code":"de","slug":"deutschland"}},"source_last_updated":"2026-05-07T11:46:35.863Z","error":false},"last_updated":"2026-05-07T11:46:35.863Z"}