{"id":12293,"slug":"grosse-hase","url":"https://www.hejfish.com/d/12293-grosse-hase","name":"Große Hase","seo_name":"Große Hase","description":"","intro":"","details":"","borders":"<p>Von der Nabers Brücke bis zum Brockhagen Stau.</p>","image":"https://file.hejfish.com/image/cc1200x900/06/31/0631b7542debae7f6b235f98e2560f80f4d50b04.jpeg","water_size_ha":null,"fish":["Aal","Aland","Brasse","Flussbarsch","Karpfen","Kaulbarsch","Döbel","Rotauge","Rotfeder","Zander","Wels"],"techniques":["Ansitzangeln","Fliegenfischen","Naturköderangeln","Spinnangeln"],"properties":[],"water_type":"Fluss","rules_text":"<p><b><u>Gewässergrenzen der einzelnen Gewässer für die Kombi-Karten:</u></b></p><p>Für die <b>Baggerkuhle</b>, den <b>Deichsee</b> und den <b>Rennplatzteich</b> gilt als Gewässergrenze das Ufer. </p><p>Für die <b>Große Hase </b>gilt: Von der Nabers Brücke bis zum Brockhagen Stau. </p><p>Für die <b>Kleine Hase </b>gilt: Vom Schützenhof, Schleuse am Bootshaus bis zur Wellinghorst Schleuse. </p><p>Für die <b>Wrau</b> gilt: Die Wrau ist beangelbar von der Dinklagerstraße bis zur Einmündung in die Hase.</p><p><br></p><p><b>Die Bestimmungen entnehmen Sie bitte der PDF-Datei im Anhang!</b></p>","rules_files":[{"id":1518355,"name":"kombi-tageskarte-fuer-die-gewaesser-des-sfv-quakenbrueck-bestimmungen","description":null,"file":"https://api.hejfish.com/files/download/71a44db897b9bb19b0b262425b80694fc461e46a/kombi-tageskarte-fuer-die-gewaesser-des-sfv-quakenbrueck-bestimmungen.pdf"},{"id":1518356,"name":"kombi-wochenkarte-fuer-die-gewaesser-des-sfv-quakenbrueck-bestimmungen","description":null,"file":"https://api.hejfish.com/files/download/194c979c50b97d59d2d4c83a45c5bc05bddc3dc4/kombi-wochenkarte-fuer-die-gewaesser-des-sfv-quakenbrueck-bestimmungen.pdf"}],"tickets":[{"name":"Kombi-Tageskarte für die Gewässer des SFV Quakenbrück - Normalpreis inkl. Servicegebühr","price":"13,00 EUR","ticket_type_id":1592,"price_id":93553},{"name":"Kombi-Wochenkarte für die Gewässer des SFV Quakenbrück - Normalpreis inkl. Servicegebühr","price":"23,00 EUR","ticket_type_id":1593,"price_id":93554}],"ticket_types":[{"id":1592,"name":"Kombi-Tageskarte für die Gewässer des SFV Quakenbrück","category":"DAY","duration":1,"prices":[{"id":93553,"name":"Normalpreis inkl. Servicegebühr","value":"13,00 EUR","cents":1300,"type":"DEFAULT","valid_from":"2026-01-01","valid_to":"2026-12-31","available_from":"2025-12-28","age":0,"eligible":true}],"licenses":{"required":["Fischereischein / Jugendfischereischein Deutschland"],"optional":[]},"rules_text":"<p><b><u>Gewässergrenzen der einzelnen Gewässer für die Kombi-Karten:</u></b></p><p>Für die <b>Baggerkuhle</b>, den <b>Deichsee</b> und den <b>Rennplatzteich</b> gilt als Gewässergrenze das Ufer. </p><p>Für die <b>Große Hase </b>gilt: Von der Nabers Brücke bis zum Brockhagen Stau. </p><p>Für die <b>Kleine Hase </b>gilt: Vom Schützenhof, Schleuse am Bootshaus bis zur Wellinghorst Schleuse. </p><p>Für die <b>Wrau</b> gilt: Die Wrau ist beangelbar von der Dinklagerstraße bis zur Einmündung in die Hase.</p><p><br></p><p><b>Die Bestimmungen entnehmen Sie bitte der PDF-Datei im Anhang!</b></p>","rules_files":[{"id":1518355,"name":"kombi-tageskarte-fuer-die-gewaesser-des-sfv-quakenbrueck-bestimmungen","description":null,"file":"https://api.hejfish.com/files/download/71a44db897b9bb19b0b262425b80694fc461e46a/kombi-tageskarte-fuer-die-gewaesser-des-sfv-quakenbrueck-bestimmungen.pdf"}],"additional_areas":[{"id":12294,"name":"Kleine Hase","slug":"kleine-hase"},{"id":12295,"name":"Wrau","slug":"wrau"},{"id":12296,"name":"Rennplatzteich","slug":"rennplatzteich"},{"id":12298,"name":"Deichsee","slug":"deichsee"},{"id":12299,"name":"Baggerkuhle","slug":"baggerkuhle"}],"catch_report_required":false},{"id":1593,"name":"Kombi-Wochenkarte für die Gewässer des SFV Quakenbrück","category":"DAY","duration":7,"prices":[{"id":93554,"name":"Normalpreis inkl. Servicegebühr","value":"23,00 EUR","cents":2300,"type":"DEFAULT","valid_from":"2026-01-01","valid_to":"2026-12-31","available_from":"2025-12-28","age":0,"eligible":true}],"licenses":{"required":["Fischereischein / Jugendfischereischein Deutschland"],"optional":[]},"rules_text":"<p><span style=\"font-weight: 700;\"><u>Gewässergrenzen der einzelnen Gewässer für die Kombi-Karten:</u></span></p><p>Für die <span style=\"font-weight: 700;\">Baggerkuhle</span>, den <b>Deichsee</b> und den <span style=\"font-weight: 700;\">Rennplatzteich</span> gilt als Gewässergrenze das Ufer. </p><p>Für die <span style=\"font-weight: 700;\">Große Hase </span>gilt: Von der Nabers Brücke bis zum Brockhagen Stau. </p><p>Für die <span style=\"font-weight: 700;\">Kleine Hase </span>gilt: Vom Schützenhof, Schleuse am Bootshaus bis zur Wellinghorst Schleuse. </p><p>Für die <span style=\"font-weight: 700;\">Wrau</span> gilt: Die Wrau ist beangelbar von der Dinklagerstraße bis zur Einmündung in die Hase.</p><p><br></p><p><span style=\"font-weight: 700;\">Die Bestimmungen entnehmen Sie bitte der PDF-Datei im Anhang!</span></p>","rules_files":[{"id":1518356,"name":"kombi-wochenkarte-fuer-die-gewaesser-des-sfv-quakenbrueck-bestimmungen","description":null,"file":"https://api.hejfish.com/files/download/194c979c50b97d59d2d4c83a45c5bc05bddc3dc4/kombi-wochenkarte-fuer-die-gewaesser-des-sfv-quakenbrueck-bestimmungen.pdf"}],"additional_areas":[{"id":12294,"name":"Kleine Hase","slug":"kleine-hase"},{"id":12295,"name":"Wrau","slug":"wrau"},{"id":12296,"name":"Rennplatzteich","slug":"rennplatzteich"},{"id":12298,"name":"Deichsee","slug":"deichsee"},{"id":12299,"name":"Baggerkuhle","slug":"baggerkuhle"}],"catch_report_required":false}],"manager":{"id":1554,"name":"Sportfischereiverein Quakenbrück e.V.","street":"Postfach 1502","postal_code":"49605 ","city":"Quakenbrück","telephone":"","email":"info@sfv-quakenbrueck.de","website":"https://www.sfv-quakenbrueck.de/","logo":"https://file.hejfish.com/image/r200x200/8e/85/8e85ddfd299c5603528504bb680c18e6347a82e1.png","slug":"sportfischereiverein-quakenbrueck-e-v"},"season_begin":"0001-01-01","season_end":"0001-12-31","features":{"accessible":false,"public_transport":false,"boat":true,"belly_boat":true,"digital_ticket":false,"night_fishing":true,"ice_fishing":false,"depth_map":false,"has_gauges":false},"location":{"city":{"id":20381,"name":"Quakenbrück"},"district":{"id":276,"name":"Kreis Osnabrück"},"state":{"id":22,"name":"Niedersachsen","slug":"niedersachsen"},"country":{"id":2,"name":"Deutschland","code":"de","slug":"deutschland"}},"products":[{"id":432,"name":"Statistikdaten in Rohformat (Excel) – Große Hase","caption":"","description":"<p>Mithilfe dieser Statistikdaten wollen wir dir zu deinem Fang verhelfen. In diesem Excel-Download findest du die anonymisierten Rohdaten zum jeweiligen Gewässer aus unserer Fangdatenbank.</p>","image":"https://file.hejfish.com/image/cc800x600/bd/85/bd8572e8d4e2c38eba0a2ce880a00196ceda2fd0.jpg","category":{"id":10,"name":"Fangstatistiken (Rohdaten)"},"price":null,"guest_ticket":null,"show_in_shop":false,"show_on_area_detail_page":true,"show_in_basket":false}],"points_of_interest":[],"catch_reports":[{"photo":{"thumb":"https://file.hejfish.com/image/cc800x600/9a/77/9a77bd86a78fe2da5bec8a436808824dc8323b9e.png","large":"https://file.hejfish.com/image/r1400x1400/9a/77/9a77bd86a78fe2da5bec8a436808824dc8323b9e.png"},"catch_date":"2025-10-16","catch_time":"13:00","type":"catch","fish":"Hecht","length":45,"weight":0.76,"fisher":"Tobias Ovelgönne","comment":""},{"photo":{"thumb":"https://file.hejfish.com/image/cc800x600/99/b7/99b7fb044feeb84821972e2ebce5c43afcaa13aa.png","large":"https://file.hejfish.com/image/r1400x1400/99/b7/99b7fb044feeb84821972e2ebce5c43afcaa13aa.png"},"catch_date":"2025-10-20","catch_time":"23:59","type":"catch","fish":"Flussbarsch","length":30,"weight":0.34,"fisher":"Tobias Ovelgönne","comment":""}],"news":[{"id":7020,"text":"<p><b>Vom 01.01. bis 31.05. jeden Jahres ist das Fischen mit Kunstködern (Blinker, Wobbler, Twister, Fliege, Streamer, etc.) und Köderfischen bzw. Fischfetzen untersagt.&nbsp;</b></p>","valid_from":null,"valid_till":null}],"hejfish_fee":[{"min":137,"max":297,"percent":8.9,"fisher_type":"guest"}],"lat":52.649685,"lng":8.002173,"geocode_source":"hejfish_api_map","map_data":{"id":12293,"geojson":[],"locations":[{"lat":52.649685,"lng":8.002173},{"lat":52.697178,"lng":7.969713}],"stations":[{"name":"Badbergen Zur Schmiede","lat":52.642047,"lng":7.981718,"lines":null,"url":null},{"name":"Badbergen Brunswinkel","lat":52.650346,"lng":7.978392,"lines":null,"url":null},{"name":"Lechterke Sünnhagen","lat":52.655873,"lng":7.976142,"lines":null,"url":null},{"name":"Lechterke Spiegel","lat":52.660884,"lng":7.972477,"lines":null,"url":null},{"name":"Wohld(Badbergen) Siedlung","lat":52.66313,"lng":8.003958,"lines":null,"url":null},{"name":"Wohld(Badbergen) Jürgens","lat":52.66426,"lng":7.995122,"lines":null,"url":null},{"name":"Wohld(Badbergen) Schlarmann","lat":52.669116,"lng":8.006609,"lines":null,"url":null},{"name":"Quakenbrück Ärztezentrum Wohldstraße","lat":52.674694,"lng":7.987772,"lines":null,"url":null},{"name":"Wohld(Quakenbrück) Trentlage","lat":52.674748,"lng":8.00725,"lines":null,"url":null},{"name":"Wohld(Quakenbrück) Kramersweg","lat":52.676035,"lng":7.995738,"lines":null,"url":null},{"name":"Quakenbrück Abzw.Schützenhof","lat":52.676495,"lng":7.973796,"lines":null,"url":null},{"name":"Quakenbrück Feriendorf","lat":52.676582,"lng":7.98076,"lines":null,"url":null},{"name":"Quakenbrück Schulzentrum","lat":52.677787,"lng":7.96428,"lines":null,"url":null},{"name":"Quakenbrück Schubertstraße","lat":52.679195,"lng":7.969001,"lines":null,"url":null},{"name":"Quakenbrück Bremer Straße","lat":52.681271,"lng":7.961654,"lines":null,"url":null},{"name":"Quakenbrück Ligusterstraße","lat":52.682644,"lng":7.967566,"lines":null,"url":null},{"name":"Quakenbrück Groß Hartlage","lat":52.6851,"lng":7.967848,"lines":null,"url":null},{"name":"Quakenbrück Geschw.-Scholl-Straße","lat":52.686032,"lng":7.969645,"lines":null,"url":null},{"name":"Uptloh Gravenhorst","lat":52.694023,"lng":7.993853,"lines":null,"url":null},{"name":"Uptloh Wulfenauer Straße","lat":52.703546,"lng":8.006064,"lines":null,"url":null}],"gauges":[],"depth_map":null},"extractor_schema_version":2,"last_updated":"2026-05-07T11:37:27.763Z","error":false,"source_platform":"hejfish","global_id":"hejfish-12293","external_ids":{"hejfish":12293}}