{"id":"hejfish-13176","source_platform":"hejfish","source_ids":{"hejfish":13176},"name":"Heuberg 3","water_type":"Teich (Weiher)","country":"DE","center":{"lat":49.205993,"lng":11.204392,"source":"hejfish_api_map_geojson","confidence":"high"},"geometry":{"points":[{"lat":49.206076,"lng":11.204397}],"lines":[],"polygons":[[{"lat":49.206436,"lng":11.20349},{"lat":49.205738,"lng":11.203622},{"lat":49.205551,"lng":11.204445},{"lat":49.205552,"lng":11.205156},{"lat":49.205759,"lng":11.205293},{"lat":49.206278,"lng":11.20525},{"lat":49.206299,"lng":11.204456},{"lat":49.20639,"lng":11.204086},{"lat":49.206381,"lng":11.203689}]],"source":"hejfish_api_map_geojson","confidence":"high"},"links":{"source":"https://www.hejfish.com/d/13176-heuberg-3","hejfish":"https://www.hejfish.com/d/13176-heuberg-3","alleangeln":null,"website":null,"image":"https://file.hejfish.com/image/cc1200x900/50/2d/502d8da68d6ba9373b00a6e2e2ef77cb08b43fe8.jpeg"},"fish":["Karpfen","Schleie","Amur","Sonstige"],"metadata":{"platform":"hejfish","geocode_source":"hejfish_api_map_geojson","slug":"heuberg-3","seo_name":"Heuberg 3","description":"<p>Angelkarten nur für Mitglieder verfügbar<br></p>","borders":"<p>Ufer.<br></p>","techniques":["Ansitzangeln","Feedern","Friedfischangeln","Karpfenangeln","Posenangeln"],"manager":{"id":1775,"name":"Angelfreunde Eckersmühlen 05 e.V.","street":"Am Föhrenbaum 13","postal_code":"91154 ","city":"Roth-Eckersmühlen","telephone":"","email":"info@angelfreunde-eckersmuehlen.de","website":"https://angelfreunde-eckersmuehlen.de/","logo":"https://file.hejfish.com/image/r200x200/af/d8/afd82cd906a4c2a1551ed0bf78546a6d5f2b5065.png","slug":"angelfreunde-eckersmuehlen-05-e-v"},"season_begin":"0001-01-01","season_end":"0001-12-31","features":{"accessible":false,"public_transport":false,"boat":true,"belly_boat":true,"digital_ticket":true,"night_fishing":true,"ice_fishing":false,"depth_map":true,"has_gauges":false},"location":{"city":{"id":33986,"name":"Hilpoltstein"},"district":{"id":440,"name":"Kreis Roth"},"state":{"id":10,"name":"Bayern","slug":"bayern"},"country":{"id":2,"name":"Deutschland","code":"de","slug":"deutschland"}},"source_last_updated":"2026-05-07T11:42:12.582Z","error":false},"last_updated":"2026-05-07T11:42:12.582Z"}