{"id":15338,"slug":"fsv-ungedanken-vereinsgewaesser","url":"https://www.hejfish.com/d/15338-fsv-ungedanken-vereinsgewaesser","name":"FSV Ungedanken - Vereinsgewässer","seo_name":"FSV Ungedanken - Vereinsgewässer","description":"<p>Bitte Beschreibung eintragen</p>","intro":"","details":"","borders":"<p>Das gesamte Gewässer darf befischt werden.</p>","image":"https://file.hejfish.com/image/cc1200x900/4f/39/4f391180179847f8aba10d4f11909f42a5adf3f7.jpg","water_size_ha":null,"fish":[],"techniques":[],"properties":[],"water_type":"Teich (Weiher)","rules_text":"","rules_files":[],"tickets":[],"ticket_types":[],"manager":{"id":2094,"name":"FSV Ungedanken e.V.","street":"Hardtblick 2","postal_code":"34560","city":"Fritzlar","telephone":"+491753573703","email":"fsvungedanken@gmail.com","website":"","logo":"https://file.hejfish.com/image/r200x200/7b/72/7b72e75ad91b34a0856541a325ba0d9f3eeb9caa.png","slug":"fsv-ungedanken-e-v"},"season_begin":"0001-01-01","season_end":"0001-12-31","features":{"accessible":false,"public_transport":false,"boat":false,"belly_boat":false,"digital_ticket":false,"night_fishing":false,"ice_fishing":false,"depth_map":false,"has_gauges":false},"location":{"city":{"id":15440,"name":"Waldeck"},"district":{"id":218,"name":"Kreis Waldeck-Frankenberg"},"state":{"id":14,"name":"Hessen","slug":"hessen"},"country":{"id":2,"name":"Deutschland","code":"de","slug":"deutschland"}},"products":[{"id":2064,"name":"Statistikdaten in Rohformat (Excel) – FSV Ungedanken - Vereinsgewässer","caption":"","description":"<p>Mithilfe dieser Statistikdaten wollen wir dir zu deinem Fang verhelfen. In diesem Excel-Download findest du die anonymisierten Rohdaten zum jeweiligen Gewässer aus unserer Fangdatenbank.</p>","image":"https://file.hejfish.com/image/cc800x600/bd/85/bd8572e8d4e2c38eba0a2ce880a00196ceda2fd0.jpg","category":{"id":10,"name":"Fangstatistiken (Rohdaten)"},"price":null,"guest_ticket":null,"show_in_shop":false,"show_on_area_detail_page":true,"show_in_basket":false}],"points_of_interest":[],"catch_reports":[],"news":[],"hejfish_fee":[{"min":137,"max":297,"percent":8.9,"fisher_type":"guest"}],"lat":51.127624,"lng":9.221044,"geocode_source":"hejfish_api_map","map_data":{"id":15338,"geojson":[],"locations":[{"lat":51.127624,"lng":9.221044}],"stations":[{"name":"Fritzlar-Ungedanken Hauptstraße","lat":51.124322,"lng":9.219096,"lines":null,"url":null},{"name":"Fritzlar-Ungedanken Jüdischer Friedhof","lat":51.120886,"lng":9.220722,"lines":null,"url":null},{"name":"Fritzlar-Ungedanken Bahnhof","lat":51.124499,"lng":9.220939,"lines":null,"url":null},{"name":"Fritzlar-Ungedanken Dorfgemeinschaftshaus","lat":51.123805,"lng":9.221536,"lines":null,"url":null}],"gauges":[],"depth_map":null},"extractor_schema_version":2,"last_updated":"2026-05-07T11:45:35.586Z","error":false,"source_platform":"hejfish","global_id":"hejfish-15338","external_ids":{"hejfish":15338}}