{"id":"hejfish-13171","source_platform":"hejfish","source_ids":{"hejfish":13171},"name":"Wallersbach 2","water_type":"Teich (Weiher)","country":"DE","center":{"lat":49.200002,"lng":11.149251,"source":"hejfish_api_map_geojson","confidence":"high"},"geometry":{"points":[{"lat":49.200008,"lng":11.149035}],"lines":[],"polygons":[[{"lat":49.199755,"lng":11.148655},{"lat":49.199485,"lng":11.148875},{"lat":49.199464,"lng":11.149047},{"lat":49.199492,"lng":11.14909},{"lat":49.199941,"lng":11.149326},{"lat":49.200211,"lng":11.149583},{"lat":49.200256,"lng":11.149664},{"lat":49.200386,"lng":11.149846},{"lat":49.200512,"lng":11.149514},{"lat":49.20054,"lng":11.149417},{"lat":49.200491,"lng":11.149305},{"lat":49.200351,"lng":11.149165},{"lat":49.200158,"lng":11.148988},{"lat":49.199944,"lng":11.148768},{"lat":49.199808,"lng":11.148666}]],"source":"hejfish_api_map_geojson","confidence":"high"},"links":{"source":"https://www.hejfish.com/d/13171-wallersbach-2","hejfish":"https://www.hejfish.com/d/13171-wallersbach-2","alleangeln":null,"website":null,"image":"https://file.hejfish.com/image/cc1200x900/70/e0/70e096d868bae89da298317a4508d81113aa341c.jpeg"},"fish":["Zander","Karpfen","Schleie","Amur","Sonstige"],"metadata":{"platform":"hejfish","geocode_source":"hejfish_api_map_geojson","slug":"wallersbach-2","seo_name":"Wallersbach 2","description":"<p>Angelkarten nur für Mitglieder verfügbar<br></p>","borders":"<p>Ufer.</p>","techniques":["Ansitzangeln","Feedern","Friedfischangeln","Posenangeln","Karpfenangeln"],"manager":{"id":1775,"name":"Angelfreunde Eckersmühlen 05 e.V.","street":"Am Föhrenbaum 13","postal_code":"91154 ","city":"Roth-Eckersmühlen","telephone":"","email":"info@angelfreunde-eckersmuehlen.de","website":"https://angelfreunde-eckersmuehlen.de/","logo":"https://file.hejfish.com/image/r200x200/af/d8/afd82cd906a4c2a1551ed0bf78546a6d5f2b5065.png","slug":"angelfreunde-eckersmuehlen-05-e-v"},"season_begin":"0001-01-01","season_end":"0001-12-31","features":{"accessible":false,"public_transport":false,"boat":true,"belly_boat":true,"digital_ticket":true,"night_fishing":true,"ice_fishing":false,"depth_map":false,"has_gauges":false},"location":{"city":{"id":33982,"name":"Roth"},"district":{"id":440,"name":"Kreis Roth"},"state":{"id":10,"name":"Bayern","slug":"bayern"},"country":{"id":2,"name":"Deutschland","code":"de","slug":"deutschland"}},"source_last_updated":"2026-05-07T11:42:12.099Z","error":false},"last_updated":"2026-05-07T11:42:12.099Z"}