{"id":"hejfish-12040","source_platform":"hejfish","source_ids":{"hejfish":12040},"name":"Teichanlage Heidenrod Teich 4+5","water_type":"Teich (Weiher)","country":"DE","center":{"lat":50.202001,"lng":7.993361,"source":"hejfish_api_map_geojson","confidence":"high"},"geometry":{"points":[{"lat":50.213334,"lng":7.996484}],"lines":[],"polygons":[[{"lat":50.201909,"lng":7.993353},{"lat":50.202451,"lng":7.994576},{"lat":50.202709,"lng":7.994399},{"lat":50.202273,"lng":7.99316},{"lat":50.202111,"lng":7.993026},{"lat":50.20194,"lng":7.993165}],[{"lat":50.201294,"lng":7.99235},{"lat":50.201548,"lng":7.992736},{"lat":50.201905,"lng":7.993122},{"lat":50.202019,"lng":7.992838},{"lat":50.201792,"lng":7.992393},{"lat":50.201565,"lng":7.992146},{"lat":50.201555,"lng":7.992339}]],"source":"hejfish_api_map_geojson","confidence":"high"},"links":{"source":"https://www.hejfish.com/d/12040-teichanlage-heidenrod-teich-4-5","hejfish":"https://www.hejfish.com/d/12040-teichanlage-heidenrod-teich-4-5","alleangeln":null,"website":null,"image":"https://file.hejfish.com/image/cc1200x900/a3/72/a372d6631dd6d146f1c0658eecbcdb3ee5117cc3.jpeg"},"fish":["Regenbogenforelle","Karpfen","Schleie","Hecht","Zander","Div. Weißfische"],"metadata":{"platform":"hejfish","geocode_source":"hejfish_api_map_geojson","slug":"teichanlage-heidenrod-teich-4-5","seo_name":"Teichanlage Heidenrod Teich 4+5","description":"<p>Teichanlage der Fischerei-Gemeinschaft Einrich-Aar e.V. und eine der schönsten Anlagen im Umkreis, idyllisch in einem Tal im Taunus gelegen. 30 min. von Wiesbaden, 20 min von Limburg erreichbar. 2 naturnahe Teiche mit schönem Fischbestand.<br></p>","borders":"<p>Zwei Teiche sind befischbar. Die Schongebiete sind durch Hinweisschilder gekennzeichnet.</p>","techniques":["Ansitzangeln","Feedern","Posenangeln","Spinnangeln"],"rules_text":"<p><b>Anhang zum Gast-Erlaubnisschein</b></p><p>1. Der Erlaubnisschein ist erst nach Unterschrift des Inhabers u. ggf. der Begleitperson gültig.<br>2. Das Angeln an den in der Erlaubnis aufgeführten Gewässern geschieht auf eigenes Risiko.<br>3. Es ist nicht gestattet, mehrere Erlaubnisscheine für eine Person mit der gleichen Gültigkeit zu lösen.<br>4. Die gesetzlichen Bestimmungen des Fischereischeins und des jeweiligen Bundeslandes sind zu beachten. Die<br>Erlaubnis ist auf Verlangen Kontrollpersonen vorzuzeigen.<br>5. Alle gefangenen Fische sind, sobald sie in Besitz genommen werden, in die Fangliste einzutragen.<br>6. Die Gewässerordnung, der gültige Fischereischein und alle zum Ausdruck zur Verfügung gestellten Unterlagen<br>sind Bestandteil des Erlaubnisscheins und müssen mitgeführt werden.<br>8. Der Erlaubnisschein wurde maschinell erstellt und ist auch ohne Stempel und Unterschrift des Vereins gültig.<br>Ein Anspruch auf Rückgabe / Rückzahlung des Entgelts bei Nichtnutzung besteht nicht.<br>9. Bewusst falsche Angaben beim Erwerb und anschließender Nutzung des Erlaubnisscheins ziehen rechtliche Konsequenzen nach sich.<br>10. Verantwortlich für die Herausgabe des Erlaubnisscheins ist der Verein. Stand: 01.01.2015</p><p><b>Die beigefügte Gewässerordnung für Gastangler muss ausgedruckt und unterschrieben am Gewässer mitgeführt werden.</b></p><p><b><br></b></p><p><b>So finden sie die Teiche:<br><br></b>Navi:  Hupperter Pfad 2, 65321 Heidenrod, dann links halten und dem Feldweg folgen bis zum Parkplatz unterhalb Teich 5. Teich 4 ist direkt im Anschluss.<br><br>Ohne Navi: Bornbachhalle in der Ortsmitte, Wiesbadener Str. abbiegen in Auf dem Damm. Links in Hupperter Pfad abbiegen, dann links halten und dem Feldweg folgen bis zum Parkplatz unterhalb Teich 5. Teich 4 ist direkt im Anschluss.</p><p><b>Gewässerordnung Teichanlage Laufenselden, Teiche 4 +5<br></b>Die Schongebiete sind durch Hinweisschilder gekennzeichnet, Angeln nur außerhalb der Schongebiete.<br>Für den Fang sind max. 1 Hand- und 1 Grundangel, davon nur 1 Raubfischangel, sowie alle Köder, ausgenommen lebende Wirbeltiere, zugelassen. Es darf nur vom Ufer aus geangelt werden. Beide Angeln sind in unmittelbarer Nähe des Anglers und unter ständiger Beobachtung zu sein. Bei Verwendung von Drillingshaken sind die Widerhaken beizubiegen!<b><br><br>Fangbegrenzung<br></b>Pro Tag dürfen maximal 3 Edelfische, davon nur 1 Hecht, Karpfen oder Zander gefangen werden. Zu den Edelfischen zählen:<br>Aal, Forelle, Hecht, Karpfen, Schleie und Zander.<b> </b></p><p><b>Bei erlangen der Tagesquote ist das Angeln unmittelbar einzustellen.<br><br></b>Alle gefangenen Fische sind waidgerecht zu behandeln. Fische dürfen nicht gehältert werden. Die Mitnahme lebender Fische ist unzulässig. Das Zurücksetzen eines Fisches nach dem Fang ohne vernünftigen Grund ist verboten.<b><br><br>Nachtangelverbot für Gastangler.<br></b></p><p><b>Das Grillen oder Zelten an der Teichanlage ist verboten.<br><br><br></b></p>","rules_files":[{"id":1127773,"name":"teichanlage-heidenrod-teich-4-5-bestimmungen","description":null,"file":"https://api.hejfish.com/files/download/fa706288d31b559a1653f9e035f66f11b3c0bc9b/teichanlage-heidenrod-teich-4-5-bestimmungen.pdf"}],"tickets":[{"name":"Tageskarte - Normalpreis","price":"18,00 EUR","ticket_type_id":952,"price_id":93207}],"manager":{"id":1448,"name":"Fischerei-Gemeinschaft Einrich-Aar e.V.","street":"Wiesbadener Straße 2","postal_code":"65321","city":"Heidenrod","telephone":"+49 1575 06 140 36","email":"kassierer@fischerei-gemeinschaft-einrich-aar.de","website":"http://www.fischerei-gemeinschaft-einrich-aar.de/","logo":"https://file.hejfish.com/image/r200x200/e7/fc/e7fc94d8beada8fd2a20c629d5452d0a27296a32.jpeg","slug":"fischerei-gemeinschaft-einrich-aar-e-v"},"season_begin":"0001-03-31","season_end":"0001-12-31","features":{"accessible":false,"public_transport":true,"boat":false,"belly_boat":false,"digital_ticket":false,"night_fishing":false,"ice_fishing":false,"depth_map":false,"has_gauges":false},"location":{"city":{"id":25113,"name":"Heidenrod"},"district":{"id":324,"name":"Rheingau-Taunus-Kreis"},"state":{"id":14,"name":"Hessen","slug":"hessen"},"country":{"id":2,"name":"Deutschland","code":"de","slug":"deutschland"}},"source_last_updated":"2026-05-07T11:37:16.098Z","error":false},"last_updated":"2026-05-07T11:37:16.098Z"}