{"id":16094,"slug":"ilz-gewaesserabschnitt-a-von-grafenbruendl-bis-wehr-hals","url":"https://www.hejfish.com/d/16094-ilz-gewaesserabschnitt-a-von-grafenbruendl-bis-wehr-hals","name":"Ilz - Gewässerabschnitt A (von Grafenbründl bis Wehr Hals )","seo_name":"Ilz","description":"<p>Der Fließgewässerabschnitt A verfügt über eine offene Verbindung zu Donau und Inn und ist auch für die Befischung mit der künstlichen Fliege geeignet.</p> <p>Der Abschnitt umfasst eine Länge von ca. 3.100 Metern, eine Breite von etwa 25 bis 45 Metern sowie eine Wasserfläche von rund 13,5 Hektar und erreicht eine maximale Tiefe von etwa 1,5 Metern.</p>","intro":"","details":"","borders":"<p><u><b>Gewässer-Grenzen:</b></u></p>\n\n<p><b>Obere Grenze: </b>Wehr Hals<br><b>Untere Grenze: </b>Grafenbündl<br>(Länge: ca. 3100 m, Breite: ca. 45 m, Wasserfläche: 13,5 ha)</p>\n\n\n\n","image":"https://file.hejfish.com/image/cc1200x900/a0/b2/a0b2bfd667d7b4a87c0258f02cd2f2e786a59003.jpg","water_size_ha":null,"fish":["Bachforelle","Regenbogenforelle","Äsche","Hecht","Zander","Huchen"],"techniques":["Fliegenfischen","Spinnangeln"],"properties":[],"water_type":"Fluss","rules_text":"<p>Fische, die zum Zeitpunkt des Fanges keiner Fangbeschränkung unterliegen, dürfen nicht wieder zurückgesetzt werden (§ 11 Abbs. 9 AVBayFiG).</p><p>Grundsätzlich gelten die Bestimmungen des BayFiG, der AVBayFiG, sowie die von der Regierung von Niederbayern und der Kreisverwaltungsbehörde erlassenen Anordnungen in der jeweils gültigen Fassung.</p><p><br></p><p><b><u>Auflagen und Bedingungen:</u></b></p><p>1.\t<b>Erlaubt: </b>1 Handangel\r\n</p><p>2.\t<b>Verboten: </b></p><ul><li>Fischen mit lebendem Köderfisch</li><li>Fischen im Turbinenauslauf des Kraftwerkes</li><li>Fischen in der Fischpassanlage und an den durch Hinweisschilder ausgewiesenen Abschnitten am Ein- und Auslauf dieser Aufstiegshilfe</li><li>Die Verwendung von Lichtquellen (z.B. Scheinwerfer) beim Nachtfischen</li><li>Der Fischfang vom Boot aus\r\n</li><li>Das Anfüttern\r\n</li><li>Das Mitführen von Fischortungs- bzw. Echolotgeräten und Drohnen\r\n</li></ul><p>3.\t<b>Fangbeschränkung</b> bei Hecht, Zander, Bachforelle, Regenbogenforelle und Äsche einzeln oder zusammen<b> 3 Stück pro Tag</b>.\r\n</p><p>4.\tDie gefangenen Fische sind unmittelbar nach dem Fang in die Fangliste einzutragen. Geschonte und untermassige, nicht lebensfähige Fische sind mit ungelöstem Köder aufzubewahren.\r\n</p><p>5.\tTeilbereiche des Gewässerabschnitts liegen im <b>Naturschutzgebiet</b> „Halser Ilzschleifen“. <b>Es wird vorausgesetzt, dass Sie über Ge- und Verbote informiert sind. \r\n</b></p><p><br></p><p><b><u>Geänderte Schonzeiten/Mindestmaße:</u></b></p><p>Fischart // Schonzeit // Mindestmaß\r\n</p><ul><li>Hecht: 15.02.-31.05. // 50 cm\r\n</li><li>Zander: 15.02.-31.05. // 50 cm\r\n</li><li>Regenbogenforelle: 15.12.-15.03. // 30 cm\r\n</li><li>Bachforelle: 01.10.-15.03. // 30 cm\r\n</li><li>Huchen: 15.02.-30.06. // 90 cm</li></ul>","rules_files":[],"tickets":[{"name":"Tageskarte - Normalpreis inkl. Servicegebühr","price":"24,00 EUR","ticket_type_id":10608,"price_id":105011}],"ticket_types":[{"id":10608,"name":"Tageskarte","category":"DAY","duration":1,"prices":[{"id":105011,"name":"Normalpreis inkl. Servicegebühr","value":"24,00 EUR","cents":2400,"type":"DEFAULT","valid_from":"2026-01-01","valid_to":"2026-12-31","available_from":"2026-01-01","age":0,"eligible":true}],"licenses":{"required":["Fischereischein / Jugendfischereischein Deutschland"],"optional":[]},"rules_text":"<p>Fische, die zum Zeitpunkt des Fanges keiner Fangbeschränkung unterliegen, dürfen nicht wieder zurückgesetzt werden (§ 11 Abbs. 9 AVBayFiG).</p><p>Grundsätzlich gelten die Bestimmungen des BayFiG, der AVBayFiG, sowie die von der Regierung von Niederbayern und der Kreisverwaltungsbehörde erlassenen Anordnungen in der jeweils gültigen Fassung.</p><p><br></p><p><b><u>Auflagen und Bedingungen:</u></b></p><p>1.\t<b>Erlaubt: </b>1 Handangel\r\n</p><p>2.\t<b>Verboten: </b></p><ul><li>Fischen mit lebendem Köderfisch</li><li>Fischen im Turbinenauslauf des Kraftwerkes</li><li>Fischen in der Fischpassanlage und an den durch Hinweisschilder ausgewiesenen Abschnitten am Ein- und Auslauf dieser Aufstiegshilfe</li><li>Die Verwendung von Lichtquellen (z.B. Scheinwerfer) beim Nachtfischen</li><li>Der Fischfang vom Boot aus\r\n</li><li>Das Anfüttern\r\n</li><li>Das Mitführen von Fischortungs- bzw. Echolotgeräten und Drohnen\r\n</li></ul><p>3.\t<b>Fangbeschränkung</b> bei Hecht, Zander, Bachforelle, Regenbogenforelle und Äsche einzeln oder zusammen<b> 3 Stück pro Tag</b>.\r\n</p><p>4.\tDie gefangenen Fische sind unmittelbar nach dem Fang in die Fangliste einzutragen. Geschonte und untermassige, nicht lebensfähige Fische sind mit ungelöstem Köder aufzubewahren.\r\n</p><p>5.\tTeilbereiche des Gewässerabschnitts liegen im <b>Naturschutzgebiet</b> „Halser Ilzschleifen“. <b>Es wird vorausgesetzt, dass Sie über Ge- und Verbote informiert sind. \r\n</b></p><p><br></p><p><b><u>Geänderte Schonzeiten/Mindestmaße:</u></b></p><p>Fischart // Schonzeit // Mindestmaß\r\n</p><ul><li>Hecht: 15.02.-31.05. // 50 cm\r\n</li><li>Zander: 15.02.-31.05. // 50 cm\r\n</li><li>Regenbogenforelle: 15.12.-15.03. // 30 cm\r\n</li><li>Bachforelle: 01.10.-15.03. // 30 cm\r\n</li><li>Huchen: 15.02.-30.06. // 90 cm</li></ul>","rules_files":[],"additional_areas":[],"catch_report_required":true}],"manager":{"id":2314,"name":"Fischerinnung Hals","street":"Stromlänge 40","postal_code":"94034","city":"Passau","telephone":"0049 15153162371 ","email":"fischerinnung-hals@outlook.de","website":"","logo":"https://file.hejfish.com/image/r200x200/ab/2e/ab2eff4e21042539d7e0b566f3d14bc6f6d3b76b.jpg","slug":"fischerinnung-hals"},"season_begin":"0001-01-01","season_end":"0001-12-31","features":{"accessible":false,"public_transport":true,"boat":false,"belly_boat":false,"digital_ticket":true,"night_fishing":true,"ice_fishing":false,"depth_map":false,"has_gauges":true},"location":{"city":{"id":34979,"name":"Ritzing"},"district":{"id":461,"name":"Kreis Passau"},"state":{"id":10,"name":"Bayern","slug":"bayern"},"country":{"id":2,"name":"Deutschland","code":"de","slug":"deutschland"}},"products":[{"id":2251,"name":"Statistikdaten in Rohformat (Excel) – Ilz - Gewässerabschnitt A (von Grafenbründl bis Wehr Hals )","caption":"","description":"<p>Mithilfe dieser Statistikdaten wollen wir dir zu deinem Fang verhelfen. In diesem Excel-Download findest du die anonymisierten Rohdaten zum jeweiligen Gewässer aus unserer Fangdatenbank.</p>","image":"https://file.hejfish.com/image/cc800x600/bd/85/bd8572e8d4e2c38eba0a2ce880a00196ceda2fd0.jpg","category":{"id":10,"name":"Fangstatistiken (Rohdaten)"},"price":null,"guest_ticket":null,"show_in_shop":false,"show_on_area_detail_page":true,"show_in_basket":false}],"points_of_interest":[],"catch_reports":[],"news":[],"hejfish_fee":[{"min":137,"max":297,"percent":8.9,"fisher_type":"guest"}],"lat":48.584051,"lng":13.468364,"geocode_source":"hejfish_api_map","map_data":{"id":16094,"geojson":[],"locations":[{"lat":48.584051,"lng":13.468364},{"lat":48.590254,"lng":13.460899}],"stations":[{"name":"Ries, Rennweg","lat":48.587004,"lng":13.452298,"lines":null,"url":null},{"name":"Passau, Bockhofweg","lat":48.582512,"lng":13.452828,"lines":null,"url":null},{"name":"Passau, Badhausgasse","lat":48.57437,"lng":13.453008,"lines":null,"url":null},{"name":"Hacklberg, Eggendobl","lat":48.577127,"lng":13.45387,"lines":null,"url":null},{"name":"Passau, Sturmbergweg","lat":48.579011,"lng":13.454131,"lines":null,"url":null},{"name":"Passau, Bahnhofstraße","lat":48.57431,"lng":13.45458,"lines":null,"url":null},{"name":"Passau, Schanzlbrücke","lat":48.574958,"lng":13.455793,"lines":null,"url":null},{"name":"Passau, Am Schanzlturm","lat":48.575089,"lng":13.456008,"lines":null,"url":null},{"name":"Passau, Am Schanzl(Busbucht)","lat":48.574417,"lng":13.456143,"lines":null,"url":null},{"name":"Passau, Nagelschmiedgasse","lat":48.576081,"lng":13.461272,"lines":null,"url":null},{"name":"Passau, Rindermarkt","lat":48.575624,"lng":13.461632,"lines":null,"url":null},{"name":"Hals, Hochstein","lat":48.594687,"lng":13.462521,"lines":null,"url":null},{"name":"Hals","lat":48.589238,"lng":13.462674,"lines":null,"url":null},{"name":"Passau, Anger","lat":48.577567,"lng":13.463249,"lines":null,"url":null},{"name":"Passau, Landrichterstr.","lat":48.588632,"lng":13.463617,"lines":null,"url":null},{"name":"Stromlänge, Achatiusstraße","lat":48.587028,"lng":13.46421,"lines":null,"url":null},{"name":"Passau, Schlosserstiege","lat":48.576004,"lng":13.464515,"lines":null,"url":null},{"name":"Passau, Domplatz","lat":48.575107,"lng":13.464884,"lines":null,"url":null},{"name":"Passau, Rosensteig","lat":48.585899,"lng":13.466168,"lines":null,"url":null},{"name":"Passau, Residenzplatz","lat":48.574399,"lng":13.467345,"lines":null,"url":null},{"name":"Passau, Rathaus","lat":48.575439,"lng":13.468405,"lines":null,"url":null},{"name":"Passau, Rathausplatz","lat":48.575398,"lng":13.468917,"lines":null,"url":null},{"name":"Stromlänge, Oetkersiedlung","lat":48.58499,"lng":13.46925,"lines":null,"url":null},{"name":"Sieglgut","lat":48.591407,"lng":13.470678,"lines":null,"url":null},{"name":"Passau, Römerplatz","lat":48.574851,"lng":13.470768,"lines":null,"url":null},{"name":"Passau, Oberhaus","lat":48.578518,"lng":13.471594,"lines":null,"url":null},{"name":"Sieglberg","lat":48.591069,"lng":13.472897,"lines":null,"url":null},{"name":"Passau, Ilzbrücke","lat":48.577312,"lng":13.473768,"lines":null,"url":null},{"name":"Stromlänge, Ilzleite","lat":48.584806,"lng":13.473849,"lines":null,"url":null},{"name":"Passau, Christdobl","lat":48.580461,"lng":13.476643,"lines":null,"url":null}],"gauges":[{"id":1632,"name":"Kalteneck","lat":48.6887257,"lng":13.4519099},{"id":1631,"name":"Schrottenbaummühle","lat":48.7313355,"lng":13.4391896}],"depth_map":null},"extractor_schema_version":2,"last_updated":"2026-05-07T11:46:36.731Z","error":false,"source_platform":"hejfish","global_id":"hejfish-16094","external_ids":{"hejfish":16094}}