{"id":15991,"slug":"laber-bei-berching","url":"https://www.hejfish.com/d/15991-laber-bei-berching","name":"Laber bei Berching","seo_name":"Laber","description":"<p>Gesamtlänge: 0,9 Kilometer</p> <p>Besonderheit: an den Gewässergrenzen ist eine Beschilderung angebracht </p> <p>Fischarten: Bachforelle, Regenbogenforelle, verschiedene Weisfischarten, Barsch, Aal</p>","intro":"","details":"","borders":"<p>Von der Grenze zwischen Fl.Nr.334 Gemarkung Holnstein und 667 Gemarkung Oening bis Grenze zwischen Fl.Nr.662 und 668 Gemarkung Oening sowie im Fischwasser Laber Gemarkung Staufersbuch an der Grenze gegen das nördliche Laberflurstück 1621 bis zur Grenze JohannisbrückeFl.Nr.287/Gemarkung Holnstein</p>","image":"https://file.hejfish.com/image/cc1200x900/f0/cf/f0cf849588dfe6b4be5b729fd4437a9754b458ca.jpg","water_size_ha":null,"fish":["Bachforelle","Regenbogenforelle","Flussbarsch","Aal","Div. Weißfische"],"techniques":["Ansitzangeln","Feedern","Fliegenfischen","Friedfischangeln","Grundbleiangeln","Naturköderangeln","Posenangeln","Raubfischangeln","Spinnangeln"],"properties":[],"water_type":"Bach","rules_text":"","rules_files":[],"tickets":[],"ticket_types":[],"manager":{"id":2279,"name":"Fischereiverein Berching e.V.","street":"Waldstraße 10a","postal_code":"92334","city":"Berching","telephone":"08462/905173","email":"wolfgang.waier@fischereiverein-berching.de","website":"https://fischereiverein-berching.de/","logo":"https://file.hejfish.com/image/r200x200/7e/71/7e71d48d3e6ce1c95017007ab39d84b2a8ad1ee1.jpg","slug":"fischereiverein-berching-e-v"},"season_begin":"0001-01-01","season_end":"0001-12-31","features":{"accessible":false,"public_transport":true,"boat":false,"belly_boat":false,"digital_ticket":true,"night_fishing":true,"ice_fishing":false,"depth_map":false,"has_gauges":true},"location":{"city":{"id":34146,"name":"Berching"},"district":{"id":443,"name":"Kreis Neumarkt in der Oberpfalz"},"state":{"id":10,"name":"Bayern","slug":"bayern"},"country":{"id":2,"name":"Deutschland","code":"de","slug":"deutschland"}},"products":[{"id":2243,"name":"Statistikdaten in Rohformat (Excel) – Laber bei Berching","caption":"","description":"<p>Mithilfe dieser Statistikdaten wollen wir dir zu deinem Fang verhelfen. In diesem Excel-Download findest du die anonymisierten Rohdaten zum jeweiligen Gewässer aus unserer Fangdatenbank.</p>","image":"https://file.hejfish.com/image/cc800x600/bd/85/bd8572e8d4e2c38eba0a2ce880a00196ceda2fd0.jpg","category":{"id":10,"name":"Fangstatistiken (Rohdaten)"},"price":null,"guest_ticket":null,"show_in_shop":false,"show_on_area_detail_page":true,"show_in_basket":false}],"points_of_interest":[],"catch_reports":[],"news":[],"hejfish_fee":[{"min":137,"max":297,"percent":8.9,"fisher_type":"guest"}],"lat":49.134907,"lng":11.522341,"geocode_source":"hejfish_api_map","map_data":{"id":15991,"geojson":[],"locations":[{"lat":49.134907,"lng":11.522341},{"lat":49.11341,"lng":11.513765},{"lat":49.103338,"lng":11.518732},{"lat":49.1008,"lng":11.525251}],"stations":[{"name":"Holnstein (b. Berching) Schule","lat":49.112218,"lng":11.507572,"lines":null,"url":null},{"name":"Butzenberg","lat":49.121937,"lng":11.510949,"lines":null,"url":null},{"name":"Holnstein (Berch.) Neue Brücke","lat":49.112507,"lng":11.512072,"lines":null,"url":null},{"name":"Altmannsberg (b. Berching)","lat":49.127693,"lng":11.513222,"lines":null,"url":null},{"name":"Oening","lat":49.094292,"lng":11.519052,"lines":null,"url":null},{"name":"Hermannsberg (Berchg.) Ortsmi.","lat":49.133923,"lng":11.530389,"lines":null,"url":null},{"name":"Staufersbuch Abzw Fessmaierstr","lat":49.119068,"lng":11.533039,"lines":null,"url":null},{"name":"Staufersbuch Ortsmitte","lat":49.117181,"lng":11.533712,"lines":null,"url":null}],"gauges":[{"id":1409,"name":"Holnstein","lat":49.1216623,"lng":11.5164448},{"id":1410,"name":"Parsberg","lat":49.1711955,"lng":11.727599}],"depth_map":null},"extractor_schema_version":2,"last_updated":"2026-05-07T11:46:29.826Z","error":false,"source_platform":"hejfish","global_id":"hejfish-15991","external_ids":{"hejfish":15991}}