{"id":"hejfish-14075","source_platform":"hejfish","source_ids":{"hejfish":14075},"name":"Bibower Bach bei Neuhof","water_type":"Bach","country":"DE","center":{"lat":53.780115,"lng":11.62981,"source":"hejfish_api_map_geojson","confidence":"high"},"geometry":{"points":[{"lat":53.779922,"lng":11.629779},{"lat":53.779763,"lng":11.628402},{"lat":53.7799,"lng":11.6297}],"lines":[[{"lat":53.780759,"lng":11.624092},{"lat":53.780233,"lng":11.625483},{"lat":53.780105,"lng":11.625883},{"lat":53.779652,"lng":11.628302},{"lat":53.779672,"lng":11.628567},{"lat":53.780544,"lng":11.632218},{"lat":53.780654,"lng":11.632805},{"lat":53.779985,"lng":11.635014},{"lat":53.779471,"lng":11.635527}]],"polygons":[],"source":"hejfish_api_map_geojson","confidence":"high"},"links":{"source":"https://www.hejfish.com/d/14075-bibower-bach-bei-neuhof","hejfish":"https://www.hejfish.com/d/14075-bibower-bach-bei-neuhof","alleangeln":null,"image":null},"fish":["Flussbarsch","Rotauge","Aal"],"metadata":{"platform":"hejfish","geocode_source":"hejfish_api_map_geojson","slug":"bibower-bach-bei-neuhof","seo_name":"Bibower Bach bei Neuhof","techniques":["Spinnangeln","Fliegenfischen","Ansitzangeln","Feedern","Stippangeln","Posenangeln","Oberflächenangeln","Raubfischangeln","Friedfischangeln","Karpfenangeln"],"rules_files":[{"id":293056,"name":"satellitenbild","description":null,"file":"https://api.hejfish.com/files/download/13adadc3879183e37d81ec954062d460320422e7/satellitenbild.pdf"},{"id":884564,"name":"Gewaesserordnung 01.01.2023","description":null,"file":"https://api.hejfish.com/files/download/d4cbab17110d09a2062535e73af3194f406fe45b/Gewaesserordnung%2001.01.2023.pdf"}],"tickets":[{"name":"Tageskarte - Erwachsene","price":"16,00 EUR","ticket_type_id":6330,"price_id":100426},{"name":"Tageskarte - Jugend","price":"4,00 EUR","ticket_type_id":6330,"price_id":100427},{"name":"2-Tageskarte - Erwachsene","price":"32,00 EUR","ticket_type_id":6331,"price_id":100428},{"name":"2-Tageskarte - Jugend","price":"8,00 EUR","ticket_type_id":6331,"price_id":100429},{"name":"Wochenkarte - Erwachsene","price":"92,00 EUR","ticket_type_id":6332,"price_id":100430},{"name":"Wochenkarte - Jugend","price":"20,00 EUR","ticket_type_id":6332,"price_id":100431},{"name":"Monatskarte - Erwachsene","price":"172,00 EUR","ticket_type_id":6333,"price_id":100432}],"manager":{"id":1834,"name":"Landesanglerverband Mecklenburg-Vorpommern e.V.","street":"OT Görslow, Siedlung 18a","postal_code":"19067","city":"Leezen","telephone":"","email":"","website":"https://www.lav-mv.de/","logo":"https://file.hejfish.com/image/r200x200/37/cb/37cb2792d40e6c06eadde2bd767e4c1c68624403.png","slug":"landesanglerverband-mecklenburg-vorpommern-e-v"},"season_begin":"0001-01-01","season_end":"0001-12-31","features":{"accessible":false,"public_transport":false,"boat":true,"belly_boat":true,"digital_ticket":true,"night_fishing":true,"ice_fishing":false,"depth_map":false,"has_gauges":false},"location":{"city":{"id":9292,"name":"Bibow"},"district":{"id":153,"name":"Kreis Nordwestmecklenburg"},"state":{"id":20,"name":"Mecklenburg-Vorpommern","slug":"mecklenburg-vorpommern"},"country":{"id":2,"name":"Deutschland","code":"de","slug":"deutschland"}},"source_last_updated":"2026-05-07T11:43:52.307Z","error":false},"last_updated":"2026-05-07T11:43:52.307Z"}