{"id":"hejfish-15020","source_platform":"hejfish","source_ids":{"hejfish":15020},"name":"Riebelweiher II","water_type":"Teich (Weiher)","country":"DE","center":{"lat":48.068009,"lng":10.9483,"source":"hejfish_api_map_geojson","confidence":"high"},"geometry":{"points":[{"lat":48.067861,"lng":10.947944}],"lines":[],"polygons":[[{"lat":48.068,"lng":10.947243},{"lat":48.067756,"lng":10.947069},{"lat":48.067602,"lng":10.947077},{"lat":48.067627,"lng":10.94915},{"lat":48.067564,"lng":10.94933},{"lat":48.067666,"lng":10.949531},{"lat":48.06843,"lng":10.947452},{"lat":48.068453,"lng":10.947302},{"lat":48.068328,"lng":10.947235}]],"source":"hejfish_api_map_geojson","confidence":"high"},"links":{"source":"https://www.hejfish.com/d/15020-riebelweiher-ii","hejfish":"https://www.hejfish.com/d/15020-riebelweiher-ii","alleangeln":null,"website":null,"image":"https://file.hejfish.com/image/cc1200x900/54/6b/546bb953e50189a91d21bdb74a70215408188441.jpg"},"fish":["Aal","Brasse","Flussbarsch","Güster","Karpfen","Regenbogenforelle","Rotauge","Rotfeder","Schleie","Zander","Hecht","Schuppenkarpfen","Spiegelkarpfen","Laube"],"metadata":{"platform":"hejfish","geocode_source":"hejfish_api_map_geojson","slug":"riebelweiher-ii","seo_name":"Riebelweiher II","description":"<h4><b>Gäste sind in Begleitung eines Vollmitgliedes erlaubt. Die Karte ist für Mitglieder hier erhältlich!</b></h4> <p><b>Riebelweiher 2</b><br></p> <p>Durch jahrelangen Kiesabbau entstand dieser Baggersee in einer Größe von 1,7 ha. Der F.V. Penzing konnte ihn ab dem 01.Januar 2007 in Pacht nehmen. Da das Gewässer ebenfalls Grundwasser gespeist ist und dadurch eine gleichmäßige kalte Wassertemperatur hält, werden nur Regenbogenforellen gesetzt.</p>","borders":"<p>Das gesamte Gewässer darf befischt werden! </p>","techniques":["Ansitzangeln","Feedern","Friedfischangeln","Karpfenangeln","Naturköderangeln","Oberflächenangeln","Posenangeln","Raubfischangeln","Spinnangeln","Stippangeln"],"manager":{"id":2006,"name":"Fischereiverein Penzing e.V.","street":"Benedikt-Haag-Str. 1","postal_code":"86899 ","city":"Landsberg","telephone":"+49 (0)8191 308022  ","email":"info@fv-penzing.de","website":"https://www.fv-penzing.de/","logo":"https://file.hejfish.com/image/r200x200/7f/2e/7f2e89256d4a23894c69e718d4a54c120cfb1e39.jpg","slug":"fischereiverein-penzing-e-v"},"season_begin":"0001-01-01","season_end":"0001-12-31","features":{"accessible":false,"public_transport":false,"boat":false,"belly_boat":false,"digital_ticket":true,"night_fishing":true,"ice_fishing":false,"depth_map":false,"has_gauges":false},"location":{"city":{"id":31389,"name":"Penzing (Bayern)"},"district":{"id":394,"name":"Kreis Landsberg am Lech"},"state":{"id":10,"name":"Bayern","slug":"bayern"},"country":{"id":2,"name":"Deutschland","code":"de","slug":"deutschland"}},"source_last_updated":"2026-05-07T11:45:02.299Z","error":false},"last_updated":"2026-05-07T11:45:02.299Z"}